%RAWIMUSA,2124,293507.368;2124,293507.367755000,00000077,776,291,-64267,16,3,20*ec6d71cd
%RAWIMUSA,2124,293507.378;2124,293507.377755000,00000077,686,346,-64388,12,7,-23*f53d093b
%RAWIMUSA,2124,293507.388;2124,293507.387755000,00000077,872,324,-64234,4,-1,-6*4cc658d7
%RAWIMUSA,2124,293507.398;2124,293507.397755000,00000077,793,267,-64347,14,12,-9*8ced0f28
%RAWIMUSA,2124,293507.408;2124,293507.407755000,00000077,791,311,-64219,11,8,0*92f84f52
%RAWIMUSA,2124,293507.418;2124,293507.417755000,00000077,698,269,-64278,18,-11,-1*558f4217
%RAWIMUSA,2124,293507.428;2124,293507.427755000,00000077,788,189,-64238,10,10,0*3b7abc39
%RAWIMUSA,2124,293507.438;2124,293507.437755000,00000077,839,229,-64364,11,7,4*48b69738
%RAWIMUSA,2124,293507.448;2124,293507.447755000,00000077,887,342,-64321,8,10,12*0e9e1331
%RAWIMUSA,2124,293507.458;2124,293507.457755000,00000077,823,216,-64318,9,-3,-7*3c021d4a
%RAWIMUSA,2124,293507.468;2124,293507.467755000,00000077,820,279,-64404,22,-5,-4*8304cd20
%RAWIMUSA,2124,293507.478;2124,293507.477755000,00000077,778,322,-64259,18,0,-12*178c5cb8
%RAWIMUSA,2124,293507.488;2124,293507.487755000,00000077,873,180,-64336,10,2,25*c61b9e2f
%RAWIMUSA,2124,293507.498;2124,293507.497755000,00000077,903,226,-64341,14,-9,-3*224bbe9a
%RAWIMUSA,2124,293507.508;2124,293507.507755000,00000077,857,204,-64296,0,-9,-1*f66a1599
%RAWIMUSA,2124,293507.518;2124,293507.517755000,00000077,847,270,-64308,5,11,0*dca757af
%RAWIMUSA,2124,293507.528;2124,293507.527755000,00000077,832,260,-64269,23,5,14*4c0c344f
%RAWIMUSA,2124,293507.538;2124,293507.537755000,00000077,755,184,-64247,4,0,3*538be547
%RAWIMUSA,2124,293507.548;2124,293507.547755000,00000077,814,256,-64358,23,4,-4*57eed9dd
%RAWIMUSA,2124,293507.558;2124,293507.557755000,00000077,760,256,-64246,1,-8,-2*a59cdb8e
%RAWIMUSA,2124,293507.568;2124,293507.567755000,00000077,852,243,-64285,17,7,2*6875b818
%RAWIMUSA,2124,293507.578;2124,293507.577755000,00000077,818,203,-64310,12,-12,-15*558daf62
%RAWIMUSA,2124,293507.588;2124,293507.587755000,00000077,794,284,-64307,-16,-1,-3*8dae14de
%RAWIMUSA,2124,293507.598;2124,293507.597755000,00000077,812,274,-64269,-3,5,2*875f721e
%RAWIMUSA,2124,293507.608;2124,293507.607755000,00000077,752,254,-64293,1,-1,-24*61e4c014
%RAWIMUSA,2124,293507.618;2124,293507.617755000,00000077,787,314,-64247,-7,15,2*741ed748
%RAWIMUSA,2124,293507.628;2124,293507.627755000,00000077,802,201,-64328,5,7,-18*2e942c98
%RAWIMUSA,2124,293507.638;2124,293507.637755000,00000077,757,312,-64229,11,10,0*6ab2282b
%RAWIMUSA,2124,293507.648;2124,293507.647755000,00000077,810,260,-64320,10,-6,8*11cb5361
%RAWIMUSA,2124,293507.658;2124,293507.657755000,00000077,746,295,-64404,2,9,-10*0efda565
%RAWIMUSA,2124,293507.668;2124,293507.667755000,00000077,794,281,-64317,2,3,8*d0a0d704
%RAWIMUSA,2124,293507.678;2124,293507.677755000,00000077,876,226,-64257,6,-8,-10*889a4493
%RAWIMUSA,2124,293507.688;2124,293507.687755000,00000077,698,265,-64342,26,-3,0*e44ed56f
%RAWIMUSA,2124,293507.698;2124,293507.697755000,00000077,755,229,-64339,20,2,-5*d466cfab
%RAWIMUSA,2124,293507.708;2124,293507.707755000,00000077,865,374,-64333,-2,2,1*3edfbc21
%RAWIMUSA,2124,293507.718;2124,293507.717755000,00000077,778,206,-64357,2,14,-9*bf264bf5
%RAWIMUSA,2124,293507.728;2124,293507.727755000,00000077,748,247,-64284,17,10,-10*6d2cc905
%RAWIMUSA,2124,293507.738;2124,293507.737755000,00000077,767,226,-64327,19,12,3*f67a4a04
%RAWIMUSA,2124,293507.748;2124,293507.747755000,00000077,877,248,-64299,7,-9,0*f893fe02
%RAWIMUSA,2124,293507.758;2124,293507.757755000,00000077,786,277,-64333,16,3,12*75b19b91
%RAWIMUSA,2124,293507.768;2124,293507.767755000,00000077,858,210,-64275,7,10,-6*5ff1fa07
%RAWIMUSA,2124,293507.778;2124,293507.777755000,00000077,797,330,-64342,16,3,2*49fc73af
%RAWIMUSA,2124,293507.788;2124,293507.787755000,00000077,807,351,-64375,6,5,6*c5121139
%RAWIMUSA,2124,293507.798;2124,293507.797755000,00000077,799,250,-64331,7,16,-7*59e725ca
%RAWIMUSA,2124,293507.808;2124,293507.807755000,00000077,701,256,-64316,1,13,-20*6c1d6526
%RAWIMUSA,2124,293507.818;2124,293507.817755000,00000077,889,231,-64329,1,5,-2*61bde4fe
%RAWIMUSA,2124,293507.828;2124,293507.827755000,00000077,789,358,-64291,8,16,1*bdce7947
%RAWIMUSA,2124,293507.838;2124,293507.837755000,00000077,839,343,-64201,9,21,-2*ab6a863b
%RAWIMUSA,2124,293507.848;2124,293507.847755000,00000077,725,219,-64276,8,9,-7*b64a4853
%RAWIMUSA,2124,293507.858;2124,293507.857755000,00000077,807,271,-64403,19,4,5*98c0f502
%RAWIMUSA,2124,293507.868;2124,293507.867755000,00000077,749,188,-64327,13,-3,-5*792dc488
%RAWIMUSA,2124,293507.878;2124,293507.877755000,00000077,800,198,-64338,-1,14,0*539ff6c5
%RAWIMUSA,2124,293507.888;2124,293507.887755000,00000077,831,228,-64360,2,-6,-1*81566705
%RAWIMUSA,2124,293507.898;2124,293507.897755000,00000077,830,198,-64249,13,9,-14*09701315
%RAWIMUSA,2124,293507.908;2124,293507.907755000,00000077,808,247,-64353,4,-4,3*6634cb67
%RAWIMUSA,2124,293507.918;2124,293507.917755000,00000077,802,108,-64212,19,15,0*0de7d430
%RAWIMUSA,2124,293507.928;2124,293507.927755000,00000077,939,290,-64403,-2,15,-9*e5cb8e39
%RAWIMUSA,2124,293507.938;2124,293507.937755000,00000077,827,237,-64309,37,15,-5*29f0ce4f
%RAWIMUSA,2124,293507.948;2124,293507.947755000,00000077,715,280,-64267,11,6,1*e29b9ee1
%RAWIMUSA,2124,293507.958;2124,293507.957755000,00000077,771,197,-64282,16,10,-4*6086ba0a
%RAWIMUSA,2124,293507.968;2124,293507.967755000,00000077,823,442,-64311,1,10,0*e93b6c10
%RAWIMUSA,2124,293507.978;2124,293507.977755000,00000077,727,199,-64301,2,4,-8*a7112bf6
%RAWIMUSA,2124,293507.988;2124,293507.987755000,00000077,784,290,-64280,5,20,11*25c23e70
%RAWIMUSA,2124,293507.998;2124,293507.997755000,00000077,809,265,-64320,11,-7,6*f5822f68
%RAWIMUSA,2124,293508.008;2124,293508.007755000,00000077,807,300,-64173,27,2,2*25312588
%RAWIMUSA,2124,293508.018;2124,293508.017755000,00000077,883,272,-64307,16,-4,-2*6ce244b7
%RAWIMUSA,2124,293508.028;2124,293508.027755000,00000077,703,189,-64290,14,-12,22*da44daa9
%RAWIMUSA,2124,293508.038;2124,293508.037755000,00000077,760,264,-64388,-2,2,1*69a2df09
%RAWIMUSA,2124,293508.048;2124,293508.047755000,00000077,774,243,-64290,7,6,1*73629a16
%RAWIMUSA,2124,293508.058;2124,293508.057755000,00000077,711,178,-64250,4,-8,2*4d0e5181
%RAWIMUSA,2124,293508.068;2124,293508.067755000,00000077,724,163,-64382,15,-14,-10*f3d757a1
%RAWIMUSA,2124,293508.078;2124,293508.077755000,00000077,733,249,-64266,15,12,-5*38ec1e29
%RAWIMUSA,2124,293508.088;2124,293508.087755000,00000077,815,257,-64345,11,-10,-6*7570845e
%RAWIMUSA,2124,293508.098;2124,293508.097755000,00000077,777,262,-64371,15,-3,-9*cc35a461
%RAWIMUSA,2124,293508.108;2124,293508.107755000,00000077,816,238,-64334,18,-11,-1*b745e821
%RAWIMUSA,2124,293508.118;2124,293508.117755000,00000077,783,205,-64302,11,-5,-9*3c40294a
%RAWIMUSA,2124,293508.128;2124,293508.127755000,00000077,811,311,-64296,29,-1,4*81d9f707
%RAWIMUSA,2124,293508.138;2124,293508.137755000,00000077,782,284,-64282,9,3,-4*d89bf741
%RAWIMUSA,2124,293508.148;2124,293508.147755000,00000077,892,195,-64341,12,11,3*abe57ca0
%RAWIMUSA,2124,293508.158;2124,293508.157755000,00000077,846,304,-64331,26,1,-4*ee2631c6
%RAWIMUSA,2124,293508.168;2124,293508.167755000,00000077,878,223,-64283,14,1,-11*29844f79
%RAWIMUSA,2124,293508.178;2124,293508.177755000,00000077,837,232,-64292,14,0,-1*e8fa5688
%RAWIMUSA,2124,293508.188;2124,293508.187755000,00000077,750,155,-64343,5,26,-17*3403fc86
%RAWIMUSA,2124,293508.198;2124,293508.197755000,00000077,853,159,-64235,11,2,-15*4329f121
%RAWIMUSA,2124,293508.208;2124,293508.207755000,00000077,792,221,-64293,24,10,1*82daa2ff
%RAWIMUSA,2124,293508.218;2124,293508.217755000,00000077,801,261,-64320,4,2,-9*2e4a7b0c
%RAWIMUSA,2124,293508.228;2124,293508.227755000,00000077,821,254,-64204,23,7,-6*79450f4d
%RAWIMUSA,2124,293508.238;2124,293508.237755000,00000077,891,335,-64272,14,16,2*e4f151c4
%RAWIMUSA,2124,293508.248;2124,293508.247755000,00000077,866,374,-64330,6,9,-7*95c5ca99
%RAWIMUSA,2124,293508.258;2124,293508.257755000,00000077,871,204,-64356,18,0,6*8dbe7c82
%RAWIMUSA,2124,293508.268;2124,293508.267755000,00000077,780,220,-64246,2,2,0*3fcbc2bd
%RAWIMUSA,2124,293508.278;2124,293508.277755000,00000077,774,313,-64333,9,-8,-9*3d326db6
%RAWIMUSA,2124,293508.288;2124,293508.287755000,00000077,901,259,-64189,3,-4,1*77f28c56
%RAWIMUSA,2124,293508.298;2124,293508.297755000,00000077,827,278,-64294,13,-6,0*07307e5f
%RAWIMUSA,2124,293508.308;2124,293508.307755000,00000077,820,236,-64288,10,-5,-16*ad1a00b3
%RAWIMUSA,2124,293508.318;2124,293508.317755000,00000077,823,360,-64214,6,13,-2*debee109
%RAWIMUSA,2124,293508.328;2124,293508.327755000,00000077,812,251,-64383,25,22,-3*9a4adc7e
%RAWIMUSA,2124,293508.338;2124,293508.337755000,00000077,825,225,-64280,9,11,-5*61906282
%RAWIMUSA,2124,293508.348;2124,293508.347755000,00000077,727,262,-64335,7,-5,-4*2d509ce1
%RAWIMUSA,2124,293508.358;2124,293508.357755000,00000077,756,301,-64327,23,25,-16*7e659a9e
%RAWIMUSA,2124,293508.368;2124,293508.367755000,00000077,795,271,-64308,-1,12,-2*6e7d9cdb
%RAWIMUSA,2124,293508.378;2124,293508.377755000,00000077,794,219,-64243,29,0,-5*868d6111
%RAWIMUSA,2124,293508.388;2124,293508.387755000,00000077,885,280,-64260,1,8,2*0da6f8e5
%RAWIMUSA,2124,293508.398;2124,293508.397755000,00000077,802,203,-64318,6,0,-6*8b7b3e6b
%RAWIMUSA,2124,293508.408;2124,293508.407755000,00000077,940,262,-64268,17,-15,-2*e4f503c5
%RAWIMUSA,2124,293508.418;2124,293508.417755000,00000077,907,227,-64293,10,-4,8*b9f54875
%RAWIMUSA,2124,293508.428;2124,293508.427755000,00000077,870,371,-64329,15,27,-6*1c951dfb
%RAWIMUSA,2124,293508.438;2124,293508.437755000,00000077,808,290,-64290,3,-11,-2*bf623dab
%RAWIMUSA,2124,293508.448;2124,293508.447755000,00000077,850,281,-64261,17,6,-7*69727b98
%RAWIMUSA,2124,293508.458;2124,293508.457755000,00000077,782,293,-64305,11,-11,0*63db9d44
%RAWIMUSA,2124,293508.468;2124,293508.467755000,00000077,741,219,-64233,0,0,0*1e8cc565
%RAWIMUSA,2124,293508.478;2124,293508.477755000,00000077,833,330,-64266,-3,-1,-4*88e81e93
%RAWIMUSA,2124,293508.488;2124,293508.487755000,00000077,934,325,-64318,-1,8,-12*08629c5f
%RAWIMUSA,2124,293508.498;2124,293508.497755000,00000077,760,202,-64343,23,-6,-7*05b082da
%RAWIMUSA,2124,293508.508;2124,293508.507755000,00000077,799,255,-64315,3,-3,0*e505cd71
%RAWIMUSA,2124,293508.518;2124,293508.517755000,00000077,753,165,-64214,10,0,-12*4efcae48
%RAWIMUSA,2124,293508.528;2124,293508.527755000,00000077,848,302,-64421,1,3,-7*455844d9
%RAWIMUSA,2124,293508.538;2124,293508.537755000,00000077,701,215,-64397,10,-2,-1*05995495
%RAWIMUSA,2124,293508.548;2124,293508.547755000,00000077,818,304,-64320,4,-10,6*5a5633f1
%RAWIMUSA,2124,293508.558;2124,293508.557755000,00000077,813,311,-64268,15,-8,-10*b57e9fd4
%RAWIMUSA,2124,293508.568;2124,293508.567755000,00000077,869,291,-64299,20,-6,0*54f11902
%RAWIMUSA,2124,293508.578;2124,293508.577755000,00000077,786,331,-64295,8,14,-12*3cb7ec46
%RAWIMUSA,2124,293508.588;2124,293508.587755000,00000077,835,254,-64329,-1,7,-5*4fb94f08
%RAWIMUSA,2124,293508.598;2124,293508.597755000,00000077,789,248,-64309,12,15,-5*70f8accd
%RAWIMUSA,2124,293508.608;2124,293508.607755000,00000077,818,205,-64311,7,5,-14*4dd402c3
%RAWIMUSA,2124,293508.618;2124,293508.617755000,00000077,911,244,-64278,15,7,14*01e18cd6
%RAWIMUSA,2124,293508.628;2124,293508.627755000,00000077,812,272,-64245,19,13,0*12c29cf6
%RAWIMUSA,2124,293508.638;2124,293508.637755000,00000077,845,333,-64319,13,2,-18*f64cbbe9
%RAWIMUSA,2124,293508.648;2124,293508.647755000,00000077,791,241,-64336,8,5,-5*8cf0c507
%RAWIMUSA,2124,293508.658;2124,293508.657755000,00000077,764,375,-64337,10,27,2*4af88234
%RAWIMUSA,2124,293508.668;2124,293508.667755000,00000077,754,363,-64316,5,-4,0*6c5828bb
%RAWIMUSA,2124,293508.678;2124,293508.677755000,00000077,853,303,-64295,9,10,1*92fe8350
%RAWIMUSA,2124,293508.688;2124,293508.687755000,00000077,907,294,-64284,25,9,-4*0cd33732
%RAWIMUSA,2124,293508.698;2124,293508.697755000,00000077,716,221,-64373,-5,-1,0*505fbbe6
%RAWIMUSA,2124,293508.708;2124,293508.707755000,00000077,854,287,-64299,9,12,-3*183f717f
%RAWIMUSA,2124,293508.718;2124,293508.717755000,00000077,819,261,-64313,17,-6,-1*1c0fb496
%RAWIMUSA,2124,293508.728;2124,293508.727755000,00000077,852,326,-64328,13,0,4*6c535cad
%RAWIMUSA,2124,293508.738;2124,293508.737755000,00000077,790,172,-64320,18,-9,8*dd5639d5
%RAWIMUSA,2124,293508.748;2124,293508.747755000,00000077,833,326,-64309,9,0,-2*9ce85896
%RAWIMUSA,2124,293508.758;2124,293508.757755000,00000077,838,336,-64341,9,2,-3*a7fa5836
%RAWIMUSA,2124,293508.768;2124,293508.767755000,00000077,808,197,-64396,4,10,4*e35a81bc
%RAWIMUSA,2124,293508.778;2124,293508.777755000,00000077,732,249,-64348,1,18,1*6cab20dc
%RAWIMUSA,2124,293508.788;2124,293508.787755000,00000077,757,258,-64335,6,1,-14*6e44b10b
%RAWIMUSA,2124,293508.798;2124,293508.797755000,00000077,787,202,-64269,13,-2,-5*7b9f773b
%RAWIMUSA,2124,293508.808;2124,293508.807755000,00000077,765,199,-64261,5,5,0*b364e6a4
%RAWIMUSA,2124,293508.818;2124,293508.817755000,00000077,717,220,-64252,25,-5,10*a7ff078b
%RAWIMUSA,2124,293508.828;2124,293508.827755000,00000077,738,405,-64291,23,-2,-16*93e40fd8
%RAWIMUSA,2124,293508.838;2124,293508.837755000,00000077,917,310,-64358,20,-2,1*50abac38
%RAWIMUSA,2124,293508.848;2124,293508.847755000,00000077,715,221,-64414,6,-21,0*ef45121a
%RAWIMUSA,2124,293508.858;2124,293508.857755000,00000077,802,338,-64391,4,-2,-8*aec555fa
%RAWIMUSA,2124,293508.868;2124,293508.867755000,00000077,730,299,-64340,5,5,-2*1df9ee5b
%RAWIMUSA,2124,293508.878;2124,293508.877755000,00000077,865,200,-64248,25,2,3*9a08bfa0
%RAWIMUSA,2124,293508.888;2124,293508.887755000,00000077,731,195,-64203,8,14,-4*478539c8
%RAWIMUSA,2124,293508.898;2124,293508.897755000,00000077,806,294,-64285,11,-14,-5*51b3494a
%RAWIMUSA,2124,293508.908;2124,293508.907755000,00000077,848,298,-64363,31,7,0*264a8e6e
%RAWIMUSA,2124,293508.918;2124,293508.917755000,00000077,837,305,-64247,22,17,12*31de6087
%RAWIMUSA,2124,293508.928;2124,293508.927755000,00000077,784,320,-64378,12,20,-2*c6f49d99
%RAWIMUSA,2124,293508.938;2124,293508.937755000,00000077,733,291,-64383,6,9,9*18871313
%RAWIMUSA,2124,293508.948;2124,293508.947755000,00000077,756,174,-64395,-7,11,5*b839fcdf
%RAWIMUSA,2124,293508.958;2124,293508.957755000,00000077,835,332,-64362,10,8,-12*dc2337bd
%RAWIMUSA,2124,293508.968;2124,293508.967755000,00000077,770,208,-64346,8,10,7*0c9b4370
%RAWIMUSA,2124,293508.978;2124,293508.977755000,00000077,835,380,-64269,9,-14,-22*cc673e61
%RAWIMUSA,2124,293508.988;2124,293508.987755000,00000077,795,310,-64314,19,20,-7*f641a1fa
%RAWIMUSA,2124,293508.998;2124,293508.997755000,00000077,770,322,-64327,15,-4,-1*4f13d078
%RAWIMUSA,2124,293509.008;2124,293509.007755000,00000077,754,254,-64206,13,1,3*bc668654
%RAWIMUSA,2124,293509.018;2124,293509.017755000,00000077,868,271,-64328,8,9,-8*8b4f08d0
%RAWIMUSA,2124,293509.028;2124,293509.027755000,00000077,754,282,-64392,33,4,-2*4fe716be
%RAWIMUSA,2124,293509.038;2124,293509.037755000,00000077,748,242,-64319,12,7,10*f34fce30
%RAWIMUSA,2124,293509.048;2124,293509.047755000,00000077,704,183,-64290,-16,13,0*d8831a7d
%RAWIMUSA,2124,293509.058;2124,293509.057755000,00000077,816,272,-64316,16,12,-16*0781bce9
%RAWIMUSA,2124,293509.068;2124,293509.067755000,00000077,796,168,-64249,12,1,0*b4a855a1
%RAWIMUSA,2124,293509.078;2124,293509.077755000,00000077,846,218,-64302,6,-6,-4*65cfb823
%RAWIMUSA,2124,293509.088;2124,293509.087755000,00000077,857,278,-64293,9,8,3*b215269a
%RAWIMUSA,2124,293509.098;2124,293509.097755000,00000077,837,226,-64271,21,6,3*abfb798a
%RAWIMUSA,2124,293509.108;2124,293509.107755000,00000077,806,240,-64370,19,-5,-11*6031144a
%RAWIMUSA,2124,293509.118;2124,293509.117755000,00000077,768,209,-64391,7,0,6*86ebdfe1
%RAWIMUSA,2124,293509.128;2124,293509.127755000,00000077,815,234,-64303,16,3,-1*daa7d828
%RAWIMUSA,2124,293509.138;2124,293509.137755000,00000077,826,341,-64258,27,0,1*bb418d12
%RAWIMUSA,2124,293509.148;2124,293509.147755000,00000077,803,234,-64243,12,10,1*2c8351f3
%RAWIMUSA,2124,293509.158;2124,293509.157755000,00000077,699,278,-64423,14,-5,-11*e4874b20
%RAWIMUSA,2124,293509.168;2124,293509.167755000,00000077,801,241,-64302,25,-4,2*7568d3de
%RAWIMUSA,2124,293509.178;2124,293509.177755000,00000077,845,184,-64278,14,-5,8*33b5d1bf
%RAWIMUSA,2124,293509.188;2124,293509.187755000,00000077,831,177,-64366,5,1,12*34e4f64b
%RAWIMUSA,2124,293509.198;2124,293509.197755000,00000077,769,246,-64227,11,15,1*a471b639
%RAWIMUSA,2124,293509.208;2124,293509.207755000,00000077,805,218,-64265,11,4,-9*73848ae8
%RAWIMUSA,2124,293509.218;2124,293509.217755000,00000077,886,290,-64244,17,16,0*5d72e707
%RAWIMUSA,2124,293509.228;2124,293509.227755000,00000077,822,129,-64282,5,11,8*ca53b979
%RAWIMUSA,2124,293509.238;2124,293509.237755000,00000077,811,189,-64379,10,-6,-5*70dd596e
%RAWIMUSA,2124,293509.248;2124,293509.247755000,00000077,772,337,-64338,5,17,3*e5ad26ad
%RAWIMUSA,2124,293509.258;2124,293509.257755000,00000077,709,234,-64340,11,10,6*3f98ad1b
%RAWIMUSA,2124,293509.268;2124,293509.267755000,00000077,796,259,-64219,24,3,0*89147271
%RAWIMUSA,2124,293509.278;2124,293509.277755000,00000077,783,222,-64397,14,7,4*5a1ee7c0
%RAWIMUSA,2124,293509.288;2124,293509.287755000,00000077,739,288,-64336,9,-7,-11*072e1cd6
%RAWIMUSA,2124,293509.298;2124,293509.297755000,00000077,815,307,-64274,22,-9,2*d8ba0b30
%RAWIMUSA,2124,293509.308;2124,293509.307755000,00000077,655,258,-64273,19,9,-8*43466cd5
%RAWIMUSA,2124,293509.318;2124,293509.317755000,00000077,813,186,-64246,-5,13,-8*e571ef5c
%RAWIMUSA,2124,293509.328;2124,293509.327755000,00000077,824,265,-64357,13,-14,13*b8abdae5
%RAWIMUSA,2124,293509.338;2124,293509.337755000,00000077,812,298,-64281,29,2,-9*ac4180dc
%RAWIMUSA,2124,293509.348;2124,293509.347755000,00000077,929,191,-64301,24,0,3*cbd04c75
%RAWIMUSA,2124,293509.358;2124,293509.357755000,00000077,887,242,-64231,-2,-2,-13*88833905
%RAWIMUSA,2124,293509.368;2124,293509.367755000,00000077,858,292,-64317,14,-1,-12*7af25d20
%RAWIMUSA,2124,293509.378;2124,293509.377755000,00000077,858,286,-64307,20,0,1*6c212b8f
%RAWIMUSA,2124,293509.388;2124,293509.387755000,00000077,808,214,-64262,4,-9,-4*3c3bdcf4
%RAWIMUSA,2124,293509.398;2124,293509.397755000,00000077,792,221,-64234,17,-6,-1*b6d063ed
%RAWIMUSA,2124,293509.408;2124,293509.407755000,00000077,731,219,-64280,0,8,-18*a787c81d
%RAWIMUSA,2124,293509.418;2124,293509.417755000,00000077,886,259,-64222,9,5,-10*5f6bea1b
%RAWIMUSA,2124,293509.428;2124,293509.427755000,00000077,797,274,-64232,18,5,-1*3c009322
%RAWIMUSA,2124,293509.438;2124,293509.437755000,00000077,771,204,-64322,8,5,6*3013960b
%RAWIMUSA,2124,293509.448;2124,293509.447755000,00000077,762,316,-64263,16,-5,6*46231c61
%RAWIMUSA,2124,293509.458;2124,293509.457755000,00000077,701,284,-64275,22,-1,-8*807a8822
%RAWIMUSA,2124,293509.468;2124,293509.467755000,00000077,789,219,-64347,1,8,0*c32b788a
%RAWIMUSA,2124,293509.478;2124,293509.477755000,00000077,824,246,-64245,13,2,-8*d990b8a7
%RAWIMUSA,2124,293509.488;2124,293509.487755000,00000077,751,295,-64352,21,10,1*115f68cb
%RAWIMUSA,2124,293509.498;2124,293509.497755000,00000077,789,289,-64280,12,5,8*00bcae98
%RAWIMUSA,2124,293509.508;2124,293509.507755000,00000077,748,213,-64320,24,-11,-6*31b08b2f
%RAWIMUSA,2124,293509.518;2124,293509.517755000,00000077,812,313,-64284,1,5,5*975bc8c8
%RAWIMUSA,2124,293509.528;2124,293509.527755000,00000077,862,309,-64342,19,-2,-20*d15dd39e
%RAWIMUSA,2124,293509.538;2124,293509.537755000,00000077,816,238,-64286,29,8,3*05f89392
%RAWIMUSA,2124,293509.548;2124,293509.547755000,00000077,823,274,-64354,9,-5,0*6ed95d46
%RAWIMUSA,2124,293509.558;2124,293509.557755000,00000077,813,283,-64265,7,15,2*6c3f7f0b
%RAWIMUSA,2124,293509.568;2124,293509.567755000,00000077,734,244,-64266,22,4,0*654b2311
%RAWIMUSA,2124,293509.578;2124,293509.577755000,00000077,878,221,-64321,13,6,9*f2a13c28
%RAWIMUSA,2124,293509.588;2124,293509.587755000,00000077,706,245,-64301,11,6,8*3f22a0d0
%RAWIMUSA,2124,293509.598;2124,293509.597755000,00000077,751,313,-64435,10,0,-11*51d98bcc
%RAWIMUSA,2124,293509.608;2124,293509.607755000,00000077,729,234,-64315,20,8,-2*9b078116
%RAWIMUSA,2124,293509.618;2124,293509.617755000,00000077,876,202,-64345,16,-13,6*a3e4140e
%RAWIMUSA,2124,293509.628;2124,293509.627755000,00000077,635,191,-64169,4,11,3*27539897
%RAWIMUSA,2124,293509.638;2124,293509.637755000,00000077,789,121,-64301,-4,2,14*99cb4ad4
%RAWIMUSA,2124,293509.648;2124,293509.647755000,00000077,829,264,-64258,19,3,-4*044988d5
%RAWIMUSA,2124,293509.658;2124,293509.657755000,00000077,773,283,-64300,12,-7,-3*45f8c8f0
%RAWIMUSA,2124,293509.668;2124,293509.667755000,00000077,780,268,-64303,5,-15,6*8984b708
%RAWIMUSA,2124,293509.678;2124,293509.677755000,00000077,700,237,-64278,16,5,-14*14b43026
%RAWIMUSA,2124,293509.688;2124,293509.687755000,00000077,770,342,-64343,6,12,0*6203d7ae
%RAWIMUSA,2124,293509.698;2124,293509.697755000,00000077,873,287,-64391,17,-3,-11*fcc29acc
%RAWIMUSA,2124,293509.708;2124,293509.707755000,00000077,756,307,-64279,9,7,5*7768ff1b
%RAWIMUSA,2124,293509.718;2124,293509.717755000,00000077,751,303,-64381,5,-9,0*2a16c777
%RAWIMUSA,2124,293509.728;2124,293509.727755000,00000077,774,161,-64279,21,6,1*e6ea7127
%RAWIMUSA,2124,293509.738;2124,293509.737755000,00000077,766,253,-64372,10,11,0*95665412
%RAWIMUSA,2124,293509.748;2124,293509.747755000,00000077,865,133,-64238,-5,-5,-5*2b6653cf
%RAWIMUSA,2124,293509.758;2124,293509.757755000,00000077,780,268,-64313,0,1,-3*164668ac
%RAWIMUSA,2124,293509.768;2124,293509.767755000,00000077,795,228,-64330,7,13,2*e81fa15b
%RAWIMUSA,2124,293509.778;2124,293509.777755000,00000077,837,329,-64239,6,-5,-4*7f17eaa1
%RAWIMUSA,2124,293509.788;2124,293509.787755000,00000077,830,201,-64278,6,0,0*25b32bc2
%RAWIMUSA,2124,293509.798;2124,293509.797755000,00000077,811,284,-64293,-2,-8,4*31e896e8
%RAWIMUSA,2124,293509.808;2124,293509.807755000,00000077,841,232,-64238,0,1,7*cd500e06
%RAWIMUSA,2124,293509.818;2124,293509.817755000,00000077,915,269,-64250,15,8,-12*c40a0ebe
%RAWIMUSA,2124,293509.828;2124,293509.827755000,00000077,813,224,-64215,3,19,-6*c09c1803
%RAWIMUSA,2124,293509.838;2124,293509.837755000,00000077,821,287,-64246,10,9,-9*ec996cbd
%RAWIMUSA,2124,293509.848;2124,293509.847755000,00000077,902,273,-64302,26,8,10*5d96e640
%RAWIMUSA,2124,293509.858;2124,293509.857755000,00000077,826,294,-64232,10,9,0*3cd67166
%RAWIMUSA,2124,293509.868;2124,293509.867755000,00000077,804,269,-64302,17,10,-9*770a8021
%RAWIMUSA,2124,293509.878;2124,293509.877755000,00000077,854,251,-64249,6,0,-2*92bf2f40
%RAWIMUSA,2124,293509.888;2124,293509.887755000,00000077,751,291,-64245,-4,-7,6*53c5e354
%RAWIMUSA,2124,293509.898;2124,293509.897755000,00000077,797,248,-64327,9,3,0*4aa623e6
%RAWIMUSA,2124,293509.908;2124,293509.907755000,00000077,784,350,-64264,-1,-13,8*1379b427
%RAWIMUSA,2124,293509.918;2124,293509.917755000,00000077,722,246,-64251,8,14,-11*b034c327
%RAWIMUSA,2124,293509.928;2124,293509.927755000,00000077,712,212,-64243,18,-1,1*c7b6aff0
%RAWIMUSA,2124,293509.938;2124,293509.937755000,00000077,783,157,-64341,3,-4,10*25bb439b
%RAWIMUSA,2124,293509.948;2124,293509.947755000,00000077,834,291,-64254,-4,21,14*15225ce7
%RAWIMUSA,2124,293509.958;2124,293509.957755000,00000077,819,269,-64171,3,5,2*3d294ec7
%RAWIMUSA,2124,293509.968;2124,293509.967755000,00000077,798,252,-64251,15,18,-9*7f763449
%RAWIMUSA,2124,293509.978;2124,293509.977755000,00000077,762,313,-64300,36,-7,1*a39fcc5f
%RAWIMUSA,2124,293509.988;2124,293509.987755000,00000077,731,191,-64296,1,11,-8*502453cf
%RAWIMUSA,2124,293509.998;2124,293509.997755000,00000077,820,372,-64276,26,0,4*f527187e
%RAWIMUSA,2124,293510.008;2124,293510.007755000,00000077,820,261,-64292,19,2,5*9cfd2985
%RAWIMUSA,2124,293510.018;2124,293510.017755000,00000077,733,226,-64355,9,5,-7*bebf2dce
%RAWIMUSA,2124,293510.028;2124,293510.027755000,00000077,718,237,-64390,5,5,-16*81f2e916
%RAWIMUSA,2124,293510.038;2124,293510.037755000,00000077,800,276,-64253,9,13,4*6cbeb4bf
%RAWIMUSA,2124,293510.048;2124,293510.047755000,00000077,800,266,-64362,1,1,-11*5dfeb4fe
%RAWIMUSA,2124,293510.058;2124,293510.057755000,00000077,717,246,-64311,0,-1,-11*b962337f
%RAWIMUSA,2124,293510.068;2124,293510.067755000,00000077,699,285,-64314,5,0,12*75282028
%RAWIMUSA,2124,293510.078;2124,293510.077755000,00000077,824,205,-64378,-5,20,-1*9fe3a24b
%RAWIMUSA,2124,293510.088;2124,293510.087755000,00000077,766,214,-64277,9,0,-4*b90ae1b6
%RAWIMUSA,2124,293510.098;2124,293510.097755000,00000077,832,337,-64359,11,-4,-3*dab5a161
%RAWIMUSA,2124,293510.108;2124,293510.107755000,00000077,739,247,-64378,12,1,-9*bea76ddb
%RAWIMUSA,2124,293510.118;2124,293510.117755000,00000077,760,180,-64262,19,2,-1*364522a3
%RAWIMUSA,2124,293510.128;2124,293510.127755000,00000077,813,268,-64295,-2,10,2*206b6a07
%RAWIMUSA,2124,293510.138;2124,293510.137755000,00000077,762,310,-64438,18,6,-15*919ddbe6
%RAWIMUSA,2124,293510.148;2124,293510.147755000,00000077,839,272,-64297,27,2,-4*e0f48755
%RAWIMUSA,2124,293510.158;2124,293510.157755000,00000077,748,107,-64201,5,-10,-9*9b3290b4
%RAWIMUSA,2124,293510.168;2124,293510.167755000,00000077,783,259,-64259,17,-6,8*efd23721
%RAWIMUSA,2124,293510.178;2124,293510.177755000,00000077,778,276,-64402,6,-14,-12*493fe4b2
%RAWIMUSA,2124,293510.188;2124,293510.187755000,00000077,752,294,-64245,16,7,-5*bbff29b7
%RAWIMUSA,2124,293510.198;2124,293510.197755000,00000077,819,239,-64350,18,1,-5*b5e37db9
%RAWIMUSA,2124,293510.208;2124,293510.207755000,00000077,842,217,-64285,9,14,5*f2a8ef72
%RAWIMUSA,2124,293510.218;2124,293510.217755000,00000077,755,274,-64291,18,-10,-4*026744c2
%RAWIMUSA,2124,293510.228;2124,293510.227755000,00000077,817,240,-64310,14,0,-4*b00e2901
%RAWIMUSA,2124,293510.238;2124,293510.237755000,00000077,868,190,-64210,14,8,-6*05abb69b
%RAWIMUSA,2124,293510.248;2124,293510.247755000,00000077,735,243,-64298,8,7,8*663cdf13
%RAWIMUSA,2124,293510.258;2124,293510.257755000,00000077,817,247,-64308,10,13,0*991aa446
%RAWIMUSA,2124,293510.268;2124,293510.267755000,00000077,795,236,-64245,23,1,-10*4f0087ed
%RAWIMUSA,2124,293510.278;2124,293510.277755000,00000077,786,224,-64320,1,7,6*bd2a14d6
%RAWIMUSA,2124,293510.288;2124,293510.287755000,00000077,838,238,-64247,2,3,3*6d7db456
%RAWIMUSA,2124,293510.298;2124,293510.297755000,00000077,801,269,-64418,-7,-1,1*539d7bc5
%RAWIMUSA,2124,293510.308;2124,293510.307755000,00000077,813,223,-64303,13,-3,-9*538ed023
%RAWIMUSA,2124,293510.318;2124,293510.317755000,00000077,779,155,-64258,10,3,-6*7c012395
%RAWIMUSA,2124,293510.328;2124,293510.327755000,00000077,815,275,-64321,4,-2,-9*0b97064d
%RAWIMUSA,2124,293510.338;2124,293510.337755000,00000077,808,190,-64244,1,-6,-8*6d6c98a2
%RAWIMUSA,2124,293510.348;2124,293510.347755000,00000077,764,266,-64425,-1,-1,0*151e8e28
%RAWIMUSA,2124,293510.358;2124,293510.357755000,00000077,809,186,-64306,13,-15,-6*aca4a868
%RAWIMUSA,2124,293510.368;2124,293510.367755000,00000077,833,218,-64289,10,12,-6*e671738f
%RAWIMUSA,2124,293510.378;2124,293510.377755000,00000077,788,292,-64248,23,12,5*ab0ef65e
%RAWIMUSA,2124,293510.388;2124,293510.387755000,00000077,818,252,-64278,15,-9,-11*2aa427fe
%RAWIMUSA,2124,293510.398;2124,293510.397755000,00000077,746,252,-64335,22,3,-1*25bf8de2
%RAWIMUSA,2124,293510.408;2124,293510.407755000,00000077,736,329,-64335,24,17,-10*98b40456
%RAWIMUSA,2124,293510.418;2124,293510.417755000,00000077,779,328,-64338,10,2,-3*eaea8cf1
%RAWIMUSA,2124,293510.428;2124,293510.427755000,00000077,726,310,-64330,10,4,8*beb5bc34
%RAWIMUSA,2124,293510.438;2124,293510.437755000,00000077,781,261,-64302,13,4,-3*19315313
%RAWIMUSA,2124,293510.448;2124,293510.447755000,00000077,843,233,-64364,13,-7,0*22c24c3d
%RAWIMUSA,2124,293510.458;2124,293510.457755000,00000077,862,224,-64252,18,1,8*45b57efe
%RAWIMUSA,2124,293510.468;2124,293510.467755000,00000077,822,266,-64281,9,7,4*1ecbe11a
%RAWIMUSA,2124,293510.478;2124,293510.477755000,00000077,804,430,-64378,13,-6,-4*d42aca1e
%RAWIMUSA,2124,293510.488;2124,293510.487755000,00000077,664,286,-64288,23,-1,-8*c8ab6cdb
%RAWIMUSA,2124,293510.498;2124,293510.497755000,00000077,801,259,-64322,22,17,-10*eafb2115
%RAWIMUSA,2124,293510.508;2124,293510.507755000,00000077,853,189,-64361,12,-6,-5*ed1b4342
%RAWIMUSA,2124,293510.518;2124,293510.517755000,00000077,795,212,-64206,18,8,-2*444745e8
%RAWIMUSA,2124,293510.528;2124,293510.527755000,00000077,832,282,-64351,8,-17,-5*4b5bdfde
%RAWIMUSA,2124,293510.538;2124,293510.537755000,00000077,741,166,-64333,11,0,16*610309c2
%RAWIMUSA,2124,293510.548;2124,293510.547755000,00000077,835,270,-64322,3,7,1*4b161310
%RAWIMUSA,2124,293510.558;2124,293510.557755000,00000077,860,345,-64308,25,-4,3*2046f5a1
%RAWIMUSA,2124,293510.568;2124,293510.567755000,00000077,835,245,-64267,-9,1,-4*1f46628c
%RAWIMUSA,2124,293510.578;2124,293510.577755000,00000077,849,229,-64281,37,0,0*0d0725db
%RAWIMUSA,2124,293510.588;2124,293510.587755000,00000077,747,243,-64383,5,6,-14*57af3dac
%RAWIMUSA,2124,293510.598;2124,293510.597755000,00000077,857,251,-64337,28,11,-5*3fedca5e
%RAWIMUSA,2124,293510.608;2124,293510.607755000,00000077,717,162,-64306,15,10,-9*d89514e4
%RAWIMUSA,2124,293510.618;2124,293510.617755000,00000077,852,308,-64281,17,4,5*fd8c5c07
%RAWIMUSA,2124,293510.628;2124,293510.627755000,00000077,870,237,-64371,-2,5,-2*bcf42d58
%RAWIMUSA,2124,293510.638;2124,293510.637755000,00000077,713,181,-64239,45,5,0*2acb08be
%RAWIMUSA,2124,293510.648;2124,293510.647755000,00000077,749,244,-64368,-9,0,3*70bbdb90
%RAWIMUSA,2124,293510.658;2124,293510.657755000,00000077,793,251,-64329,37,17,-8*7bc28f74
%RAWIMUSA,2124,293510.668;2124,293510.667755000,00000077,811,249,-64217,-29,2,1*255aadd0
%RAWIMUSA,2124,293510.678;2124,293510.677755000,00000077,784,216,-64270,39,-7,-7*674b92c2
%RAWIMUSA,2124,293510.688;2124,293510.687755000,00000077,811,180,-64318,-13,6,-7*d5a8396a
%RAWIMUSA,2124,293510.698;2124,293510.697755000,00000077,942,304,-64301,46,-4,-8*f082c70a
%RAWIMUSA,2124,293510.708;2124,293510.707755000,00000077,774,298,-64324,-6,9,9*181b89ee
%RAWIMUSA,2124,293510.718;2124,293510.717755000,00000077,758,308,-64274,43,-12,-4*71bf8de9
%RAWIMUSA,2124,293510.728;2124,293510.727755000,00000077,799,195,-64255,-16,3,-6*d3a87529
%RAWIMUSA,2124,293510.738;2124,293510.737755000,00000077,782,300,-64246,25,-4,-3*1b358d05
%RAWIMUSA,2124,293510.748;2124,293510.747755000,00000077,804,275,-64375,-23,-8,-1*f2af0e91
%RAWIMUSA,2124,293510.758;2124,293510.757755000,00000077,756,363,-64294,62,5,-7*154ce36a
%RAWIMUSA,2124,293510.768;2124,293510.767755000,00000077,862,219,-64327,-15,18,-15*ce09595d
%RAWIMUSA,2124,293510.778;2124,293510.777755000,00000077,832,228,-64297,24,-1,-1*f6cec28d
%RAWIMUSA,2124,293510.788;2124,293510.787755000,00000077,792,314,-64299,-28,1,-10*12236215
%RAWIMUSA,2124,293510.798;2124,293510.797755000,00000077,902,272,-64246,36,0,9*a60c9f3d
%RAWIMUSA,2124,293510.808;2124,293510.807755000,00000077,849,242,-64221,-16,0,3*a02fc7dd
%RAWIMUSA,2124,293510.818;2124,293510.817755000,00000077,917,230,-64230,43,11,9*183c33c4
%RAWIMUSA,2124,293510.828;2124,293510.827755000,00000077,882,285,-64256,-19,-1,-18*8398c006
%RAWIMUSA,2124,293510.838;2124,293510.837755000,00000077,800,162,-64330,26,10,-13*4e1c8b48
%RAWIMUSA,2124,293510.848;2124,293510.847755000,00000077,764,353,-64260,-19,15,-1*cb2f726c
%RAWIMUSA,2124,293510.858;2124,293510.857755000,00000077,802,301,-64284,25,-10,-4*70747bac
%RAWIMUSA,2124,293510.868;2124,293510.867755000,00000077,777,307,-64284,2,-7,0*509927a3
%RAWIMUSA,2124,293510.878;2124,293510.877755000,00000077,825,234,-64333,38,5,14*3fd07c93
%RAWIMUSA,2124,293510.888;2124,293510.887755000,00000077,741,291,-64220,-6,3,-6*18da7243
%RAWIMUSA,2124,293510.898;2124,293510.897755000,00000077,873,198,-64338,36,-6,0*03c6af4b
%RAWIMUSA,2124,293510.908;2124,293510.907755000,00000077,674,252,-64305,0,-4,10*01dbba7e
%RAWIMUSA,2124,293510.918;2124,293510.917755000,00000077,935,212,-64287,23,6,2*f61ce5d2
%RAWIMUSA,2124,293510.928;2124,293510.927755000,00000077,788,265,-64355,-4,4,-10*143b8877
%RAWIMUSA,2124,293510.938;2124,293510.937755000,00000077,830,270,-64363,3,3,-10*cdb137bd
%RAWIMUSA,2124,293510.948;2124,293510.947755000,00000077,846,240,-64325,9,-2,5*6db53aba
%RAWIMUSA,2124,293510.958;2124,293510.957755000,00000077,841,230,-64272,2,3,-9*c57cf52a
%RAWIMUSA,2124,293510.968;2124,293510.967755000,00000077,817,244,-64248,26,6,6*a342986a
%RAWIMUSA,2124,293510.978;2124,293510.977755000,00000077,906,170,-64325,-2,5,4*fe2c5cd8
%RAWIMUSA,2124,293510.988;2124,293510.987755000,00000077,833,243,-64276,28,6,13*9da6381a
%RAWIMUSA,2124,293510.998;2124,293510.997755000,00000077,735,255,-64338,-8,8,-10*ebd458a2
%RAWIMUSA,2124,293511.008;2124,293511.007755000,00000077,760,153,-64214,16,0,-2*32904c0b
%RAWIMUSA,2124,293511.018;2124,293511.017755000,00000077,829,273,-64328,-17,8,7*8673a032
%RAWIMUSA,2124,293511.028;2124,293511.027755000,00000077,773,225,-64304,36,15,8*cee2cde1
%RAWIMUSA,2124,293511.038;2124,293511.037755000,00000077,847,298,-64328,-22,8,-5*7878449e
%RAWIMUSA,2124,293511.048;2124,293511.047755000,00000077,717,284,-64344,36,4,0*c7427cdb
%RAWIMUSA,2124,293511.058;2124,293511.057755000,00000077,886,291,-64312,-25,19,9*c967e78b
%RAWIMUSA,2124,293511.068;2124,293511.067755000,00000077,777,226,-64372,37,14,-17*04651492
%RAWIMUSA,2124,293511.078;2124,293511.077755000,00000077,778,188,-64298,-16,-4,-9*084343c8
%RAWIMUSA,2124,293511.088;2124,293511.087755000,00000077,845,243,-64352,19,-4,-3*4806f532
%RAWIMUSA,2124,293511.098;2124,293511.097755000,00000077,805,309,-64330,0,12,8*a1939868
%RAWIMUSA,2124,293511.108;2124,293511.107755000,00000077,836,284,-64352,29,-4,-1*09fbae4e
%RAWIMUSA,2124,293511.118;2124,293511.117755000,00000077,825,290,-64324,2,5,2*fd57bbc4
%RAWIMUSA,2124,293511.128;2124,293511.127755000,00000077,853,280,-64368,27,3,-7*f82fb3b0
%RAWIMUSA,2124,293511.138;2124,293511.137755000,00000077,806,277,-64322,2,-4,-5*6c410623
%RAWIMUSA,2124,293511.148;2124,293511.147755000,00000077,840,235,-64352,2,-17,14*4b7b3600
%RAWIMUSA,2124,293511.158;2124,293511.157755000,00000077,900,212,-64276,13,-3,1*9a7e5321
%RAWIMUSA,2124,293511.168;2124,293511.167755000,00000077,846,220,-64349,13,11,-8*bb30b89c
%RAWIMUSA,2124,293511.178;2124,293511.177755000,00000077,767,262,-64224,35,1,-2*dc4b88b9
%RAWIMUSA,2124,293511.188;2124,293511.187755000,00000077,848,237,-64415,-21,0,8*c29cab18
%RAWIMUSA,2124,293511.198;2124,293511.197755000,00000077,809,289,-64406,31,7,-17*34f1ab99
%RAWIMUSA,2124,293511.208;2124,293511.207755000,00000077,803,256,-64208,-18,-11,-5*39d06a6e
%RAWIMUSA,2124,293511.218;2124,293511.217755000,00000077,714,322,-64222,13,3,8*5af3ad6d
%RAWIMUSA,2124,293511.228;2124,293511.227755000,00000077,839,134,-64346,-6,0,4*a9a47b33
%RAWIMUSA,2124,293511.238;2124,293511.237755000,00000077,897,253,-64294,19,6,14*572bf23b
%RAWIMUSA,2124,293511.248;2124,293511.247755000,00000077,914,230,-64291,12,5,5*4623a603
%RAWIMUSA,2124,293511.258;2124,293511.257755000,00000077,823,340,-64338,12,8,13*3af5fc0b
%RAWIMUSA,2124,293511.268;2124,293511.267755000,00000077,827,293,-64311,13,19,-5*c6a16a4a
%RAWIMUSA,2124,293511.278;2124,293511.277755000,00000077,849,169,-64287,-31,-4,5*c5a8e4d9
%RAWIMUSA,2124,293511.288;2124,293511.287755000,00000077,660,291,-64287,50,11,-4*867d5b4b
%RAWIMUSA,2124,293511.298;2124,293511.297755000,00000077,784,231,-64429,-14,0,6*750232ca
%RAWIMUSA,2124,293511.308;2124,293511.307755000,00000077,728,294,-64203,37,-20,0*9f2c4f23
%RAWIMUSA,2124,293511.318;2124,293511.317755000,00000077,844,267,-64385,-34,-7,0*97585ca2
%RAWIMUSA,2124,293511.328;2124,293511.327755000,00000077,785,285,-64262,27,15,5*525eb3ec
%RAWIMUSA,2124,293511.338;2124,293511.337755000,00000077,761,262,-64280,-7,-1,-13*a7d42e68
%RAWIMUSA,2124,293511.348;2124,293511.347755000,00000077,834,200,-64244,10,11,-2*b6184b0e
%RAWIMUSA,2124,293511.358;2124,293511.357755000,00000077,789,227,-64319,26,0,0*33034043
%RAWIMUSA,2124,293511.368;2124,293511.367755000,00000077,851,234,-64207,-9,9,2*b650f615
%RAWIMUSA,2124,293511.378;2124,293511.377755000,00000077,801,179,-64259,32,7,5*0f1e4692
%RAWIMUSA,2124,293511.388;2124,293511.387755000,00000077,697,176,-64345,-20,-7,-11*314b9509
%RAWIMUSA,2124,293511.398;2124,293511.397755000,00000077,837,249,-64276,29,-14,-7*9367550d
%RAWIMUSA,2124,293511.408;2124,293511.407755000,00000077,787,153,-64229,-27,0,-3*3a6c1aef
%RAWIMUSA,2124,293511.418;2124,293511.417755000,00000077,819,220,-64304,39,2,3*80d98166
%RAWIMUSA,2124,293511.428;2124,293511.427755000,00000077,771,116,-64196,-19,8,0*4cf46f98
%RAWIMUSA,2124,293511.438;2124,293511.437755000,00000077,829,214,-64361,32,-2,0*3e39bf27
%RAWIMUSA,2124,293511.448;2124,293511.447755000,00000077,805,316,-64250,-14,-5,-6*3cdd6840
%RAWIMUSA,2124,293511.458;2124,293511.457755000,00000077,858,241,-64425,8,2,-6*97af0c86
%RAWIMUSA,2124,293511.468;2124,293511.467755000,00000077,810,190,-64276,11,-3,4*2cb197c6
%RAWIMUSA,2124,293511.478;2124,293511.477755000,00000077,802,166,-64255,-6,-1,0*da8d83f8
%RAWIMUSA,2124,293511.488;2124,293511.487755000,00000077,712,296,-64313,20,7,-1*3032eea1
%RAWIMUSA,2124,293511.498;2124,293511.497755000,00000077,773,236,-64184,24,6,-10*34ae79a8
%RAWIMUSA,2124,293511.508;2124,293511.507755000,00000077,883,226,-64307,0,-7,-7*65ad6ba9
%RAWIMUSA,2124,293511.518;2124,293511.517755000,00000077,854,244,-64312,19,6,5*e095c631
%RAWIMUSA,2124,293511.528;2124,293511.527755000,00000077,845,246,-64254,11,6,7*e5361c2d
%RAWIMUSA,2124,293511.538;2124,293511.537755000,00000077,786,207,-64312,16,2,-3*48563ff2
%RAWIMUSA,2124,293511.548;2124,293511.547755000,00000077,856,149,-64307,32,2,3*b58d3280
%RAWIMUSA,2124,293511.558;2124,293511.557755000,00000077,759,292,-64340,-1,0,-5*a93ed9d7
%RAWIMUSA,2124,293511.568;2124,293511.567755000,00000077,854,117,-64321,1,-2,6*3d51ba63
%RAWIMUSA,2124,293511.578;2124,293511.577755000,00000077,808,322,-64267,27,-18,-3*fc0a946a
%RAWIMUSA,2124,293511.588;2124,293511.587755000,00000077,835,306,-64211,25,3,-3*49a8b178
%RAWIMUSA,2124,293511.598;2124,293511.597755000,00000077,754,217,-64247,7,12,0*53ef3fd1
%RAWIMUSA,2124,293511.608;2124,293511.607755000,00000077,817,307,-64301,18,11,-5*f2097e8e
%RAWIMUSA,2124,293511.618;2124,293511.617755000,00000077,847,260,-64271,5,1,-9*a5d22412
%RAWIMUSA,2124,293511.628;2124,293511.627755000,00000077,861,230,-64229,-2,-1,-10*43d2fefd
%RAWIMUSA,2124,293511.638;2124,293511.637755000,00000077,769,202,-64291,22,5,0*4e223eb0
%RAWIMUSA,2124,293511.648;2124,293511.647755000,00000077,757,355,-64349,6,11,0*e39f8a7a
%RAWIMUSA,2124,293511.658;2124,293511.657755000,00000077,752,286,-64279,13,-2,-21*b0cc233e
%RAWIMUSA,2124,293511.668;2124,293511.667755000,00000077,741,197,-64312,0,0,2*040926d0
%RAWIMUSA,2124,293511.678;2124,293511.677755000,00000077,746,270,-64340,8,8,8*c9b5928d
%RAWIMUSA,2124,293511.688;2124,293511.687755000,00000077,747,274,-64319,9,4,-26*0c5d06f6
%RAWIMUSA,2124,293511.698;2124,293511.697755000,00000077,793,283,-64266,4,-4,-1*545638ed
%RAWIMUSA,2124,293511.708;2124,293511.707755000,00000077,770,221,-64307,0,0,-11*8cc7db41
%RAWIMUSA,2124,293511.718;2124,293511.717755000,00000077,714,231,-64330,5,5,-3*015b3e01
%RAWIMUSA,2124,293511.728;2124,293511.727755000,00000077,673,242,-64314,8,0,0*1a8ba4d2
%RAWIMUSA,2124,293511.738;2124,293511.737755000,00000077,661,195,-64278,12,9,-6*3e2a1a87
%RAWIMUSA,2124,293511.748;2124,293511.747755000,00000077,780,278,-64302,10,-4,-6*ff3d7af3
%RAWIMUSA,2124,293511.758;2124,293511.757755000,00000077,796,288,-64377,13,7,5*4ed4ec95
%RAWIMUSA,2124,293511.768;2124,293511.767755000,00000077,763,154,-64354,25,2,-1*8a7fb876
%RAWIMUSA,2124,293511.778;2124,293511.777755000,00000077,807,133,-64237,12,5,-7*ab6da4af
%RAWIMUSA,2124,293511.788;2124,293511.787755000,00000077,823,215,-64259,13,0,-11*b23d54f8
%RAWIMUSA,2124,293511.798;2124,293511.797755000,00000077,762,229,-64262,16,0,-16*253b4fea
%RAWIMUSA,2124,293511.808;2124,293511.807755000,00000077,854,266,-64346,-6,-3,-1*8d70aa01
%RAWIMUSA,2124,293511.818;2124,293511.817755000,00000077,820,263,-64375,11,4,-10*971d4c9d
%RAWIMUSA,2124,293511.828;2124,293511.827755000,00000077,868,210,-64391,9,0,0*49619f23
%RAWIMUSA,2124,293511.838;2124,293511.837755000,00000077,839,300,-64215,9,-8,-2*d907fc3c
%RAWIMUSA,2124,293511.848;2124,293511.847755000,00000077,809,205,-64217,9,18,-2*1622cf5f
%RAWIMUSA,2124,293511.858;2124,293511.857755000,00000077,772,195,-64295,37,-6,-11*14e3c6ac
%RAWIMUSA,2124,293511.868;2124,293511.867755000,00000077,847,368,-64214,-5,12,0*68cdd3b7
%RAWIMUSA,2124,293511.878;2124,293511.877755000,00000077,719,276,-64280,18,3,2*c2129479
%RAWIMUSA,2124,293511.888;2124,293511.887755000,00000077,922,316,-64290,14,1,7*6fa2d10f
%RAWIMUSA,2124,293511.898;2124,293511.897755000,00000077,754,304,-64275,14,1,-10*86620eec
%RAWIMUSA,2124,293511.908;2124,293511.907755000,00000077,835,226,-64241,9,12,4*a9330cb1
%RAWIMUSA,2124,293511.918;2124,293511.917755000,00000077,791,214,-64311,3,-4,-7*a974d6f1
%RAWIMUSA,2124,293511.928;2124,293511.927755000,00000077,862,235,-64258,19,-5,-24*8709df1b
%RAWIMUSA,2124,293511.938;2124,293511.937755000,00000077,858,180,-64257,5,-11,12*e45eb252
%RAWIMUSA,2124,293511.948;2124,293511.947755000,00000077,780,217,-64257,10,-7,-3*7e63f68a
%RAWIMUSA,2124,293511.958;2124,293511.957755000,00000077,797,214,-64294,5,2,0*642f49a3
%RAWIMUSA,2124,293511.968;2124,293511.967755000,00000077,772,229,-64330,18,8,5*e3ea3a83
%RAWIMUSA,2124,293511.978;2124,293511.977755000,00000077,841,177,-64257,-1,0,4*9d378282
%RAWIMUSA,2124,293511.988;2124,293511.987755000,00000077,805,268,-64329,9,11,-9*a3787fb7
%RAWIMUSA,2124,293511.998;2124,293511.997755000,00000077,762,200,-64193,17,12,-13*0be4861f
%RAWIMUSA,2124,293512.008;2124,293512.007755000,00000077,834,164,-64322,12,10,0*69e0bc9b
%RAWIMUSA,2124,293512.018;2124,293512.017755000,00000077,779,263,-64352,21,0,-2*bb491c1c
%RAWIMUSA,2124,293512.028;2124,293512.027755000,00000077,754,371,-64347,24,7,17*f4d9e955
%RAWIMUSA,2124,293512.038;2124,293512.037755000,00000077,677,128,-64190,16,13,0*d0866f63
%RAWIMUSA,2124,293512.048;2124,293512.047755000,00000077,868,246,-64350,-2,8,-1*4246b31c
%RAWIMUSA,2124,293512.058;2124,293512.057755000,00000077,875,237,-64344,25,10,-2*ad6bfd82
%RAWIMUSA,2124,293512.068;2124,293512.067755000,00000077,785,212,-64258,8,0,9*679174ce
%RAWIMUSA,2124,293512.078;2124,293512.077755000,00000077,788,343,-64313,-5,-2,-4*00851da0
%RAWIMUSA,2124,293512.088;2124,293512.087755000,00000077,866,322,-64214,4,0,0*01674784
%RAWIMUSA,2124,293512.098;2124,293512.097755000,00000077,791,197,-64315,14,3,-3*f2aea28c
%RAWIMUSA,2124,293512.108;2124,293512.107755000,00000077,853,216,-64333,10,-2,4*68c7ff67
%RAWIMUSA,2124,293512.118;2124,293512.117755000,00000077,830,252,-64277,28,-1,-12*04cef69c
%RAWIMUSA,2124,293512.128;2124,293512.127755000,00000077,761,247,-64390,-7,3,-7*5421cf17
%RAWIMUSA,2124,293512.138;2124,293512.137755000,00000077,800,160,-64272,26,3,11*ce1cdd88
%RAWIMUSA,2124,293512.148;2124,293512.147755000,00000077,777,208,-64331,6,5,8*6fc78aab
%RAWIMUSA,2124,293512.158;2124,293512.157755000,00000077,785,249,-64323,15,7,-3*e78395ea
%RAWIMUSA,2124,293512.168;2124,293512.167755000,00000077,838,165,-64258,11,9,-5*7515d07a
%RAWIMUSA,2124,293512.178;2124,293512.177755000,00000077,763,211,-64250,6,-27,-1*e485b775
%RAWIMUSA,2124,293512.188;2124,293512.187755000,00000077,828,193,-64344,14,5,-20*eeb366cf
%RAWIMUSA,2124,293512.198;2124,293512.197755000,00000077,831,218,-64312,-2,9,0*8e72bce0
%RAWIMUSA,2124,293512.208;2124,293512.207755000,00000077,808,295,-64267,14,-12,-14*446c413d
%RAWIMUSA,2124,293512.218;2124,293512.217755000,00000077,786,147,-64381,25,11,-6*15eeddb6
%RAWIMUSA,2124,293512.228;2124,293512.227755000,00000077,794,287,-64278,17,8,-2*0f9af126
%RAWIMUSA,2124,293512.238;2124,293512.237755000,00000077,817,216,-64245,6,6,0*be371836
%RAWIMUSA,2124,293512.248;2124,293512.247755000,00000077,744,194,-64285,13,7,0*a9fe7649
%RAWIMUSA,2124,293512.258;2124,293512.257755000,00000077,701,248,-64174,5,-10,13*501da30f
%RAWIMUSA,2124,293512.268;2124,293512.267755000,00000077,813,211,-64442,11,0,-3*7102a783
%RAWIMUSA,2124,293512.278;2124,293512.277755000,00000077,810,310,-64416,15,11,0*2144a34a
%RAWIMUSA,2124,293512.288;2124,293512.287755000,00000077,840,247,-64403,9,-15,-2*ed25e0ef
%RAWIMUSA,2124,293512.298;2124,293512.297755000,00000077,797,227,-64294,24,-4,-1*cec743a5
%RAWIMUSA,2124,293512.308;2124,293512.307755000,00000077,738,267,-64307,16,11,6*52e629c8
%RAWIMUSA,2124,293512.318;2124,293512.317755000,00000077,848,242,-64322,8,0,-12*68c68d1d
%RAWIMUSA,2124,293512.328;2124,293512.327755000,00000077,875,175,-64312,8,8,-8*5295bd3c
%RAWIMUSA,2124,293512.338;2124,293512.337755000,00000077,797,249,-64267,19,12,-28*83e5249a
%RAWIMUSA,2124,293512.348;2124,293512.347755000,00000077,760,283,-64377,18,-5,-10*f541fe7f
%RAWIMUSA,2124,293512.358;2124,293512.357755000,00000077,833,213,-64219,9,3,8*b20f5377
%RAWIMUSA,2124,293512.368;2124,293512.367755000,00000077,882,244,-64304,16,4,-14*5421f346
%RAWIMUSA,2124,293512.378;2124,293512.377755000,00000077,709,198,-64207,16,0,-3*401adcda
%RAWIMUSA,2124,293512.388;2124,293512.387755000,00000077,812,233,-64286,7,12,18*09b93dd2
%RAWIMUSA,2124,293512.398;2124,293512.397755000,00000077,793,245,-64264,6,-8,4*9c5d22fa
%RAWIMUSA,2124,293512.408;2124,293512.407755000,00000077,699,237,-64344,16,7,7*e38e87b4
%RAWIMUSA,2124,293512.418;2124,293512.417755000,00000077,749,174,-64284,8,0,-9*c0ef3975
%RAWIMUSA,2124,293512.428;2124,293512.427755000,00000077,839,324,-64229,4,5,1*bff84cd4
%RAWIMUSA,2124,293512.438;2124,293512.437755000,00000077,815,242,-64308,0,-7,6*12468dd2
%RAWIMUSA,2124,293512.448;2124,293512.447755000,00000077,790,237,-64316,22,-10,4*3cb22f6b
%RAWIMUSA,2124,293512.458;2124,293512.457755000,00000077,703,285,-64267,19,0,2*b6bf051a
%RAWIMUSA,2124,293512.468;2124,293512.467755000,00000077,739,318,-64295,12,23,0*a0a3304b
%RAWIMUSA,2124,293512.478;2124,293512.477755000,00000077,816,275,-64281,12,5,-7*a863d953
%RAWIMUSA,2124,293512.488;2124,293512.487755000,00000077,752,161,-64327,9,0,-2*84402b98
%RAWIMUSA,2124,293512.498;2124,293512.497755000,00000077,914,146,-64342,21,-12,3*07956615
%RAWIMUSA,2124,293512.508;2124,293512.507755000,00000077,741,277,-64267,22,5,-5*77603df9
%RAWIMUSA,2124,293512.518;2124,293512.517755000,00000077,963,290,-64261,7,10,-15*1d9bf981
%RAWIMUSA,2124,293512.528;2124,293512.527755000,00000077,894,324,-64369,-1,0,-7*63d99bce
%RAWIMUSA,2124,293512.538;2124,293512.537755000,00000077,936,310,-64241,-8,8,-4*4f629262
%RAWIMUSA,2124,293512.548;2124,293512.547755000,00000077,801,286,-64340,30,8,-2*51970a30
%RAWIMUSA,2124,293512.558;2124,293512.557755000,00000077,792,218,-64300,-1,0,4*315fa24d
%RAWIMUSA,2124,293512.568;2124,293512.567755000,00000077,885,288,-64315,1,3,-10*df9dd0ca
%RAWIMUSA,2124,293512.578;2124,293512.577755000,00000077,858,236,-64347,16,-6,8*379e36a3
%RAWIMUSA,2124,293512.588;2124,293512.587755000,00000077,835,245,-64296,6,3,11*d77fcc9d
%RAWIMUSA,2124,293512.598;2124,293512.597755000,00000077,938,219,-64329,-6,2,-3*f0216234
%RAWIMUSA,2124,293512.608;2124,293512.607755000,00000077,755,301,-64197,4,1,0*308f8d0f
%RAWIMUSA,2124,293512.618;2124,293512.617755000,00000077,790,298,-64236,4,4,1*b12b08a1
%RAWIMUSA,2124,293512.628;2124,293512.627755000,00000077,772,292,-64262,14,8,8*89d0e726
%RAWIMUSA,2124,293512.638;2124,293512.637755000,00000077,880,349,-64280,9,1,1*d6f57bec
%RAWIMUSA,2124,293512.648;2124,293512.647755000,00000077,933,265,-64260,11,-2,0*4ae7a33e
%RAWIMUSA,2124,293512.658;2124,293512.657755000,00000077,867,229,-64299,6,5,10*ce0cb632
%RAWIMUSA,2124,293512.668;2124,293512.667755000,00000077,825,315,-64280,8,4,-5*b6cee4ab
%RAWIMUSA,2124,293512.678;2124,293512.677755000,00000077,751,307,-64320,-1,-5,-4*3e1e4624
%RAWIMUSA,2124,293512.688;2124,293512.687755000,00000077,861,288,-64273,-4,3,-7*65bfa59a
%RAWIMUSA,2124,293512.698;2124,293512.697755000,00000077,759,274,-64264,28,21,-13*a0dd46f7
%RAWIMUSA,2124,293512.708;2124,293512.707755000,00000077,820,284,-64333,8,0,0*e4570b2b
%RAWIMUSA,2124,293512.718;2124,293512.717755000,00000077,893,285,-64339,6,6,-8*b1c2262d
%RAWIMUSA,2124,293512.728;2124,293512.727755000,00000077,815,253,-64290,3,-6,-3*20976e5f
%RAWIMUSA,2124,293512.738;2124,293512.737755000,00000077,763,260,-64260,14,0,2*6f810c61
%RAWIMUSA,2124,293512.748;2124,293512.747755000,00000077,812,340,-64344,12,10,-6*e2b1d22c
%RAWIMUSA,2124,293512.758;2124,293512.757755000,00000077,832,322,-64301,15,4,9*696a3a44
%RAWIMUSA,2124,293512.768;2124,293512.767755000,00000077,743,140,-64348,8,16,2*b7147e60
%RAWIMUSA,2124,293512.778;2124,293512.777755000,00000077,897,291,-64285,10,9,6*95372a5b
%RAWIMUSA,2124,293512.788;2124,293512.787755000,00000077,816,134,-64256,0,0,-5*d46f6763
%RAWIMUSA,2124,293512.798;2124,293512.797755000,00000077,777,307,-64338,13,-1,1*c4135d1f
%RAWIMUSA,2124,293512.808;2124,293512.807755000,00000077,754,325,-64267,7,9,2*4b1e3dd4
%RAWIMUSA,2124,293512.818;2124,293512.817755000,00000077,876,300,-64307,16,0,0*4b8558b2
%RAWIMUSA,2124,293512.828;2124,293512.827755000,00000077,740,269,-64273,15,-1,-4*dca49f4d
%RAWIMUSA,2124,293512.838;2124,293512.837755000,00000077,807,264,-64239,-1,2,5*8c62b317
%RAWIMUSA,2124,293512.848;2124,293512.847755000,00000077,784,244,-64294,27,-3,0*a80fe1a9
%RAWIMUSA,2124,293512.858;2124,293512.857755000,00000077,749,241,-64319,20,7,4*6196e7f2
%RAWIMUSA,2124,293512.868;2124,293512.867755000,00000077,743,354,-64359,20,-3,-4*5e2261b8
%RAWIMUSA,2124,293512.878;2124,293512.877755000,00000077,824,329,-64273,25,-8,-7*f8c21120
%RAWIMUSA,2124,293512.888;2124,293512.887755000,00000077,810,325,-64288,14,-15,-7*4cb0a25b
%RAWIMUSA,2124,293512.898;2124,293512.897755000,00000077,922,236,-64296,1,-6,-11*08db6932
%RAWIMUSA,2124,293512.908;2124,293512.907755000,00000077,761,175,-64268,-1,-3,0*41a6c394
%RAWIMUSA,2124,293512.918;2124,293512.917755000,00000077,885,231,-64319,19,7,1*c3e13c40
%RAWIMUSA,2124,293512.928;2124,293512.927755000,00000077,702,260,-64279,31,7,5*c8211dc5
%RAWIMUSA,2124,293512.938;2124,293512.937755000,00000077,873,273,-64251,-5,2,0*26e3370d
%RAWIMUSA,2124,293512.948;2124,293512.947755000,00000077,802,193,-64288,9,0,0*2a60d1d2
%RAWIMUSA,2124,293512.958;2124,293512.957755000,00000077,780,304,-64352,16,-5,-12*edfd513f
%RAWIMUSA,2124,293512.968;2124,293512.967755000,00000077,836,324,-64301,7,-7,-12*a7b61f34
%RAWIMUSA,2124,293512.978;2124,293512.977755000,00000077,756,282,-64301,11,8,6*00cd71d0
%RAWIMUSA,2124,293512.988;2124,293512.987755000,00000077,855,333,-64339,3,11,-15*ace40c60
%RAWIMUSA,2124,293512.998;2124,293512.997755000,00000077,798,262,-64326,-5,0,0*472a41a9
%RAWIMUSA,2124,293513.008;2124,293513.007755000,00000077,845,284,-64312,-2,12,1*df577e3a
%RAWIMUSA,2124,293513.018;2124,293513.017755000,00000077,783,190,-64246,20,3,3*ddf87265
%RAWIMUSA,2124,293513.028;2124,293513.027755000,00000077,685,166,-64285,19,11,-8*6de9de9c
%RAWIMUSA,2124,293513.038;2124,293513.037755000,00000077,802,168,-64352,14,4,10*faa839c0
%RAWIMUSA,2124,293513.048;2124,293513.047755000,00000077,769,318,-64280,4,-1,3*3c486d63
%RAWIMUSA,2124,293513.058;2124,293513.057755000,00000077,829,214,-64357,10,5,-1*a1e5d531
%RAWIMUSA,2124,293513.068;2124,293513.067755000,00000077,788,240,-64369,10,13,-1*be4855b4
%RAWIMUSA,2124,293513.078;2124,293513.077755000,00000077,873,234,-64250,16,-11,-2*e71bf7ae
%RAWIMUSA,2124,293513.088;2124,293513.087755000,00000077,784,224,-64243,21,0,-6*fbf3435c
%RAWIMUSA,2124,293513.098;2124,293513.097755000,00000077,806,278,-64307,0,2,-9*94b4f33b
%RAWIMUSA,2124,293513.108;2124,293513.107755000,00000077,872,210,-64255,-7,-7,1*e0fa79d9
%RAWIMUSA,2124,293513.118;2124,293513.117755000,00000077,789,320,-64249,4,-1,-8*89a4aeb6
%RAWIMUSA,2124,293513.128;2124,293513.127755000,00000077,864,212,-64263,19,-3,8*befd02ab
%RAWIMUSA,2124,293513.138;2124,293513.137755000,00000077,834,140,-64282,25,-2,0*58060c80
%RAWIMUSA,2124,293513.148;2124,293513.147755000,00000077,787,313,-64262,3,1,0*2b0f8010
%RAWIMUSA,2124,293513.158;2124,293513.157755000,00000077,814,313,-64267,19,1,0*bde22623
%RAWIMUSA,2124,293513.168;2124,293513.167755000,00000077,893,316,-64315,10,0,-5*2bfe17fb
%RAWIMUSA,2124,293513.178;2124,293513.177755000,00000077,769,359,-64295,8,9,5*a43c794e
%RAWIMUSA,2124,293513.188;2124,293513.187755000,00000077,801,241,-64305,16,3,3*a230a581
%RAWIMUSA,2124,293513.198;2124,293513.197755000,00000077,799,179,-64269,13,7,0*5bfe307b
%RAWIMUSA,2124,293513.208;2124,293513.207755000,00000077,746,241,-64330,7,-4,-1*ac422355
%RAWIMUSA,2124,293513.218;2124,293513.217755000,00000077,770,224,-64271,16,-4,-2*039bfc0a
%RAWIMUSA,2124,293513.228;2124,293513.227755000,00000077,812,325,-64358,19,10,-14*b5d37cd5
%RAWIMUSA,2124,293513.238;2124,293513.237755000,00000077,835,222,-64214,14,21,2*ac4cba05
%RAWIMUSA,2124,293513.248;2124,293513.247755000,00000077,815,220,-64324,4,7,0*bca09eb6
%RAWIMUSA,2124,293513.258;2124,293513.257755000,00000077,723,223,-64295,23,18,-4*e60631c2
%RAWIMUSA,2124,293513.268;2124,293513.267755000,00000077,752,156,-64297,15,-1,-14*704b4981
%RAWIMUSA,2124,293513.278;2124,293513.277755000,00000077,790,164,-64294,-1,9,-6*c84d801c
%RAWIMUSA,2124,293513.288;2124,293513.287755000,00000077,897,235,-64285,13,0,4*bc0e372d
%RAWIMUSA,2124,293513.298;2124,293513.297755000,00000077,800,224,-64289,24,-9,-16*e8b2e40e
%RAWIMUSA,2124,293513.308;2124,293513.307755000,00000077,852,284,-64285,9,10,3*e000a72c
%RAWIMUSA,2124,293513.318;2124,293513.317755000,00000077,783,161,-64297,3,-2,18*3057cc81
%RAWIMUSA,2124,293513.328;2124,293513.327755000,00000077,832,347,-64347,8,15,0*9382e6da
%RAWIMUSA,2124,293513.338;2124,293513.337755000,00000077,772,230,-64312,5,-4,-14*48e45fc3
%RAWIMUSA,2124,293513.348;2124,293513.347755000,00000077,805,163,-64340,11,-3,-5*51c8afe9
%RAWIMUSA,2124,293513.358;2124,293513.357755000,00000077,850,211,-64293,7,-8,-10*7602805a
%RAWIMUSA,2124,293513.368;2124,293513.367755000,00000077,751,235,-64340,9,-17,11*71f31519
%RAWIMUSA,2124,293513.378;2124,293513.377755000,00000077,789,201,-64321,3,4,1*81d965db
%RAWIMUSA,2124,293513.388;2124,293513.387755000,00000077,832,345,-64316,1,1,0*7f960829
%RAWIMUSA,2124,293513.398;2124,293513.397755000,00000077,882,266,-64373,23,6,0*21fc68fa
%RAWIMUSA,2124,293513.408;2124,293513.407755000,00000077,867,226,-64268,17,8,6*f36e245b
%RAWIMUSA,2124,293513.418;2124,293513.417755000,00000077,746,309,-64330,11,3,-4*b383e900
%RAWIMUSA,2124,293513.428;2124,293513.427755000,00000077,860,276,-64289,2,-2,-3*4202064b
%RAWIMUSA,2124,293513.438;2124,293513.437755000,00000077,869,217,-64274,8,-1,3*f553ca2e
%RAWIMUSA,2124,293513.448;2124,293513.447755000,00000077,751,316,-64287,9,9,11*bd5acec6
%RAWIMUSA,2124,293513.458;2124,293513.457755000,00000077,901,247,-64280,20,-14,-3*0a08bd15
%RAWIMUSA,2124,293513.468;2124,293513.467755000,00000077,823,223,-64318,6,-16,0*8ac95fca
%RAWIMUSA,2124,293513.478;2124,293513.477755000,00000077,850,222,-64260,-4,10,2*950b9e14
%RAWIMUSA,2124,293513.488;2124,293513.487755000,00000077,759,273,-64191,6,10,6*92527dd6
%RAWIMUSA,2124,293513.498;2124,293513.497755000,00000077,826,264,-64261,5,9,-8*b94e8c56
%RAWIMUSA,2124,293513.508;2124,293513.507755000,00000077,840,269,-64416,26,1,-2*d0635586
%RAWIMUSA,2124,293513.518;2124,293513.517755000,00000077,819,235,-64307,30,-6,-7*6fca1710
%RAWIMUSA,2124,293513.528;2124,293513.527755000,00000077,815,312,-64355,0,-6,-5*4f5fdb88
%RAWIMUSA,2124,293513.538;2124,293513.537755000,00000077,731,278,-64373,15,-1,-3*9b029a32
%RAWIMUSA,2124,293513.548;2124,293513.547755000,00000077,803,187,-64304,15,4,4*0dde27ca
%RAWIMUSA,2124,293513.558;2124,293513.557755000,00000077,743,207,-64294,7,-4,0*043c5738
%RAWIMUSA,2124,293513.568;2124,293513.567755000,00000077,832,302,-64217,20,-14,0*223d4f4e
%RAWIMUSA,2124,293513.578;2124,293513.577755000,00000077,788,220,-64417,6,-1,-11*7f2d91e5
%RAWIMUSA,2124,293513.588;2124,293513.587755000,00000077,721,290,-64380,24,-13,-4*e74dfbc1
%RAWIMUSA,2124,293513.598;2124,293513.597755000,00000077,800,231,-64344,5,6,10*2c489b21
%RAWIMUSA,2124,293513.608;2124,293513.607755000,00000077,752,214,-64302,19,3,-3*3c26382c
%RAWIMUSA,2124,293513.618;2124,293513.617755000,00000077,860,245,-64357,17,-11,-5*b64bcf5a
%RAWIMUSA,2124,293513.628;2124,293513.627755000,00000077,946,331,-64293,14,0,-1*b383ef6f
%RAWIMUSA,2124,293513.638;2124,293513.637755000,00000077,853,180,-64277,19,10,-6*175483d6
%RAWIMUSA,2124,293513.648;2124,293513.647755000,00000077,832,334,-64291,0,3,9*dd2222ee
%RAWIMUSA,2124,293513.658;2124,293513.657755000,00000077,888,228,-64307,11,33,-12*53665e1f
%RAWIMUSA,2124,293513.668;2124,293513.667755000,00000077,781,360,-64299,15,5,1*bbc1b25e
%RAWIMUSA,2124,293513.678;2124,293513.677755000,00000077,860,191,-64282,28,4,11*3036415f
%RAWIMUSA,2124,293513.688;2124,293513.687755000,00000077,714,273,-64379,14,3,-13*63529fdf
%RAWIMUSA,2124,293513.698;2124,293513.697755000,00000077,882,245,-64322,15,-2,-15*02d4f522
%RAWIMUSA,2124,293513.708;2124,293513.707755000,00000077,816,240,-64283,2,14,-5*279fe13d
%RAWIMUSA,2124,293513.718;2124,293513.717755000,00000077,819,310,-64296,5,0,0*2e376986
%RAWIMUSA,2124,293513.728;2124,293513.727755000,00000077,803,347,-64377,10,-8,3*4915208b
%RAWIMUSA,2124,293513.738;2124,293513.737755000,00000077,779,167,-64201,0,-7,-14*d672323d
%RAWIMUSA,2124,293513.748;2124,293513.747755000,00000077,870,246,-64324,5,8,7*b237cc34
%RAWIMUSA,2124,293513.758;2124,293513.757755000,00000077,826,120,-64309,20,-8,15*e05385f8
%RAWIMUSA,2124,293513.768;2124,293513.767755000,00000077,745,213,-64211,2,6,-12*905160eb
%RAWIMUSA,2124,293513.778;2124,293513.777755000,00000077,855,284,-64364,4,2,11*91f056ac
%RAWIMUSA,2124,293513.788;2124,293513.787755000,00000077,790,262,-64337,13,-10,4*28005939
%RAWIMUSA,2124,293513.798;2124,293513.797755000,00000077,823,243,-64251,17,6,3*daf51ee6
%RAWIMUSA,2124,293513.808;2124,293513.807755000,00000077,891,237,-64291,11,2,12*e2518f23
%RAWIMUSA,2124,293513.818;2124,293513.817755000,00000077,789,211,-64330,18,-1,2*0c86ab88
%RAWIMUSA,2124,293513.828;2124,293513.827755000,00000077,896,152,-64302,-6,-4,8*36b7a563
%RAWIMUSA,2124,293513.838;2124,293513.837755000,00000077,864,266,-64286,10,-8,5*e1a94976
%RAWIMUSA,2124,293513.848;2124,293513.847755000,00000077,759,294,-64240,5,3,-19*44ce12d1
%RAWIMUSA,2124,293513.858;2124,293513.857755000,00000077,832,344,-64369,6,0,-9*0e1917c0
%RAWIMUSA,2124,293513.868;2124,293513.867755000,00000077,811,276,-64333,8,3,-8*50194781
%RAWIMUSA,2124,293513.878;2124,293513.877755000,00000077,890,226,-64373,16,8,5*28bffaba
%RAWIMUSA,2124,293513.888;2124,293513.887755000,00000077,787,252,-64304,17,-9,-3*a17eb197
%RAWIMUSA,2124,293513.898;2124,293513.897755000,00000077,740,320,-64266,8,3,3*8b9c8c75
%RAWIMUSA,2124,293513.908;2124,293513.907755000,00000077,787,286,-64229,17,1,3*3e1256f8
%RAWIMUSA,2124,293513.918;2124,293513.917755000,00000077,793,308,-64217,21,10,-1*3ca367ce
%RAWIMUSA,2124,293513.928;2124,293513.927755000,00000077,783,126,-64301,30,-12,7*17fdb8ce
%RAWIMUSA,2124,293513.938;2124,293513.937755000,00000077,651,347,-64228,17,16,0*bdead839
%RAWIMUSA,2124,293513.948;2124,293513.947755000,00000077,878,253,-64305,5,0,10*6cff709e
%RAWIMUSA,2124,293513.958;2124,293513.957755000,00000077,847,111,-64275,13,14,-1*5ee5c185
%RAWIMUSA,2124,293513.968;2124,293513.967755000,00000077,771,282,-64319,19,10,-12*92b56983
%RAWIMUSA,2124,293513.978;2124,293513.977755000,00000077,780,244,-64347,3,-4,0*539861ae
%RAWIMUSA,2124,293513.988;2124,293513.987755000,00000077,874,255,-64288,13,0,-18*fb537441
%RAWIMUSA,2124,293513.998;2124,293513.997755000,00000077,802,125,-64289,31,-8,-3*d76681bc
%RAWIMUSA,2124,293514.008;2124,293514.007755000,00000077,899,229,-64247,-1,13,-9*f0a5bdd8
%RAWIMUSA,2124,293514.018;2124,293514.017755000,00000077,869,254,-64277,3,7,5*724c7cfe
