%RAWIMUSA,2124,293739.318;2124,293739.317755000,00000077,-160,-66,64128,-22,-4,-10*850ac69a
%RAWIMUSA,2124,293739.328;2124,293739.327755000,00000077,-254,-13,64021,-27,-12,8*75229080
%RAWIMUSA,2124,293739.338;2124,293739.337755000,00000077,-226,-56,64033,-30,1,9*8477c1f8
%RAWIMUSA,2124,293739.348;2124,293739.347755000,00000077,-210,27,64131,-23,14,9*974aa662
%RAWIMUSA,2124,293739.358;2124,293739.357755000,00000077,-232,-27,64215,-33,2,8*491f394a
%RAWIMUSA,2124,293739.368;2124,293739.367755000,00000077,-129,-57,64190,-40,18,-3*815c0ee9
%RAWIMUSA,2124,293739.378;2124,293739.377755000,00000077,-146,-56,64226,-23,6,-10*136df0e8
%RAWIMUSA,2124,293739.388;2124,293739.387755000,00000077,-177,28,64123,-35,-10,-4*852b8a0d
%RAWIMUSA,2124,293739.398;2124,293739.397755000,00000077,-181,-45,64131,-37,3,-3*6f812f43
%RAWIMUSA,2124,293739.408;2124,293739.407755000,00000077,-162,-52,64097,-42,-2,4*4f3e6bf3
%RAWIMUSA,2124,293739.418;2124,293739.417755000,00000077,-185,-134,64189,-32,-4,12*54e33aae
%RAWIMUSA,2124,293739.428;2124,293739.427755000,00000077,-155,-72,64100,-31,3,11*532c4f79
%RAWIMUSA,2124,293739.438;2124,293739.437755000,00000077,-194,-70,64185,-42,8,6*108bf1e0
%RAWIMUSA,2124,293739.448;2124,293739.447755000,00000077,-186,-26,64059,-21,5,8*5ff0cd3c
%RAWIMUSA,2124,293739.458;2124,293739.457755000,00000077,-202,49,64138,-38,12,-2*c142b04e
%RAWIMUSA,2124,293739.468;2124,293739.467755000,00000077,-146,6,64075,-34,16,7*355fa121
%RAWIMUSA,2124,293739.478;2124,293739.477755000,00000077,-170,-64,64088,-46,2,-4*084d54b0
%RAWIMUSA,2124,293739.488;2124,293739.487755000,00000077,-205,-148,64077,-37,-3,0*98a4c151
%RAWIMUSA,2124,293739.498;2124,293739.497755000,00000077,-193,96,64125,-41,9,-9*dda2a530
%RAWIMUSA,2124,293739.508;2124,293739.507755000,00000077,-231,-72,64061,-34,2,-2*08ac1333
%RAWIMUSA,2124,293739.518;2124,293739.517755000,00000077,-179,-97,64114,-30,9,12*8b6601dd
%RAWIMUSA,2124,293739.528;2124,293739.527755000,00000077,-179,-83,64102,-44,10,0*410bebc3
%RAWIMUSA,2124,293739.538;2124,293739.537755000,00000077,-113,-34,64043,-44,1,-11*cb86c063
%RAWIMUSA,2124,293739.548;2124,293739.547755000,00000077,-266,-60,64182,-46,9,2*00f33bd2
%RAWIMUSA,2124,293739.558;2124,293739.557755000,00000077,-166,-36,64153,-28,-2,7*de948c3f
%RAWIMUSA,2124,293739.568;2124,293739.567755000,00000077,-294,30,64167,-55,-3,6*89e02d9d
%RAWIMUSA,2124,293739.578;2124,293739.577755000,00000077,-148,-71,64068,-37,7,-7*0ad3fa6c
%RAWIMUSA,2124,293739.588;2124,293739.587755000,00000077,-160,14,64097,-40,-3,4*f9315bda
%RAWIMUSA,2124,293739.598;2124,293739.597755000,00000077,-136,43,64065,-26,9,7*ef54474a
%RAWIMUSA,2124,293739.608;2124,293739.607755000,00000077,-224,-113,64136,-39,8,3*8ddc045e
%RAWIMUSA,2124,293739.618;2124,293739.617755000,00000077,-265,0,64109,-44,10,-7*ed192a54
%RAWIMUSA,2124,293739.628;2124,293739.627755000,00000077,-106,-71,64130,-35,0,-1*a253f77b
%RAWIMUSA,2124,293739.638;2124,293739.637755000,00000077,-284,-14,64105,-35,8,10*72c8e57b
%RAWIMUSA,2124,293739.648;2124,293739.647755000,00000077,-223,-140,64184,-44,0,3*4e3b64f4
%RAWIMUSA,2124,293739.658;2124,293739.657755000,00000077,-191,-46,64201,-51,-4,19*5e67a654
%RAWIMUSA,2124,293739.668;2124,293739.667755000,00000077,-137,-49,64080,-49,16,5*552e0cc6
%RAWIMUSA,2124,293739.678;2124,293739.677755000,00000077,-247,-72,64066,-38,12,2*34b39e37
%RAWIMUSA,2124,293739.688;2124,293739.687755000,00000077,-266,-61,64101,-43,3,-4*3f949394
%RAWIMUSA,2124,293739.698;2124,293739.697755000,00000077,-101,-9,64147,-50,15,2*58f38ec0
%RAWIMUSA,2124,293739.708;2124,293739.707755000,00000077,-135,45,64163,-39,5,-4*62f53a07
%RAWIMUSA,2124,293739.718;2124,293739.717755000,00000077,-238,-95,64186,-33,1,5*341800ed
%RAWIMUSA,2124,293739.728;2124,293739.727755000,00000077,-180,-131,64107,-29,2,7*f846eb22
%RAWIMUSA,2124,293739.738;2124,293739.737755000,00000077,-201,-110,64117,-41,0,6*3225ef06
%RAWIMUSA,2124,293739.748;2124,293739.747755000,00000077,-171,-91,64101,-29,8,0*c83135c3
%RAWIMUSA,2124,293739.758;2124,293739.757755000,00000077,-169,-90,64147,-42,8,-7*ad702b68
%RAWIMUSA,2124,293739.768;2124,293739.767755000,00000077,-46,-48,64067,-51,2,-8*7eee1960
%RAWIMUSA,2124,293739.778;2124,293739.777755000,00000077,-166,-5,64119,-62,11,17*9ba6d171
%RAWIMUSA,2124,293739.788;2124,293739.787755000,00000077,-82,-100,64097,-37,8,8*70592d48
%RAWIMUSA,2124,293739.798;2124,293739.797755000,00000077,-101,-66,64096,-49,0,14*a042140a
%RAWIMUSA,2124,293739.808;2124,293739.807755000,00000077,-159,-57,64189,-46,16,10*36e6b66f
%RAWIMUSA,2124,293739.818;2124,293739.817755000,00000077,-231,-77,64170,-48,9,-5*0c7770c1
%RAWIMUSA,2124,293739.828;2124,293739.827755000,00000077,-178,-91,64099,-29,10,1*54fd492d
%RAWIMUSA,2124,293739.838;2124,293739.837755000,00000077,-213,-41,64112,-46,0,1*4df96d82
%RAWIMUSA,2124,293739.848;2124,293739.847755000,00000077,-283,-114,63979,-34,18,1*a695a5f4
%RAWIMUSA,2124,293739.858;2124,293739.857755000,00000077,-228,-14,64177,-22,5,20*468b524b
%RAWIMUSA,2124,293739.868;2124,293739.867755000,00000077,-189,-36,64168,-31,10,-7*e2c78dcf
%RAWIMUSA,2124,293739.878;2124,293739.877755000,00000077,-183,54,64123,-25,18,12*c853cdd0
%RAWIMUSA,2124,293739.888;2124,293739.887755000,00000077,-254,-133,64151,-24,9,3*f760bbc5
%RAWIMUSA,2124,293739.898;2124,293739.897755000,00000077,-254,4,64145,-15,6,14*459a1ee8
%RAWIMUSA,2124,293739.908;2124,293739.907755000,00000077,-216,-117,64148,-35,16,11*fe83d4f3
%RAWIMUSA,2124,293739.918;2124,293739.917755000,00000077,-260,-64,64205,-41,17,8*8c4d4c13
%RAWIMUSA,2124,293739.928;2124,293739.927755000,00000077,-247,-32,64111,-18,13,2*c9543d7c
%RAWIMUSA,2124,293739.938;2124,293739.937755000,00000077,-292,-21,64107,-31,8,6*3eeb168b
%RAWIMUSA,2124,293739.948;2124,293739.947755000,00000077,-178,-86,64171,-37,9,2*fc55c042
%RAWIMUSA,2124,293739.958;2124,293739.957755000,00000077,-228,-54,64066,-31,10,0*05688dee
%RAWIMUSA,2124,293739.968;2124,293739.967755000,00000077,-259,-122,64145,-18,1,19*45d56517
%RAWIMUSA,2124,293739.978;2124,293739.977755000,00000077,-201,7,64113,-26,6,0*2fa00ac8
%RAWIMUSA,2124,293739.988;2124,293739.987755000,00000077,-253,7,64052,-30,10,9*25b4e317
%RAWIMUSA,2124,293739.998;2124,293739.997755000,00000077,-188,-72,64095,-13,2,12*52c1de11
%RAWIMUSA,2124,293740.008;2124,293740.007755000,00000077,-161,99,64125,-12,6,-8*b8163709
%RAWIMUSA,2124,293740.018;2124,293740.017755000,00000077,-344,-12,64095,-7,29,-7*fd15fc5d
%RAWIMUSA,2124,293740.028;2124,293740.027755000,00000077,-186,-87,64133,-20,-9,13*06f16a5c
%RAWIMUSA,2124,293740.038;2124,293740.037755000,00000077,-128,-72,64097,-25,0,0*d5b2fc5b
%RAWIMUSA,2124,293740.048;2124,293740.047755000,00000077,-180,-73,64076,-9,-3,0*2c54ea86
%RAWIMUSA,2124,293740.058;2124,293740.057755000,00000077,-268,-66,64073,-25,-5,-5*c1e2caa6
%RAWIMUSA,2124,293740.068;2124,293740.067755000,00000077,-173,-34,64131,-13,10,-7*3e14f457
%RAWIMUSA,2124,293740.078;2124,293740.077755000,00000077,-115,-31,63992,-15,14,-15*763003ac
%RAWIMUSA,2124,293740.088;2124,293740.087755000,00000077,-222,46,64129,-8,15,8*5ba38d04
%RAWIMUSA,2124,293740.098;2124,293740.097755000,00000077,-255,-129,64140,-23,16,0*c3103de0
%RAWIMUSA,2124,293740.108;2124,293740.107755000,00000077,-136,-103,64151,-22,3,-2*c2b915d5
%RAWIMUSA,2124,293740.118;2124,293740.117755000,00000077,-245,-83,64146,-14,2,4*f8cc837e
%RAWIMUSA,2124,293740.128;2124,293740.127755000,00000077,-98,-85,64047,-17,19,-5*b4fea64b
%RAWIMUSA,2124,293740.138;2124,293740.137755000,00000077,-286,3,64108,-26,0,0*926d513d
%RAWIMUSA,2124,293740.148;2124,293740.147755000,00000077,-197,-118,64036,-9,1,11*8db23108
%RAWIMUSA,2124,293740.158;2124,293740.157755000,00000077,-228,-90,64138,-19,-2,11*2a041018
%RAWIMUSA,2124,293740.168;2124,293740.167755000,00000077,-235,-29,64164,-8,19,-7*ecd4c1f1
%RAWIMUSA,2124,293740.178;2124,293740.177755000,00000077,-266,-17,64108,-23,19,7*b7b00a3f
%RAWIMUSA,2124,293740.188;2124,293740.187755000,00000077,-253,-102,64092,-10,-10,0*e5a59bb0
%RAWIMUSA,2124,293740.198;2124,293740.197755000,00000077,-201,-56,64114,-3,28,3*05ed2803
%RAWIMUSA,2124,293740.208;2124,293740.207755000,00000077,-170,-111,64105,-2,3,14*f9be84d5
%RAWIMUSA,2124,293740.218;2124,293740.217755000,00000077,-238,-72,64165,-24,9,1*14d74d36
%RAWIMUSA,2124,293740.228;2124,293740.227755000,00000077,-214,-74,64048,-24,-1,10*e13ce32c
%RAWIMUSA,2124,293740.238;2124,293740.237755000,00000077,-104,7,64071,-5,13,6*3c471ca0
%RAWIMUSA,2124,293740.248;2124,293740.247755000,00000077,-215,-53,64027,-26,32,-6*671f78dd
%RAWIMUSA,2124,293740.258;2124,293740.257755000,00000077,-216,-81,64084,-15,7,-5*2571a35d
%RAWIMUSA,2124,293740.268;2124,293740.267755000,00000077,-264,71,64109,-13,1,0*b8bef07d
%RAWIMUSA,2124,293740.278;2124,293740.277755000,00000077,-172,-142,64092,-30,6,8*3e52f213
%RAWIMUSA,2124,293740.288;2124,293740.287755000,00000077,-145,17,64158,-19,10,20*a98a7bee
%RAWIMUSA,2124,293740.298;2124,293740.297755000,00000077,-290,-49,64193,-11,3,3*0478c6e5
%RAWIMUSA,2124,293740.308;2124,293740.307755000,00000077,-154,3,64058,-2,-3,-2*9e30218e
%RAWIMUSA,2124,293740.318;2124,293740.317755000,00000077,-118,-9,64171,-1,-6,16*e6e0c452
%RAWIMUSA,2124,293740.328;2124,293740.327755000,00000077,-265,-84,64101,-10,17,10*9c79d340
%RAWIMUSA,2124,293740.338;2124,293740.337755000,00000077,-108,-173,64131,-15,0,-11*5b221bb6
%RAWIMUSA,2124,293740.348;2124,293740.347755000,00000077,-187,-96,64150,-10,5,8*f211f59f
%RAWIMUSA,2124,293740.358;2124,293740.357755000,00000077,-224,2,64155,-14,9,-7*429f4a6d
%RAWIMUSA,2124,293740.368;2124,293740.367755000,00000077,-224,-7,64160,-18,-1,1*214fa104
%RAWIMUSA,2124,293740.378;2124,293740.377755000,00000077,-287,-101,64183,-7,-6,-6*279e911c
%RAWIMUSA,2124,293740.388;2124,293740.387755000,00000077,-210,-112,64102,-5,-10,1*4f2c8f74
%RAWIMUSA,2124,293740.398;2124,293740.397755000,00000077,-173,-145,64082,-10,3,2*c9ec2783
%RAWIMUSA,2124,293740.408;2124,293740.407755000,00000077,-117,-46,64149,-23,7,4*93f4dd77
%RAWIMUSA,2124,293740.418;2124,293740.417755000,00000077,-302,-38,64215,-21,-6,10*fbdcfe11
%RAWIMUSA,2124,293740.428;2124,293740.427755000,00000077,-187,-143,64082,1,14,-8*6c536eb9
%RAWIMUSA,2124,293740.438;2124,293740.437755000,00000077,-262,-55,64122,-19,-2,1*abc0fc57
%RAWIMUSA,2124,293740.448;2124,293740.447755000,00000077,-177,-36,64106,-21,17,4*f6e798fc
%RAWIMUSA,2124,293740.458;2124,293740.457755000,00000077,-318,-86,64154,-15,14,-4*63a8b899
%RAWIMUSA,2124,293740.468;2124,293740.467755000,00000077,-146,-81,64239,-13,13,0*f9d576d2
%RAWIMUSA,2124,293740.478;2124,293740.477755000,00000077,-135,20,64145,-8,8,-12*2591cb62
%RAWIMUSA,2124,293740.488;2124,293740.487755000,00000077,-218,-84,64155,-9,5,2*ad68beca
%RAWIMUSA,2124,293740.498;2124,293740.497755000,00000077,-228,-76,64116,-26,3,10*bf5f6c6f
%RAWIMUSA,2124,293740.508;2124,293740.507755000,00000077,-107,-128,64117,-3,2,11*1273bec4
%RAWIMUSA,2124,293740.518;2124,293740.517755000,00000077,-234,-44,64128,-2,3,17*ed218fdc
%RAWIMUSA,2124,293740.528;2124,293740.527755000,00000077,-239,-122,64102,9,20,13*4b7a827b
%RAWIMUSA,2124,293740.538;2124,293740.537755000,00000077,-300,-124,64085,-17,5,0*30eb86f0
%RAWIMUSA,2124,293740.548;2124,293740.547755000,00000077,-129,-130,64102,0,0,15*4086f846
%RAWIMUSA,2124,293740.558;2124,293740.557755000,00000077,-199,-49,64099,-5,9,1*78305da7
%RAWIMUSA,2124,293740.568;2124,293740.567755000,00000077,-271,-59,64132,-10,17,-7*120aa887
%RAWIMUSA,2124,293740.578;2124,293740.577755000,00000077,-281,8,64136,-20,16,1*635741b4
%RAWIMUSA,2124,293740.588;2124,293740.587755000,00000077,-206,-79,64148,-21,4,9*50054ba0
%RAWIMUSA,2124,293740.598;2124,293740.597755000,00000077,-87,-65,64104,-8,6,1*0970e17f
%RAWIMUSA,2124,293740.608;2124,293740.607755000,00000077,-286,-13,64177,-17,2,7*7b42f5c0
%RAWIMUSA,2124,293740.618;2124,293740.617755000,00000077,-200,-41,64145,-12,-1,-6*5081bb64
%RAWIMUSA,2124,293740.628;2124,293740.627755000,00000077,-143,-110,64175,-15,4,3*c51ee233
%RAWIMUSA,2124,293740.638;2124,293740.637755000,00000077,-140,-53,64020,-11,-7,15*6526be45
%RAWIMUSA,2124,293740.648;2124,293740.647755000,00000077,-161,-55,64169,-12,3,10*83d74014
%RAWIMUSA,2124,293740.658;2124,293740.657755000,00000077,-179,-63,64116,0,11,11*58015154
%RAWIMUSA,2124,293740.668;2124,293740.667755000,00000077,-240,4,64137,-2,9,9*f09ddbbc
%RAWIMUSA,2124,293740.678;2124,293740.677755000,00000077,-259,-44,64068,-3,1,5*c0912a9c
%RAWIMUSA,2124,293740.688;2124,293740.687755000,00000077,-218,-41,64124,-10,7,19*1a0b7f4c
%RAWIMUSA,2124,293740.698;2124,293740.697755000,00000077,-288,-24,64191,1,-2,9*52376c4d
%RAWIMUSA,2124,293740.708;2124,293740.707755000,00000077,-283,-21,64145,-5,4,7*10c76943
%RAWIMUSA,2124,293740.718;2124,293740.717755000,00000077,-171,-8,64235,-5,-7,0*d9d8182c
%RAWIMUSA,2124,293740.728;2124,293740.727755000,00000077,-173,-139,64098,1,3,5*68faf162
%RAWIMUSA,2124,293740.738;2124,293740.737755000,00000077,-122,-25,64117,-4,4,-12*a07ac126
%RAWIMUSA,2124,293740.748;2124,293740.747755000,00000077,-236,-35,64167,-3,7,3*717e83c5
%RAWIMUSA,2124,293740.758;2124,293740.757755000,00000077,-90,-137,64106,-18,10,7*2249e94b
%RAWIMUSA,2124,293740.768;2124,293740.767755000,00000077,-151,-69,64121,0,2,10*62e989aa
%RAWIMUSA,2124,293740.778;2124,293740.777755000,00000077,-207,-79,64154,8,8,-15*6c104d17
%RAWIMUSA,2124,293740.788;2124,293740.787755000,00000077,-135,-2,64151,-1,6,0*d617880e
%RAWIMUSA,2124,293740.798;2124,293740.797755000,00000077,-128,-68,64121,7,-11,-7*44ae7117
%RAWIMUSA,2124,293740.808;2124,293740.807755000,00000077,-256,-110,64050,1,4,-11*fab6fd2a
%RAWIMUSA,2124,293740.818;2124,293740.817755000,00000077,-236,-14,64104,-19,6,-6*e7e0f5a4
%RAWIMUSA,2124,293740.828;2124,293740.827755000,00000077,-233,-8,64005,-16,8,7*3c411775
%RAWIMUSA,2124,293740.838;2124,293740.837755000,00000077,-244,0,64169,5,7,0*5e8cf4c9
%RAWIMUSA,2124,293740.848;2124,293740.847755000,00000077,-191,-209,64150,-16,13,3*2a65498a
%RAWIMUSA,2124,293740.858;2124,293740.857755000,00000077,-280,-47,64096,-12,14,18*527afbb6
%RAWIMUSA,2124,293740.868;2124,293740.867755000,00000077,-193,13,64198,-5,12,4*53af6b80
%RAWIMUSA,2124,293740.878;2124,293740.877755000,00000077,-153,-61,64163,6,12,0*36122b77
%RAWIMUSA,2124,293740.888;2124,293740.887755000,00000077,-249,-23,64106,3,10,17*f39f782c
%RAWIMUSA,2124,293740.898;2124,293740.897755000,00000077,-288,-75,64233,-18,6,-7*f17d5058
%RAWIMUSA,2124,293740.908;2124,293740.907755000,00000077,-122,-52,64279,-9,13,7*8c96f83c
%RAWIMUSA,2124,293740.918;2124,293740.917755000,00000077,-150,-48,64145,-4,3,0*aa7246ec
%RAWIMUSA,2124,293740.928;2124,293740.927755000,00000077,-186,-66,64069,-6,18,-4*80fd253c
%RAWIMUSA,2124,293740.938;2124,293740.937755000,00000077,-287,-68,64145,-8,-3,8*091e124b
%RAWIMUSA,2124,293740.948;2124,293740.947755000,00000077,-186,-67,64104,-17,-4,-5*656afaa8
%RAWIMUSA,2124,293740.958;2124,293740.957755000,00000077,-249,-101,64096,-9,-5,17*87f6a181
%RAWIMUSA,2124,293740.968;2124,293740.967755000,00000077,-259,-114,64119,3,13,10*ecb1ad98
%RAWIMUSA,2124,293740.978;2124,293740.977755000,00000077,-226,-71,64150,-7,0,9*2d5d5a0c
%RAWIMUSA,2124,293740.988;2124,293740.987755000,00000077,-236,16,64165,2,9,5*5e7295ea
%RAWIMUSA,2124,293740.998;2124,293740.997755000,00000077,-173,-39,64158,4,23,-5*671644b4
%RAWIMUSA,2124,293741.008;2124,293741.007755000,00000077,-238,-168,64125,-2,6,4*425d50ee
%RAWIMUSA,2124,293741.018;2124,293741.017755000,00000077,-268,-102,64216,-18,-5,11*4ad0e641
%RAWIMUSA,2124,293741.028;2124,293741.027755000,00000077,-276,-151,64199,2,11,2*2fc113b4
%RAWIMUSA,2124,293741.038;2124,293741.037755000,00000077,-101,-162,64142,-4,3,-2*8bbc1a59
%RAWIMUSA,2124,293741.048;2124,293741.047755000,00000077,-138,-82,64052,1,5,0*fb206e31
%RAWIMUSA,2124,293741.058;2124,293741.057755000,00000077,-236,-6,64133,-5,7,-20*99805ca3
%RAWIMUSA,2124,293741.068;2124,293741.067755000,00000077,-140,-115,64184,-1,1,9*80808550
%RAWIMUSA,2124,293741.078;2124,293741.077755000,00000077,-69,-31,64168,-5,2,-8*36b34122
%RAWIMUSA,2124,293741.088;2124,293741.087755000,00000077,-187,-98,64144,-3,-5,1*5013f251
%RAWIMUSA,2124,293741.098;2124,293741.097755000,00000077,-337,12,64258,-10,-5,1*4ea1c8ca
%RAWIMUSA,2124,293741.108;2124,293741.107755000,00000077,-220,-28,64209,-4,2,-6*ea2a47b8
%RAWIMUSA,2124,293741.118;2124,293741.117755000,00000077,-225,-100,64090,-16,9,-7*0fd469c1
%RAWIMUSA,2124,293741.128;2124,293741.127755000,00000077,-244,-71,64121,-6,3,6*caf31595
%RAWIMUSA,2124,293741.138;2124,293741.137755000,00000077,-299,-38,64031,2,0,-2*7579d1f9
%RAWIMUSA,2124,293741.148;2124,293741.147755000,00000077,-302,-84,64080,-4,9,10*e3149b17
%RAWIMUSA,2124,293741.158;2124,293741.157755000,00000077,-264,-130,64124,0,6,21*4b759dc8
%RAWIMUSA,2124,293741.168;2124,293741.167755000,00000077,-195,-139,64045,-15,13,-4*f4c0aa95
%RAWIMUSA,2124,293741.178;2124,293741.177755000,00000077,-214,-128,64104,-11,9,6*94ee9198
%RAWIMUSA,2124,293741.188;2124,293741.187755000,00000077,-157,-99,64186,-17,0,-3*5203a26d
%RAWIMUSA,2124,293741.198;2124,293741.197755000,00000077,-66,-90,64137,-5,7,6*eba64a9b
%RAWIMUSA,2124,293741.208;2124,293741.207755000,00000077,-162,-121,64133,-5,5,0*17e2bb1a
%RAWIMUSA,2124,293741.218;2124,293741.217755000,00000077,-281,-31,64040,-13,7,1*a2335761
%RAWIMUSA,2124,293741.228;2124,293741.227755000,00000077,-235,-42,64059,-14,14,6*ceec9bc1
%RAWIMUSA,2124,293741.238;2124,293741.237755000,00000077,-200,-85,64184,6,1,11*4f10d48e
%RAWIMUSA,2124,293741.248;2124,293741.247755000,00000077,-139,-63,64134,-9,0,15*a6c5a9d3
%RAWIMUSA,2124,293741.258;2124,293741.257755000,00000077,-147,7,64107,0,1,9*f3c9d0f3
%RAWIMUSA,2124,293741.268;2124,293741.267755000,00000077,-230,-110,64133,-9,3,-2*38dd0e54
%RAWIMUSA,2124,293741.278;2124,293741.277755000,00000077,-229,-25,64158,-1,13,8*6b169e45
%RAWIMUSA,2124,293741.288;2124,293741.287755000,00000077,-167,-15,64102,-30,-2,13*6f4546f7
%RAWIMUSA,2124,293741.298;2124,293741.297755000,00000077,-114,-94,64044,3,6,17*3e2ad8a9
%RAWIMUSA,2124,293741.308;2124,293741.307755000,00000077,-170,-12,64235,8,18,12*0fc50ef0
%RAWIMUSA,2124,293741.318;2124,293741.317755000,00000077,-174,-125,64099,-17,10,10*554d27be
%RAWIMUSA,2124,293741.328;2124,293741.327755000,00000077,-215,-106,64139,4,5,5*ae688cd3
%RAWIMUSA,2124,293741.338;2124,293741.337755000,00000077,-244,-137,64193,-10,1,15*77a9e56e
%RAWIMUSA,2124,293741.348;2124,293741.347755000,00000077,-248,-87,64071,-23,35,2*900914e6
%RAWIMUSA,2124,293741.358;2124,293741.357755000,00000077,-218,-74,64094,0,5,13*0b37a66d
%RAWIMUSA,2124,293741.368;2124,293741.367755000,00000077,-167,62,64183,-15,-3,18*d74abe54
%RAWIMUSA,2124,293741.378;2124,293741.377755000,00000077,-213,69,64160,2,0,5*2f3c7614
%RAWIMUSA,2124,293741.388;2124,293741.387755000,00000077,-138,-142,64130,-3,15,16*b81f3239
%RAWIMUSA,2124,293741.398;2124,293741.397755000,00000077,-227,11,64186,0,3,7*826a4954
%RAWIMUSA,2124,293741.408;2124,293741.407755000,00000077,-287,6,64123,-15,5,12*76763fe4
%RAWIMUSA,2124,293741.418;2124,293741.417755000,00000077,-209,-65,64190,0,7,12*62785b44
%RAWIMUSA,2124,293741.428;2124,293741.427755000,00000077,-195,-63,64059,-15,14,7*e539ed22
%RAWIMUSA,2124,293741.438;2124,293741.437755000,00000077,-133,-99,64167,-5,12,0*5f9be2d2
%RAWIMUSA,2124,293741.448;2124,293741.447755000,00000077,-187,-79,64074,18,10,-11*7f126f04
%RAWIMUSA,2124,293741.458;2124,293741.457755000,00000077,-362,-51,64034,-5,12,12*d6881555
%RAWIMUSA,2124,293741.468;2124,293741.467755000,00000077,-221,-68,64215,-6,9,5*1b496f2f
%RAWIMUSA,2124,293741.478;2124,293741.477755000,00000077,-117,-27,64102,-8,19,1*ed055f56
%RAWIMUSA,2124,293741.488;2124,293741.487755000,00000077,-219,-50,64100,-23,10,0*eac91876
%RAWIMUSA,2124,293741.498;2124,293741.497755000,00000077,-203,50,64219,1,-5,14*70b52a2a
%RAWIMUSA,2124,293741.508;2124,293741.507755000,00000077,-134,-123,64052,-13,11,-4*78326e75
%RAWIMUSA,2124,293741.518;2124,293741.517755000,00000077,-69,-87,64150,-4,2,0*b9eff2a5
%RAWIMUSA,2124,293741.528;2124,293741.527755000,00000077,-251,-90,64067,-9,2,5*41989e43
%RAWIMUSA,2124,293741.538;2124,293741.537755000,00000077,-179,-50,64099,-12,-4,15*30d59dfc
%RAWIMUSA,2124,293741.548;2124,293741.547755000,00000077,-125,-16,64102,-3,8,6*22b44d3f
%RAWIMUSA,2124,293741.558;2124,293741.557755000,00000077,-204,-72,64073,0,-4,16*8ca768bc
%RAWIMUSA,2124,293741.568;2124,293741.567755000,00000077,-167,-72,63973,4,-1,13*60e18276
%RAWIMUSA,2124,293741.578;2124,293741.577755000,00000077,-202,-137,64046,1,-7,0*dc0ef613
%RAWIMUSA,2124,293741.588;2124,293741.587755000,00000077,-160,-153,64126,-21,6,3*31a7de37
%RAWIMUSA,2124,293741.598;2124,293741.597755000,00000077,-182,-59,64138,-6,21,10*24a9ce83
%RAWIMUSA,2124,293741.608;2124,293741.607755000,00000077,-224,-59,64099,0,10,5*ad6558b0
%RAWIMUSA,2124,293741.618;2124,293741.617755000,00000077,-131,-77,64115,-4,-14,1*6ced7713
%RAWIMUSA,2124,293741.628;2124,293741.627755000,00000077,-288,-25,64090,-2,10,2*8f9f8c19
%RAWIMUSA,2124,293741.638;2124,293741.637755000,00000077,-260,-61,64158,-1,-11,17*6d9fddb9
%RAWIMUSA,2124,293741.648;2124,293741.647755000,00000077,-330,8,64145,14,8,10*6e395611
%RAWIMUSA,2124,293741.658;2124,293741.657755000,00000077,-216,-64,64185,-5,19,-4*4cb655c1
%RAWIMUSA,2124,293741.668;2124,293741.667755000,00000077,-163,-69,64057,-6,-16,6*1773c2fe
%RAWIMUSA,2124,293741.678;2124,293741.677755000,00000077,-245,-71,64164,-18,20,-6*73835fba
%RAWIMUSA,2124,293741.688;2124,293741.687755000,00000077,-307,-5,64217,-7,13,-5*11544879
%RAWIMUSA,2124,293741.698;2124,293741.697755000,00000077,-196,-36,64090,-7,7,1*70da0501
%RAWIMUSA,2124,293741.708;2124,293741.707755000,00000077,-220,-26,64203,-2,30,2*b9c47a3a
%RAWIMUSA,2124,293741.718;2124,293741.717755000,00000077,-311,-59,64129,-16,29,-1*124e77c3
%RAWIMUSA,2124,293741.728;2124,293741.727755000,00000077,-235,7,64138,-1,4,6*a06cfdba
%RAWIMUSA,2124,293741.738;2124,293741.737755000,00000077,-283,-96,64120,0,6,3*af77426c
%RAWIMUSA,2124,293741.748;2124,293741.747755000,00000077,-248,-35,64152,13,0,8*5e77ae36
%RAWIMUSA,2124,293741.758;2124,293741.757755000,00000077,-190,-91,64078,5,6,1*190d609e
%RAWIMUSA,2124,293741.768;2124,293741.767755000,00000077,-310,-65,64093,14,5,3*1e3c26f8
%RAWIMUSA,2124,293741.778;2124,293741.777755000,00000077,-77,-156,64072,-9,10,5*25b32ab7
%RAWIMUSA,2124,293741.788;2124,293741.787755000,00000077,-169,-179,64086,2,6,6*109a9aa9
%RAWIMUSA,2124,293741.798;2124,293741.797755000,00000077,-176,-39,64134,-3,4,4*79e825bd
%RAWIMUSA,2124,293741.808;2124,293741.807755000,00000077,-141,-142,64252,4,0,6*cc1c6605
%RAWIMUSA,2124,293741.818;2124,293741.817755000,00000077,-155,-29,64106,-8,7,-3*2b6e94f5
%RAWIMUSA,2124,293741.828;2124,293741.827755000,00000077,-144,-70,64094,-10,-5,4*80e41f72
%RAWIMUSA,2124,293741.838;2124,293741.837755000,00000077,-216,102,64196,-8,5,-3*8e18ef77
%RAWIMUSA,2124,293741.848;2124,293741.847755000,00000077,-209,-103,64077,-10,13,-3*3faf32d4
%RAWIMUSA,2124,293741.858;2124,293741.857755000,00000077,-206,-86,64115,-9,20,-13*f97dbc82
%RAWIMUSA,2124,293741.868;2124,293741.867755000,00000077,-127,-58,64154,-11,5,1*4410664d
%RAWIMUSA,2124,293741.878;2124,293741.877755000,00000077,-149,-38,64043,0,15,16*198c4953
%RAWIMUSA,2124,293741.888;2124,293741.887755000,00000077,-325,-48,64126,-17,4,1*b67c4a9d
%RAWIMUSA,2124,293741.898;2124,293741.897755000,00000077,-212,-35,64106,3,0,2*dde4decf
%RAWIMUSA,2124,293741.908;2124,293741.907755000,00000077,-148,25,64085,-9,-8,-9*517ef21b
%RAWIMUSA,2124,293741.918;2124,293741.917755000,00000077,-253,-102,64086,6,4,18*0662d01e
%RAWIMUSA,2124,293741.928;2124,293741.927755000,00000077,-180,-163,64115,-11,5,9*84102b27
%RAWIMUSA,2124,293741.938;2124,293741.937755000,00000077,-293,-63,64122,-10,15,0*ed1cbba9
%RAWIMUSA,2124,293741.948;2124,293741.947755000,00000077,-173,-32,64245,2,0,-10*14b88b0a
%RAWIMUSA,2124,293741.958;2124,293741.957755000,00000077,-192,-151,63985,-6,18,14*85989011
%RAWIMUSA,2124,293741.968;2124,293741.967755000,00000077,-214,-91,64188,-5,1,16*d2bb2e2c
%RAWIMUSA,2124,293741.978;2124,293741.977755000,00000077,-113,-4,64270,2,10,-1*63161221
%RAWIMUSA,2124,293741.988;2124,293741.987755000,00000077,-218,-46,64245,0,7,9*8e7ab60a
%RAWIMUSA,2124,293741.998;2124,293741.997755000,00000077,-201,-82,64161,-14,9,6*34d76e75
%RAWIMUSA,2124,293742.008;2124,293742.007755000,00000077,-173,-147,64157,-1,4,-3*b331daf0
%RAWIMUSA,2124,293742.018;2124,293742.017755000,00000077,-227,-101,64087,-7,0,0*dbf1935c
%RAWIMUSA,2124,293742.028;2124,293742.027755000,00000077,-155,-101,64157,-2,-14,11*82309a66
%RAWIMUSA,2124,293742.038;2124,293742.037755000,00000077,-146,24,64238,-8,10,32*b2bf84fe
%RAWIMUSA,2124,293742.048;2124,293742.047755000,00000077,-126,-62,64101,-6,1,-4*08170f51
%RAWIMUSA,2124,293742.058;2124,293742.057755000,00000077,-265,-158,64078,-2,-10,8*ec5bd5a3
%RAWIMUSA,2124,293742.068;2124,293742.067755000,00000077,-259,-36,64027,-4,14,2*86c1b13b
%RAWIMUSA,2124,293742.078;2124,293742.077755000,00000077,-225,-128,64159,8,-5,-5*142293ff
%RAWIMUSA,2124,293742.088;2124,293742.087755000,00000077,-192,-78,64131,-14,12,10*a3123563
%RAWIMUSA,2124,293742.098;2124,293742.097755000,00000077,-166,-118,64137,-1,13,-7*c19e9019
%RAWIMUSA,2124,293742.108;2124,293742.107755000,00000077,-212,-71,64153,-14,11,12*5a87cd86
%RAWIMUSA,2124,293742.118;2124,293742.117755000,00000077,-192,-65,64116,-9,21,7*50191213
%RAWIMUSA,2124,293742.128;2124,293742.127755000,00000077,-233,-142,64049,3,7,4*8f08683f
%RAWIMUSA,2124,293742.138;2124,293742.137755000,00000077,-196,-87,64146,-8,-1,12*9d91bc08
%RAWIMUSA,2124,293742.148;2124,293742.147755000,00000077,-142,-40,64142,-7,-9,0*5fa97aaf
%RAWIMUSA,2124,293742.158;2124,293742.157755000,00000077,-157,-44,64156,-9,18,1*d8c7c164
%RAWIMUSA,2124,293742.168;2124,293742.167755000,00000077,-167,-17,64093,-9,-12,7*d82e1e9f
%RAWIMUSA,2124,293742.178;2124,293742.177755000,00000077,-235,-56,64108,0,7,0*11be6afa
%RAWIMUSA,2124,293742.188;2124,293742.187755000,00000077,-188,-110,64139,-4,7,2*90da2b6b
%RAWIMUSA,2124,293742.198;2124,293742.197755000,00000077,-212,-16,64150,9,16,7*f40b1e19
%RAWIMUSA,2124,293742.208;2124,293742.207755000,00000077,-279,-86,64188,-6,8,8*f8a3089c
%RAWIMUSA,2124,293742.218;2124,293742.217755000,00000077,-204,-92,64133,-3,-2,3*739254a4
%RAWIMUSA,2124,293742.228;2124,293742.227755000,00000077,-240,-43,64135,-1,9,11*8ed6345c
%RAWIMUSA,2124,293742.238;2124,293742.237755000,00000077,-121,-105,64003,-1,-2,-1*e7548adf
%RAWIMUSA,2124,293742.248;2124,293742.247755000,00000077,-274,-15,64181,-10,2,2*9fb5b07b
%RAWIMUSA,2124,293742.258;2124,293742.257755000,00000077,-222,-53,64043,-8,23,2*aba6048a
%RAWIMUSA,2124,293742.268;2124,293742.267755000,00000077,-242,-81,64064,24,0,-9*3730bbc1
%RAWIMUSA,2124,293742.278;2124,293742.277755000,00000077,-212,-6,64169,-7,10,4*8844567c
%RAWIMUSA,2124,293742.288;2124,293742.287755000,00000077,-170,-86,64098,-1,0,4*30822a0f
%RAWIMUSA,2124,293742.298;2124,293742.297755000,00000077,-297,-122,64140,-17,-4,6*f9c44964
%RAWIMUSA,2124,293742.308;2124,293742.307755000,00000077,-207,-66,64210,0,8,8*5b1f6feb
%RAWIMUSA,2124,293742.318;2124,293742.317755000,00000077,-151,-146,64005,-6,9,17*342be2c9
%RAWIMUSA,2124,293742.328;2124,293742.327755000,00000077,-261,-74,64195,-22,1,1*13bd0bb3
%RAWIMUSA,2124,293742.338;2124,293742.337755000,00000077,-263,-112,64113,4,-12,0*f494c356
%RAWIMUSA,2124,293742.348;2124,293742.347755000,00000077,-191,-86,64080,-7,-3,24*623ebd52
%RAWIMUSA,2124,293742.358;2124,293742.357755000,00000077,-172,29,64136,-11,7,11*c29aa004
%RAWIMUSA,2124,293742.368;2124,293742.367755000,00000077,-265,-144,64120,-3,16,10*da53149d
%RAWIMUSA,2124,293742.378;2124,293742.377755000,00000077,-151,-100,64180,-14,4,7*d339f118
%RAWIMUSA,2124,293742.388;2124,293742.387755000,00000077,-225,-101,64199,-1,3,7*bfa87961
%RAWIMUSA,2124,293742.398;2124,293742.397755000,00000077,-201,-42,64233,-12,14,0*e492e86f
%RAWIMUSA,2124,293742.408;2124,293742.407755000,00000077,-168,-13,64208,-1,-3,-3*32c4aa4c
%RAWIMUSA,2124,293742.418;2124,293742.417755000,00000077,-37,-119,64208,-10,8,7*331113fa
%RAWIMUSA,2124,293742.428;2124,293742.427755000,00000077,-170,-43,64076,-14,0,-3*e5f92d20
%RAWIMUSA,2124,293742.438;2124,293742.437755000,00000077,-182,-12,64084,-1,10,-7*2eccd87d
%RAWIMUSA,2124,293742.448;2124,293742.447755000,00000077,-167,-97,64109,-8,5,19*ce14cfa8
%RAWIMUSA,2124,293742.458;2124,293742.457755000,00000077,-240,-110,63970,-5,9,-9*05f5c85b
%RAWIMUSA,2124,293742.468;2124,293742.467755000,00000077,-191,-67,64139,-30,8,-9*d45337ae
%RAWIMUSA,2124,293742.478;2124,293742.477755000,00000077,-165,-13,64157,-6,22,11*5a242a8f
%RAWIMUSA,2124,293742.488;2124,293742.487755000,00000077,-152,-96,64179,-3,7,-8*65a0890e
%RAWIMUSA,2124,293742.498;2124,293742.497755000,00000077,-259,-80,64096,-4,7,5*30f13865
%RAWIMUSA,2124,293742.508;2124,293742.507755000,00000077,-268,-41,64079,4,5,0*31306eea
%RAWIMUSA,2124,293742.518;2124,293742.517755000,00000077,-96,28,64109,-6,7,0*d7ce5f48
%RAWIMUSA,2124,293742.528;2124,293742.527755000,00000077,-181,-122,64185,-17,5,8*59bad71e
%RAWIMUSA,2124,293742.538;2124,293742.537755000,00000077,-300,-13,64122,-8,20,-2*7c70dbcb
%RAWIMUSA,2124,293742.548;2124,293742.547755000,00000077,-168,-87,64117,-9,12,-6*01981f4e
%RAWIMUSA,2124,293742.558;2124,293742.557755000,00000077,-143,-70,64101,-5,8,9*71a4a940
%RAWIMUSA,2124,293742.568;2124,293742.567755000,00000077,-221,15,64095,-15,16,10*642e4dc4
%RAWIMUSA,2124,293742.578;2124,293742.577755000,00000077,-213,-82,64083,-1,0,-2*fa743f91
%RAWIMUSA,2124,293742.588;2124,293742.587755000,00000077,-236,-47,64180,-15,0,3*52849bc3
%RAWIMUSA,2124,293742.598;2124,293742.597755000,00000077,-223,-56,64139,5,10,11*f8007155
%RAWIMUSA,2124,293742.608;2124,293742.607755000,00000077,-293,-60,64178,-3,10,5*5a2cc56d
%RAWIMUSA,2124,293742.618;2124,293742.617755000,00000077,-193,-54,64109,1,8,19*63c4ec7f
%RAWIMUSA,2124,293742.628;2124,293742.627755000,00000077,-176,-83,64099,-7,6,3*ce295073
%RAWIMUSA,2124,293742.638;2124,293742.637755000,00000077,-164,-91,64144,-14,1,7*716535c1
%RAWIMUSA,2124,293742.648;2124,293742.647755000,00000077,-152,-135,64067,4,6,4*f1f1e33d
%RAWIMUSA,2124,293742.658;2124,293742.657755000,00000077,-197,-63,64077,-7,7,8*cfe9bf00
%RAWIMUSA,2124,293742.668;2124,293742.667755000,00000077,-174,-131,64071,5,9,0*0cbedd9d
%RAWIMUSA,2124,293742.678;2124,293742.677755000,00000077,-261,-32,64158,-23,12,0*ff1be656
%RAWIMUSA,2124,293742.688;2124,293742.687755000,00000077,-246,-33,64039,-7,4,-4*2779644c
%RAWIMUSA,2124,293742.698;2124,293742.697755000,00000077,-254,82,64142,-5,12,-4*60a17777
%RAWIMUSA,2124,293742.708;2124,293742.707755000,00000077,-192,25,64114,-4,8,0*c6120e27
%RAWIMUSA,2124,293742.718;2124,293742.717755000,00000077,-308,-86,64103,-6,0,0*a65c5c1e
%RAWIMUSA,2124,293742.728;2124,293742.727755000,00000077,-200,-96,64081,-2,-12,-1*1ee43832
%RAWIMUSA,2124,293742.738;2124,293742.737755000,00000077,-181,-35,64104,-6,2,8*e12a88e8
%RAWIMUSA,2124,293742.748;2124,293742.747755000,00000077,-126,-61,64136,2,3,14*c09e6857
%RAWIMUSA,2124,293742.758;2124,293742.757755000,00000077,-261,-130,64034,9,0,7*c8e08246
%RAWIMUSA,2124,293742.768;2124,293742.767755000,00000077,-142,-119,64242,-14,0,5*96dabdf8
%RAWIMUSA,2124,293742.778;2124,293742.777755000,00000077,-185,23,64103,-1,-3,9*7f9fd534
%RAWIMUSA,2124,293742.788;2124,293742.787755000,00000077,-201,-22,64150,-6,1,10*b92fafed
%RAWIMUSA,2124,293742.798;2124,293742.797755000,00000077,-260,-20,64169,-23,6,-2*ddecd8ad
%RAWIMUSA,2124,293742.808;2124,293742.807755000,00000077,-140,-65,64082,-7,6,0*f26307e4
%RAWIMUSA,2124,293742.818;2124,293742.817755000,00000077,-200,-48,64097,0,9,4*bbc0a4c9
%RAWIMUSA,2124,293742.828;2124,293742.827755000,00000077,-221,-120,64099,-1,24,7*37579d50
%RAWIMUSA,2124,293742.838;2124,293742.837755000,00000077,-206,19,64108,0,-7,13*19936fff
%RAWIMUSA,2124,293742.848;2124,293742.847755000,00000077,-185,-40,64128,14,-5,-6*d6dc5782
%RAWIMUSA,2124,293742.858;2124,293742.857755000,00000077,-272,-39,64120,0,-7,-9*9ec9b747
%RAWIMUSA,2124,293742.868;2124,293742.867755000,00000077,-291,-127,64169,6,2,0*c36d00a3
%RAWIMUSA,2124,293742.878;2124,293742.877755000,00000077,-126,-84,64098,-1,7,7*5b2666a0
%RAWIMUSA,2124,293742.888;2124,293742.887755000,00000077,-194,-119,64070,11,9,4*51d95655
%RAWIMUSA,2124,293742.898;2124,293742.897755000,00000077,-281,-54,64152,-6,11,3*43c438ff
%RAWIMUSA,2124,293742.908;2124,293742.907755000,00000077,-202,-81,64119,-14,-5,9*5d9c44e9
%RAWIMUSA,2124,293742.918;2124,293742.917755000,00000077,-211,-102,64216,5,1,0*d87e47da
%RAWIMUSA,2124,293742.928;2124,293742.927755000,00000077,-251,-89,64126,-2,12,0*d55a30f4
%RAWIMUSA,2124,293742.938;2124,293742.937755000,00000077,-267,-25,64083,-4,5,0*cc2eaf94
%RAWIMUSA,2124,293742.948;2124,293742.947755000,00000077,-251,-54,64135,4,-8,8*dac059ca
%RAWIMUSA,2124,293742.958;2124,293742.957755000,00000077,-191,-17,64099,-13,7,3*58ee942d
%RAWIMUSA,2124,293742.968;2124,293742.967755000,00000077,-205,-50,64178,-14,19,-17*4906b750
%RAWIMUSA,2124,293742.978;2124,293742.977755000,00000077,-258,-163,64171,0,-4,8*5528aa60
%RAWIMUSA,2124,293742.988;2124,293742.987755000,00000077,-214,33,64021,1,15,11*d04b3c76
%RAWIMUSA,2124,293742.998;2124,293742.997755000,00000077,-122,-94,64203,-4,9,4*97163eb3
%RAWIMUSA,2124,293743.008;2124,293743.007755000,00000077,-236,22,64115,-10,-1,5*1f6bae4c
%RAWIMUSA,2124,293743.018;2124,293743.017755000,00000077,-227,-123,64120,-5,-5,-9*21f406ee
%RAWIMUSA,2124,293743.028;2124,293743.027755000,00000077,-197,47,64211,7,2,0*839e38f3
%RAWIMUSA,2124,293743.038;2124,293743.037755000,00000077,-189,-42,64194,-15,13,-2*b4b770d7
%RAWIMUSA,2124,293743.048;2124,293743.047755000,00000077,-232,-64,64166,-1,21,-3*484ed4fc
%RAWIMUSA,2124,293743.058;2124,293743.057755000,00000077,-192,-133,64201,-1,19,-4*61bf4419
%RAWIMUSA,2124,293743.068;2124,293743.067755000,00000077,-215,-66,64007,-11,18,-3*529cf631
%RAWIMUSA,2124,293743.078;2124,293743.077755000,00000077,-294,-194,64112,0,1,-10*77f3c62b
%RAWIMUSA,2124,293743.088;2124,293743.087755000,00000077,-224,-84,64162,-11,10,-15*1c1aacd2
%RAWIMUSA,2124,293743.098;2124,293743.097755000,00000077,-175,5,64153,-20,2,1*f6c0d833
%RAWIMUSA,2124,293743.108;2124,293743.107755000,00000077,-142,-24,64319,7,15,11*073a4573
%RAWIMUSA,2124,293743.118;2124,293743.117755000,00000077,-203,-80,64213,-16,10,6*152a8c95
%RAWIMUSA,2124,293743.128;2124,293743.127755000,00000077,-148,-6,64180,-1,-6,-9*0d9abe67
%RAWIMUSA,2124,293743.138;2124,293743.137755000,00000077,-242,-39,64233,4,0,5*978bb016
%RAWIMUSA,2124,293743.148;2124,293743.147755000,00000077,-176,-53,64139,-18,31,13*9d34e127
%RAWIMUSA,2124,293743.158;2124,293743.157755000,00000077,-263,43,64113,-22,1,9*3ef42b9c
%RAWIMUSA,2124,293743.168;2124,293743.167755000,00000077,-128,29,64104,-7,8,0*ad397fc6
%RAWIMUSA,2124,293743.178;2124,293743.177755000,00000077,-90,-6,64131,-8,15,-3*a001ca6f
%RAWIMUSA,2124,293743.188;2124,293743.187755000,00000077,-188,-4,64182,-11,21,8*0258f2a2
%RAWIMUSA,2124,293743.198;2124,293743.197755000,00000077,-110,39,64217,-4,8,4*823636b0
%RAWIMUSA,2124,293743.208;2124,293743.207755000,00000077,-243,-47,64119,0,12,7*b03eb7f3
%RAWIMUSA,2124,293743.218;2124,293743.217755000,00000077,-148,13,64099,20,-7,-11*1e2178c0
%RAWIMUSA,2124,293743.228;2124,293743.227755000,00000077,-231,-43,64163,-4,11,-3*7f03fb51
%RAWIMUSA,2124,293743.238;2124,293743.237755000,00000077,-194,62,64129,-6,0,12*ed2d22a9
%RAWIMUSA,2124,293743.248;2124,293743.247755000,00000077,-235,-77,64005,-3,7,-15*6015a30e
%RAWIMUSA,2124,293743.258;2124,293743.257755000,00000077,-268,12,64044,-5,8,7*f791b07a
%RAWIMUSA,2124,293743.268;2124,293743.267755000,00000077,-155,-39,64175,-18,-2,9*35bb54e3
%RAWIMUSA,2124,293743.278;2124,293743.277755000,00000077,-198,-51,64100,-1,-10,-12*ef8fec2a
%RAWIMUSA,2124,293743.288;2124,293743.287755000,00000077,-206,-111,64082,-8,-10,7*b9e06981
%RAWIMUSA,2124,293743.298;2124,293743.297755000,00000077,-104,13,64130,-8,16,18*8919e604
%RAWIMUSA,2124,293743.308;2124,293743.307755000,00000077,-179,-35,64109,-15,-6,-7*889a99c8
%RAWIMUSA,2124,293743.318;2124,293743.317755000,00000077,-265,-71,64215,-23,12,1*f2891cdd
%RAWIMUSA,2124,293743.328;2124,293743.327755000,00000077,-211,40,64128,-6,6,4*c40a5ce9
%RAWIMUSA,2124,293743.338;2124,293743.337755000,00000077,-211,-21,64105,6,8,-5*5c3ef559
%RAWIMUSA,2124,293743.348;2124,293743.347755000,00000077,-206,7,64146,-18,11,9*b0cc7944
%RAWIMUSA,2124,293743.358;2124,293743.357755000,00000077,-195,-169,64173,14,-8,2*fca5eaad
%RAWIMUSA,2124,293743.368;2124,293743.367755000,00000077,-71,0,64116,9,13,3*1ec67393
%RAWIMUSA,2124,293743.378;2124,293743.377755000,00000077,-185,20,64208,-3,6,0*15eae6bb
%RAWIMUSA,2124,293743.388;2124,293743.387755000,00000077,-220,-40,64191,-5,7,4*45fbc290
%RAWIMUSA,2124,293743.398;2124,293743.397755000,00000077,-241,-53,64017,6,-4,10*3a77301d
%RAWIMUSA,2124,293743.408;2124,293743.407755000,00000077,-291,-118,64143,-10,7,14*8044e86c
%RAWIMUSA,2124,293743.418;2124,293743.417755000,00000077,-147,15,64166,-10,4,-2*46ea0dc7
%RAWIMUSA,2124,293743.428;2124,293743.427755000,00000077,-246,-18,64150,-10,2,2*2267680a
%RAWIMUSA,2124,293743.438;2124,293743.437755000,00000077,-243,-148,64162,-7,1,18*a70809ed
%RAWIMUSA,2124,293743.448;2124,293743.447755000,00000077,-269,-7,64055,-10,20,-4*e8874a2d
%RAWIMUSA,2124,293743.458;2124,293743.457755000,00000077,-193,-19,64151,6,-5,-11*9b486cea
%RAWIMUSA,2124,293743.468;2124,293743.467755000,00000077,-274,34,64166,-4,0,5*7cbba666
%RAWIMUSA,2124,293743.478;2124,293743.477755000,00000077,-201,-31,64099,8,2,-7*5eddea2c
%RAWIMUSA,2124,293743.488;2124,293743.487755000,00000077,-260,-73,64136,-7,11,18*d45f58d2
%RAWIMUSA,2124,293743.498;2124,293743.497755000,00000077,-233,39,64132,-2,2,-3*a4c8a6f4
%RAWIMUSA,2124,293743.508;2124,293743.507755000,00000077,-134,-60,64093,-4,7,-8*cf1a57dd
%RAWIMUSA,2124,293743.518;2124,293743.517755000,00000077,-230,-67,63995,-9,11,23*67a1fc90
%RAWIMUSA,2124,293743.528;2124,293743.527755000,00000077,-164,-46,64107,-2,3,15*5e92839e
%RAWIMUSA,2124,293743.538;2124,293743.537755000,00000077,-151,-80,64089,6,3,5*868988dd
%RAWIMUSA,2124,293743.548;2124,293743.547755000,00000077,-210,-128,64115,-16,18,15*9cd0549e
%RAWIMUSA,2124,293743.558;2124,293743.557755000,00000077,-136,-123,64117,0,2,2*d74c00c5
%RAWIMUSA,2124,293743.568;2124,293743.567755000,00000077,-263,-47,64157,-6,15,4*3cb1d8f1
%RAWIMUSA,2124,293743.578;2124,293743.577755000,00000077,-173,-22,64149,12,-7,-4*f44575f6
%RAWIMUSA,2124,293743.588;2124,293743.587755000,00000077,-278,-141,64156,-6,15,-5*f1795329
%RAWIMUSA,2124,293743.598;2124,293743.597755000,00000077,-259,11,64179,0,0,9*6833c2b4
%RAWIMUSA,2124,293743.608;2124,293743.607755000,00000077,-227,4,64121,-14,13,2*964008b7
%RAWIMUSA,2124,293743.618;2124,293743.617755000,00000077,-238,-54,64127,2,14,-5*61fbcddc
%RAWIMUSA,2124,293743.628;2124,293743.627755000,00000077,-233,-102,64088,1,2,-1*363d7e35
%RAWIMUSA,2124,293743.638;2124,293743.637755000,00000077,-235,-5,64161,-11,15,0*5428a8bc
%RAWIMUSA,2124,293743.648;2124,293743.647755000,00000077,-212,-129,64096,-12,0,3*ac1aaedc
%RAWIMUSA,2124,293743.658;2124,293743.657755000,00000077,-148,-26,64139,-3,-5,9*fa26eebd
%RAWIMUSA,2124,293743.668;2124,293743.667755000,00000077,-245,85,64166,-2,10,8*7d80755d
%RAWIMUSA,2124,293743.678;2124,293743.677755000,00000077,-187,-29,64044,-7,14,18*0407a9fd
%RAWIMUSA,2124,293743.688;2124,293743.687755000,00000077,-282,-81,64142,2,3,0*df94c077
%RAWIMUSA,2124,293743.698;2124,293743.697755000,00000077,-210,-184,64133,-13,7,-7*35e95ea8
%RAWIMUSA,2124,293743.708;2124,293743.707755000,00000077,-169,-19,64136,2,12,16*2e72cee0
%RAWIMUSA,2124,293743.718;2124,293743.717755000,00000077,-170,-18,64107,-6,-3,-24*a3151f48
%RAWIMUSA,2124,293743.728;2124,293743.727755000,00000077,-210,-11,64115,3,8,13*20ece063
%RAWIMUSA,2124,293743.738;2124,293743.737755000,00000077,-229,-62,64178,-1,-2,7*d5a13da0
%RAWIMUSA,2124,293743.748;2124,293743.747755000,00000077,-108,-133,64149,-7,9,-1*189abb4d
%RAWIMUSA,2124,293743.758;2124,293743.757755000,00000077,-193,-28,64162,-6,4,5*a9e4a628
%RAWIMUSA,2124,293743.768;2124,293743.767755000,00000077,-190,-133,64203,0,12,7*be14173e
%RAWIMUSA,2124,293743.778;2124,293743.777755000,00000077,-225,-126,64230,9,4,17*087ccfb0
%RAWIMUSA,2124,293743.788;2124,293743.787755000,00000077,-138,-130,64063,-10,6,0*d5b6c74c
%RAWIMUSA,2124,293743.798;2124,293743.797755000,00000077,-240,37,64143,-9,5,0*6c8072e4
%RAWIMUSA,2124,293743.808;2124,293743.807755000,00000077,-261,-63,64174,-9,3,3*03f6baad
%RAWIMUSA,2124,293743.818;2124,293743.817755000,00000077,-90,-108,64149,-5,-8,3*b0b4457a
%RAWIMUSA,2124,293743.828;2124,293743.827755000,00000077,-92,-100,64114,-18,8,-6*233bb3c1
%RAWIMUSA,2124,293743.838;2124,293743.837755000,00000077,-212,-79,64085,-12,8,-3*17170107
%RAWIMUSA,2124,293743.848;2124,293743.847755000,00000077,-213,-86,64115,5,18,14*c9f8aaae
%RAWIMUSA,2124,293743.858;2124,293743.857755000,00000077,-218,-9,64113,-10,1,4*73a15d4b
%RAWIMUSA,2124,293743.868;2124,293743.867755000,00000077,-123,-72,64184,10,11,-7*ccaac8c6
%RAWIMUSA,2124,293743.878;2124,293743.877755000,00000077,-187,-17,64132,-6,23,14*9a8d5bae
%RAWIMUSA,2124,293743.888;2124,293743.887755000,00000077,-328,-56,64110,-6,6,1*ad561adc
%RAWIMUSA,2124,293743.898;2124,293743.897755000,00000077,-264,-22,64255,6,-6,14*7abc1b3b
%RAWIMUSA,2124,293743.908;2124,293743.907755000,00000077,-226,-114,64189,-13,10,5*d384be6d
%RAWIMUSA,2124,293743.918;2124,293743.917755000,00000077,-198,-9,63968,-7,-3,6*868eaee6
%RAWIMUSA,2124,293743.928;2124,293743.927755000,00000077,-311,0,64176,-3,6,-4*e7b30770
%RAWIMUSA,2124,293743.938;2124,293743.937755000,00000077,-167,-8,64207,-15,5,3*a16c1e31
%RAWIMUSA,2124,293743.948;2124,293743.947755000,00000077,-136,-37,64147,-16,16,16*f4c351fe
%RAWIMUSA,2124,293743.958;2124,293743.957755000,00000077,-206,-15,64095,-4,3,-5*ab93cf32
%RAWIMUSA,2124,293743.968;2124,293743.967755000,00000077,-151,-70,64184,-7,-5,-14*bffe1ed2
%RAWIMUSA,2124,293743.978;2124,293743.977755000,00000077,-232,-103,64215,-20,7,5*ccd39908
%RAWIMUSA,2124,293743.988;2124,293743.987755000,00000077,-154,25,64072,-11,-6,9*b13a090e
%RAWIMUSA,2124,293743.998;2124,293743.997755000,00000077,-259,-61,64124,-16,5,11*0db8143d
%RAWIMUSA,2124,293744.008;2124,293744.007755000,00000077,-250,-102,64068,-15,9,-2*c22a439e
%RAWIMUSA,2124,293744.018;2124,293744.017755000,00000077,-276,-57,64206,-12,-2,8*de4a4754
%RAWIMUSA,2124,293744.028;2124,293744.027755000,00000077,-177,-53,64265,0,-2,8*dc1a07f5
%RAWIMUSA,2124,293744.038;2124,293744.037755000,00000077,-211,-72,64183,-18,13,-1*9f1e8632
%RAWIMUSA,2124,293744.048;2124,293744.047755000,00000077,-216,-119,64160,-13,5,-1*21271554
%RAWIMUSA,2124,293744.058;2124,293744.057755000,00000077,-108,-20,64050,-6,-2,-6*8f594739
%RAWIMUSA,2124,293744.068;2124,293744.067755000,00000077,-222,10,64102,0,10,1*e4339d13
%RAWIMUSA,2124,293744.078;2124,293744.077755000,00000077,-221,-33,64078,-3,-4,6*33850719
%RAWIMUSA,2124,293744.088;2124,293744.087755000,00000077,-218,-47,64121,-12,6,-6*0c97bdb5
%RAWIMUSA,2124,293744.098;2124,293744.097755000,00000077,-204,-66,64088,1,9,2*1b464dd8
%RAWIMUSA,2124,293744.108;2124,293744.107755000,00000077,-234,-50,64183,-3,5,0*6cb2ce54
%RAWIMUSA,2124,293744.118;2124,293744.117755000,00000077,-203,-139,64045,-23,8,2*43edff73
%RAWIMUSA,2124,293744.128;2124,293744.127755000,00000077,-109,-79,64140,1,17,6*faa83d22
%RAWIMUSA,2124,293744.138;2124,293744.137755000,00000077,-217,-72,64107,-1,-2,13*d81cb301
%RAWIMUSA,2124,293744.148;2124,293744.147755000,00000077,-230,-169,64223,-5,-5,0*ee1ebde2
%RAWIMUSA,2124,293744.158;2124,293744.157755000,00000077,-137,-110,64167,-15,1,-3*ab7b1ec1
%RAWIMUSA,2124,293744.168;2124,293744.167755000,00000077,-148,-99,64157,3,5,-4*40c84d0b
%RAWIMUSA,2124,293744.178;2124,293744.177755000,00000077,-206,-51,64114,0,12,0*d759d8f5
%RAWIMUSA,2124,293744.188;2124,293744.187755000,00000077,-157,-60,64094,-11,12,11*274fda4d
%RAWIMUSA,2124,293744.198;2124,293744.197755000,00000077,-139,-147,64108,-2,1,-8*35325bcd
%RAWIMUSA,2124,293744.208;2124,293744.207755000,00000077,-169,-55,64301,2,2,-13*a1771c29
%RAWIMUSA,2124,293744.218;2124,293744.217755000,00000077,-171,-62,64267,7,-15,10*d76e5d67
%RAWIMUSA,2124,293744.228;2124,293744.227755000,00000077,-200,-24,64254,-17,0,6*6a2f3357
%RAWIMUSA,2124,293744.238;2124,293744.237755000,00000077,-236,-64,64169,-22,19,-6*1cc888e7
%RAWIMUSA,2124,293744.248;2124,293744.247755000,00000077,-155,-73,64168,-9,-4,3*5d330621
%RAWIMUSA,2124,293744.258;2124,293744.257755000,00000077,-215,-20,64044,12,8,18*458f4305
%RAWIMUSA,2124,293744.268;2124,293744.267755000,00000077,-168,-155,64140,-3,21,-7*e16f1f16
%RAWIMUSA,2124,293744.278;2124,293744.277755000,00000077,-262,-103,64177,-6,12,18*10a6e718
%RAWIMUSA,2124,293744.288;2124,293744.287755000,00000077,-252,-70,64069,-17,8,-15*2092cc15
%RAWIMUSA,2124,293744.298;2124,293744.297755000,00000077,-138,-46,64105,-9,-2,5*6714dd71
%RAWIMUSA,2124,293744.308;2124,293744.307755000,00000077,-48,-64,64109,1,2,3*ab1018eb
%RAWIMUSA,2124,293744.318;2124,293744.317755000,00000077,-257,-124,64044,2,16,-1*bfa1746a
%RAWIMUSA,2124,293744.328;2124,293744.327755000,00000077,-160,-153,64026,-1,-4,5*aed0eaa5
%RAWIMUSA,2124,293744.338;2124,293744.337755000,00000077,-103,-72,64172,-4,11,-6*804debe2
%RAWIMUSA,2124,293744.348;2124,293744.347755000,00000077,-248,-85,64117,-14,9,1*f700c12a
%RAWIMUSA,2124,293744.358;2124,293744.357755000,00000077,-267,-54,64183,-5,0,10*9e8008ec
%RAWIMUSA,2124,293744.368;2124,293744.367755000,00000077,-143,-164,64116,4,6,-5*1196584d
%RAWIMUSA,2124,293744.378;2124,293744.377755000,00000077,-180,-148,63953,0,-6,5*6a97cd53
%RAWIMUSA,2124,293744.388;2124,293744.387755000,00000077,-219,-205,64113,-7,15,8*0c24cef2
%RAWIMUSA,2124,293744.398;2124,293744.397755000,00000077,-268,-87,64176,6,5,-10*79475780
%RAWIMUSA,2124,293744.408;2124,293744.407755000,00000077,-297,-31,64176,-3,10,-8*b0a41b06
%RAWIMUSA,2124,293744.418;2124,293744.417755000,00000077,-155,-79,64177,-5,15,6*4cfa6072
%RAWIMUSA,2124,293744.428;2124,293744.427755000,00000077,-271,54,64157,10,0,5*3ddb5b68
%RAWIMUSA,2124,293744.438;2124,293744.437755000,00000077,-115,-25,64073,-7,15,7*25c4e5e9
%RAWIMUSA,2124,293744.448;2124,293744.447755000,00000077,-272,-60,64123,-7,2,12*7444b0ec
%RAWIMUSA,2124,293744.458;2124,293744.457755000,00000077,-194,-105,64090,-11,6,13*2719def7
%RAWIMUSA,2124,293744.468;2124,293744.467755000,00000077,-180,-24,64131,-14,9,4*1c379ca2
%RAWIMUSA,2124,293744.478;2124,293744.477755000,00000077,-135,-123,64152,-8,-7,0*a4dd34a2
%RAWIMUSA,2124,293744.488;2124,293744.487755000,00000077,-220,-74,64045,0,-15,2*2cbc2ad2
%RAWIMUSA,2124,293744.498;2124,293744.497755000,00000077,-198,-146,64002,-4,14,4*5a1f2082
%RAWIMUSA,2124,293744.508;2124,293744.507755000,00000077,-231,-69,64106,-18,-3,3*1ca1e2b4
%RAWIMUSA,2124,293744.518;2124,293744.517755000,00000077,-198,-34,64115,1,11,-2*42db7254
%RAWIMUSA,2124,293744.528;2124,293744.527755000,00000077,-126,-147,64141,-6,16,5*a535784b
%RAWIMUSA,2124,293744.538;2124,293744.537755000,00000077,-187,-105,64186,-10,0,22*95ccf6d7
%RAWIMUSA,2124,293744.548;2124,293744.547755000,00000077,-276,-85,64175,-2,4,0*1259d9a3
%RAWIMUSA,2124,293744.558;2124,293744.557755000,00000077,-222,-97,64126,-17,14,5*11a1fc4e
%RAWIMUSA,2124,293744.568;2124,293744.567755000,00000077,-289,-146,64084,-9,5,2*e5ee170f
%RAWIMUSA,2124,293744.578;2124,293744.577755000,00000077,-229,26,64081,-11,-5,0*5d7d0632
%RAWIMUSA,2124,293744.588;2124,293744.587755000,00000077,-284,-114,64071,-2,5,-5*18543661
%RAWIMUSA,2124,293744.598;2124,293744.597755000,00000077,-248,-182,64102,-19,26,0*7a5bb051
%RAWIMUSA,2124,293744.608;2124,293744.607755000,00000077,-270,-121,64179,-10,10,1*41f0ff35
%RAWIMUSA,2124,293744.618;2124,293744.617755000,00000077,-103,-27,64110,0,17,3*fed9307a
%RAWIMUSA,2124,293744.628;2124,293744.627755000,00000077,-236,-182,64159,-10,-4,3*57a08af5
%RAWIMUSA,2124,293744.638;2124,293744.637755000,00000077,-234,-73,64158,7,3,3*c1670fb5
%RAWIMUSA,2124,293744.648;2124,293744.647755000,00000077,-219,-56,64121,18,12,2*ef1674bf
%RAWIMUSA,2124,293744.658;2124,293744.657755000,00000077,-144,-71,64192,-8,1,1*cfa431da
%RAWIMUSA,2124,293744.668;2124,293744.667755000,00000077,-301,-182,64088,11,10,8*3973a82e
%RAWIMUSA,2124,293744.678;2124,293744.677755000,00000077,-215,-143,64153,-9,-5,16*ae5fb288
%RAWIMUSA,2124,293744.688;2124,293744.687755000,00000077,-170,-31,64154,3,16,6*8fff341e
%RAWIMUSA,2124,293744.698;2124,293744.697755000,00000077,-231,-106,64116,-9,11,-1*b8926ba7
%RAWIMUSA,2124,293744.708;2124,293744.707755000,00000077,-93,-57,64123,-12,4,-9*1f01efa4
%RAWIMUSA,2124,293744.718;2124,293744.717755000,00000077,-224,-135,64140,0,4,6*307d4b4a
%RAWIMUSA,2124,293744.728;2124,293744.727755000,00000077,-181,-111,64118,-4,6,0*5dd3c084
%RAWIMUSA,2124,293744.738;2124,293744.737755000,00000077,-222,-50,64129,0,-4,1*8fdb8824
%RAWIMUSA,2124,293744.748;2124,293744.747755000,00000077,-168,-75,64148,11,11,0*ae3495e9
%RAWIMUSA,2124,293744.758;2124,293744.757755000,00000077,-272,-113,64138,2,7,-5*c1828f4d
%RAWIMUSA,2124,293744.768;2124,293744.767755000,00000077,-239,-122,64069,-11,0,15*718c4596
%RAWIMUSA,2124,293744.778;2124,293744.777755000,00000077,-129,-14,64091,0,12,6*197a573d
%RAWIMUSA,2124,293744.788;2124,293744.787755000,00000077,-175,-23,64063,-5,12,17*9c945326
%RAWIMUSA,2124,293744.798;2124,293744.797755000,00000077,-178,-187,64118,-16,0,1*64944c35
%RAWIMUSA,2124,293744.808;2124,293744.807755000,00000077,-189,-29,64119,-14,3,12*3da001a6
%RAWIMUSA,2124,293744.818;2124,293744.817755000,00000077,-225,-52,64076,-16,21,-5*70e72d49
%RAWIMUSA,2124,293744.828;2124,293744.827755000,00000077,-222,-17,64041,-17,1,-9*1a928f58
%RAWIMUSA,2124,293744.838;2124,293744.837755000,00000077,-334,-111,64156,0,18,-1*73e1f25c
%RAWIMUSA,2124,293744.848;2124,293744.847755000,00000077,-210,-73,64116,-13,3,-10*dc773b32
%RAWIMUSA,2124,293744.858;2124,293744.857755000,00000077,-214,8,64117,-1,-6,2*fa01df6f
%RAWIMUSA,2124,293744.868;2124,293744.867755000,00000077,-301,-90,64117,-6,-6,24*712f28c4
%RAWIMUSA,2124,293744.878;2124,293744.877755000,00000077,-155,-30,64062,-3,-1,4*2bcd09b9
%RAWIMUSA,2124,293744.888;2124,293744.887755000,00000077,-172,-149,64077,-7,9,11*278000e2
%RAWIMUSA,2124,293744.898;2124,293744.897755000,00000077,-201,-53,64078,5,0,3*086741a3
%RAWIMUSA,2124,293744.908;2124,293744.907755000,00000077,-235,-25,64111,-6,15,-1*3e4ebca9
%RAWIMUSA,2124,293744.918;2124,293744.917755000,00000077,-239,-46,64095,-10,15,5*10949880
%RAWIMUSA,2124,293744.928;2124,293744.927755000,00000077,-157,-80,64181,-26,7,12*29f34f13
%RAWIMUSA,2124,293744.938;2124,293744.937755000,00000077,-97,-135,64110,-5,-7,-1*cd6d192f
%RAWIMUSA,2124,293744.948;2124,293744.947755000,00000077,-212,-107,64106,-1,10,-2*32a7b9ed
%RAWIMUSA,2124,293744.958;2124,293744.957755000,00000077,-228,-30,64130,4,-5,11*f2715173
%RAWIMUSA,2124,293744.968;2124,293744.967755000,00000077,-261,-148,64076,14,17,-3*fc6c0f00
%RAWIMUSA,2124,293744.978;2124,293744.977755000,00000077,-150,-4,64147,0,-2,3*ba151f03
%RAWIMUSA,2124,293744.988;2124,293744.987755000,00000077,-268,-51,64036,4,8,7*073de9eb
%RAWIMUSA,2124,293744.998;2124,293744.997755000,00000077,-198,-177,64131,2,-4,-20*3f3a28f1
%RAWIMUSA,2124,293745.008;2124,293745.007755000,00000077,-59,-106,64130,-2,-1,15*2b2bb04c
%RAWIMUSA,2124,293745.018;2124,293745.017755000,00000077,-271,-95,64197,-3,14,1*7c4b1e16
%RAWIMUSA,2124,293745.028;2124,293745.027755000,00000077,-263,-195,64241,-8,8,4*7bb6988a
%RAWIMUSA,2124,293745.038;2124,293745.037755000,00000077,-200,-82,64206,-18,7,8*b29be349
%RAWIMUSA,2124,293745.048;2124,293745.047755000,00000077,-151,-87,64193,0,10,-1*5df6acf9
%RAWIMUSA,2124,293745.058;2124,293745.057755000,00000077,-168,-61,64158,-1,10,-12*9bfc95e7
%RAWIMUSA,2124,293745.068;2124,293745.067755000,00000077,-252,-43,64081,-3,2,13*d8016d88
%RAWIMUSA,2124,293745.078;2124,293745.077755000,00000077,-159,-156,64079,-11,32,0*35844718
%RAWIMUSA,2124,293745.088;2124,293745.087755000,00000077,-205,-131,64126,-23,0,-5*a3d1d765
%RAWIMUSA,2124,293745.098;2124,293745.097755000,00000077,-248,-60,64129,-13,15,10*0bb23c10
%RAWIMUSA,2124,293745.108;2124,293745.107755000,00000077,-206,17,64172,-2,0,15*9aec2118
%RAWIMUSA,2124,293745.118;2124,293745.117755000,00000077,-217,-42,64198,6,9,-9*f82675ef
%RAWIMUSA,2124,293745.128;2124,293745.127755000,00000077,-232,-69,64073,-4,12,4*4d187df6
%RAWIMUSA,2124,293745.138;2124,293745.137755000,00000077,-229,-75,64164,14,16,9*482f9f95
%RAWIMUSA,2124,293745.148;2124,293745.147755000,00000077,-95,-51,64205,0,16,15*2f959b65
%RAWIMUSA,2124,293745.158;2124,293745.157755000,00000077,-266,-46,64106,-21,6,-7*cfaa6ce9
%RAWIMUSA,2124,293745.168;2124,293745.167755000,00000077,-224,-65,64146,-3,14,7*b62cd4f8
%RAWIMUSA,2124,293745.178;2124,293745.177755000,00000077,-262,-100,64197,-2,18,18*5c51ccf6
%RAWIMUSA,2124,293745.188;2124,293745.187755000,00000077,-166,-143,64131,6,13,1*4f317776
%RAWIMUSA,2124,293745.198;2124,293745.197755000,00000077,-216,-65,64228,-10,9,3*481cc6a2
%RAWIMUSA,2124,293745.208;2124,293745.207755000,00000077,-117,-59,64144,8,9,-4*239e0bbd
%RAWIMUSA,2124,293745.218;2124,293745.217755000,00000077,-213,-62,64124,-13,0,16*8a0d9ac3
%RAWIMUSA,2124,293745.228;2124,293745.227755000,00000077,-197,-75,64142,-7,9,4*972c8cbd
%RAWIMUSA,2124,293745.238;2124,293745.237755000,00000077,-168,-8,64126,-17,0,-5*ed6cb43e
%RAWIMUSA,2124,293745.248;2124,293745.247755000,00000077,-191,-106,64132,-11,18,9*b7295bd3
%RAWIMUSA,2124,293745.258;2124,293745.257755000,00000077,-251,28,64107,3,7,-12*05f5622a
%RAWIMUSA,2124,293745.268;2124,293745.267755000,00000077,-177,-100,64167,-24,12,4*50c64e89
%RAWIMUSA,2124,293745.278;2124,293745.277755000,00000077,-147,-100,64085,-13,19,-10*fff9d8e3
%RAWIMUSA,2124,293745.288;2124,293745.287755000,00000077,-185,-94,64117,-4,9,-6*6b74294b
%RAWIMUSA,2124,293745.298;2124,293745.297755000,00000077,-219,-52,64168,-17,13,12*40461da3
%RAWIMUSA,2124,293745.308;2124,293745.307755000,00000077,-323,-68,64238,-2,4,12*6f87cb2e
%RAWIMUSA,2124,293745.318;2124,293745.317755000,00000077,-142,-141,64234,-18,10,2*a8fbf504
%RAWIMUSA,2124,293745.328;2124,293745.327755000,00000077,-115,17,64345,0,17,-18*39600784
%RAWIMUSA,2124,293745.338;2124,293745.337755000,00000077,-289,-12,64223,5,5,7*b659d9ce
%RAWIMUSA,2124,293745.348;2124,293745.347755000,00000077,-231,-40,64111,-3,-5,9*a3c276dc
%RAWIMUSA,2124,293745.358;2124,293745.357755000,00000077,-197,-117,64137,-16,3,2*33665154
%RAWIMUSA,2124,293745.368;2124,293745.367755000,00000077,-277,-167,64149,-2,11,9*5e61761d
%RAWIMUSA,2124,293745.378;2124,293745.377755000,00000077,-267,-31,64130,-10,6,2*8beb15fe
%RAWIMUSA,2124,293745.388;2124,293745.387755000,00000077,-104,-128,64175,10,-9,0*0a690a39
%RAWIMUSA,2124,293745.398;2124,293745.397755000,00000077,-62,-139,64173,-13,13,-3*615b4df4
%RAWIMUSA,2124,293745.408;2124,293745.407755000,00000077,-155,-88,64106,-20,0,10*77973ba5
%RAWIMUSA,2124,293745.418;2124,293745.417755000,00000077,-205,-81,64168,-12,8,-3*de9c38b5
%RAWIMUSA,2124,293745.428;2124,293745.427755000,00000077,-209,-172,64230,7,-2,6*baea557f
%RAWIMUSA,2124,293745.438;2124,293745.437755000,00000077,-254,-144,64127,-6,19,11*ac1b6dfa
%RAWIMUSA,2124,293745.448;2124,293745.447755000,00000077,-168,1,64144,-11,-8,6*d11cb283
%RAWIMUSA,2124,293745.458;2124,293745.457755000,00000077,-272,-32,64086,-9,7,-3*3a8a583e
%RAWIMUSA,2124,293745.468;2124,293745.467755000,00000077,-163,-135,64082,-11,7,4*05d76aee
%RAWIMUSA,2124,293745.478;2124,293745.477755000,00000077,-219,-58,64206,-4,4,14*0391c2af
%RAWIMUSA,2124,293745.488;2124,293745.487755000,00000077,-227,-106,64094,-3,17,-7*7d76da0b
%RAWIMUSA,2124,293745.498;2124,293745.497755000,00000077,-153,-113,64153,-5,7,11*b59b85a2
%RAWIMUSA,2124,293745.508;2124,293745.507755000,00000077,-129,-36,64046,-11,3,11*07ca8077
%RAWIMUSA,2124,293745.518;2124,293745.517755000,00000077,-280,-80,64090,2,2,-6*250d2b91
%RAWIMUSA,2124,293745.528;2124,293745.527755000,00000077,-252,60,64166,-5,7,8*cd5e6f82
%RAWIMUSA,2124,293745.538;2124,293745.537755000,00000077,-164,-20,64125,-19,-7,5*91239ab2
%RAWIMUSA,2124,293745.548;2124,293745.547755000,00000077,-204,-111,64109,-13,5,11*1a740923
%RAWIMUSA,2124,293745.558;2124,293745.557755000,00000077,-160,-74,64205,-5,8,-4*95c2bda4
%RAWIMUSA,2124,293745.568;2124,293745.567755000,00000077,-135,45,64234,-9,-2,10*cdaac9b7
%RAWIMUSA,2124,293745.578;2124,293745.577755000,00000077,-173,-125,64132,0,-2,-5*c4b06e4c
%RAWIMUSA,2124,293745.588;2124,293745.587755000,00000077,-178,-55,64174,-8,13,5*9135274d
%RAWIMUSA,2124,293745.598;2124,293745.597755000,00000077,-262,-123,64094,0,7,16*8e37e474
%RAWIMUSA,2124,293745.608;2124,293745.607755000,00000077,-265,-69,64134,4,8,3*f0ea6cfb
%RAWIMUSA,2124,293745.618;2124,293745.617755000,00000077,-254,-55,64098,1,-2,1*a1ecf072
%RAWIMUSA,2124,293745.628;2124,293745.627755000,00000077,-113,-8,64079,0,9,13*127dcced
%RAWIMUSA,2124,293745.638;2124,293745.637755000,00000077,-102,-108,64140,-28,3,0*b5c9acaa
%RAWIMUSA,2124,293745.648;2124,293745.647755000,00000077,-271,-101,64166,14,2,1*50bd74d2
%RAWIMUSA,2124,293745.658;2124,293745.657755000,00000077,-268,-97,64165,-14,6,1*e472d4ad
%RAWIMUSA,2124,293745.668;2124,293745.667755000,00000077,-219,-160,64124,1,9,3*0b159b0d
%RAWIMUSA,2124,293745.678;2124,293745.677755000,00000077,-151,-81,64145,-22,6,0*a6e0a1fe
%RAWIMUSA,2124,293745.688;2124,293745.687755000,00000077,-199,-162,64141,17,11,-6*4cf2dc4c
%RAWIMUSA,2124,293745.698;2124,293745.697755000,00000077,-287,-55,64142,-32,2,0*53ad098c
%RAWIMUSA,2124,293745.708;2124,293745.707755000,00000077,-234,-65,64111,6,20,8*d7646187
%RAWIMUSA,2124,293745.718;2124,293745.717755000,00000077,-160,-68,64095,-24,14,-3*43beac3c
%RAWIMUSA,2124,293745.728;2124,293745.727755000,00000077,-254,-129,64108,17,3,13*0e2ce622
%RAWIMUSA,2124,293745.738;2124,293745.737755000,00000077,-36,-6,64226,-32,-7,2*12a5fd95
%RAWIMUSA,2124,293745.748;2124,293745.747755000,00000077,-161,-123,64145,24,10,10*6ca9c9bd
%RAWIMUSA,2124,293745.758;2124,293745.757755000,00000077,-260,-20,64084,-27,1,-6*b3a28838
%RAWIMUSA,2124,293745.768;2124,293745.767755000,00000077,-176,-140,64007,20,1,20*625db548
%RAWIMUSA,2124,293745.778;2124,293745.777755000,00000077,-213,-78,64067,-30,2,9*cb464be3
%RAWIMUSA,2124,293745.788;2124,293745.787755000,00000077,-273,40,64173,19,4,10*3d0aa8f2
%RAWIMUSA,2124,293745.798;2124,293745.797755000,00000077,-154,-157,64106,-30,1,-4*62978189
%RAWIMUSA,2124,293745.808;2124,293745.807755000,00000077,-167,-126,64153,34,-4,18*bf57bdc3
%RAWIMUSA,2124,293745.818;2124,293745.817755000,00000077,-280,-152,64140,-17,4,-9*a00b1bc9
%RAWIMUSA,2124,293745.828;2124,293745.827755000,00000077,-199,-97,64198,0,9,-8*0f65afdf
%RAWIMUSA,2124,293745.838;2124,293745.837755000,00000077,-349,-49,64101,-35,-6,0*970d5382
%RAWIMUSA,2124,293745.848;2124,293745.847755000,00000077,-177,-146,64128,25,18,13*d541b690
%RAWIMUSA,2124,293745.858;2124,293745.857755000,00000077,-191,-139,64109,-28,1,-17*8cdce003
%RAWIMUSA,2124,293745.868;2124,293745.867755000,00000077,-281,-64,64211,5,-1,1*95e2242f
%RAWIMUSA,2124,293745.878;2124,293745.877755000,00000077,-155,-88,64106,-17,23,6*658f516d
%RAWIMUSA,2124,293745.888;2124,293745.887755000,00000077,-127,44,64090,-1,7,2*87e25f66
%RAWIMUSA,2124,293745.898;2124,293745.897755000,00000077,-197,-73,64082,-32,0,-5*709f78c2
%RAWIMUSA,2124,293745.908;2124,293745.907755000,00000077,-180,-5,64082,-2,11,-4*a537b2c2
%RAWIMUSA,2124,293745.918;2124,293745.917755000,00000077,-141,-89,64165,-29,3,-2*06e2dbc6
%RAWIMUSA,2124,293745.928;2124,293745.927755000,00000077,-250,92,64153,7,14,-2*23bd3759
%RAWIMUSA,2124,293745.938;2124,293745.937755000,00000077,-291,-165,64101,-2,18,16*07c5e0e9
%RAWIMUSA,2124,293745.948;2124,293745.947755000,00000077,-200,-57,64097,-12,0,-9*2c72ad3d
