%RAWIMUSA,2124,291397.348;2124,291397.347755000,00000077,292,64513,52,18,21,-52*358c8981
%RAWIMUSA,2124,291397.358;2124,291397.357755000,00000077,332,64529,160,-10,7,47*498a179b
%RAWIMUSA,2124,291397.368;2124,291397.367755000,00000077,189,64430,98,3,3,-58*dfef42a2
%RAWIMUSA,2124,291397.378;2124,291397.377755000,00000077,382,64673,136,-4,-5,30*7de59a90
%RAWIMUSA,2124,291397.388;2124,291397.387755000,00000077,185,64340,96,-9,7,7*8df52eff
%RAWIMUSA,2124,291397.398;2124,291397.397755000,00000077,314,64664,93,12,-6,-2*d8f27d6c
%RAWIMUSA,2124,291397.408;2124,291397.407755000,00000077,238,64447,129,16,-4,42*6dcf7a9e
%RAWIMUSA,2124,291397.418;2124,291397.417755000,00000077,278,64512,-1,2,2,-67*a164923a
%RAWIMUSA,2124,291397.428;2124,291397.427755000,00000077,310,64630,158,-1,0,62*86d21a97
%RAWIMUSA,2124,291397.438;2124,291397.437755000,00000077,313,64425,98,-4,-2,-62*556209b7
%RAWIMUSA,2124,291397.448;2124,291397.447755000,00000077,320,64634,132,8,21,43*694fec7b
%RAWIMUSA,2124,291397.458;2124,291397.457755000,00000077,153,64420,70,-7,8,-5*8f57d06c
%RAWIMUSA,2124,291397.468;2124,291397.467755000,00000077,356,64657,74,1,0,-2*243e6ac6
%RAWIMUSA,2124,291397.478;2124,291397.477755000,00000077,229,64471,78,-9,1,53*aa463379
%RAWIMUSA,2124,291397.488;2124,291397.487755000,00000077,321,64565,163,5,-8,-50*8ce32b92
%RAWIMUSA,2124,291397.498;2124,291397.497755000,00000077,250,64488,47,4,0,60*92dd407b
%RAWIMUSA,2124,291397.508;2124,291397.507755000,00000077,198,64375,145,-3,2,-46*92c13bb2
%RAWIMUSA,2124,291397.518;2124,291397.517755000,00000077,243,64558,75,-18,-10,43*92eee0c3
%RAWIMUSA,2124,291397.528;2124,291397.527755000,00000077,208,64280,46,1,-2,-26*fb1623a8
%RAWIMUSA,2124,291397.538;2124,291397.537755000,00000077,410,64690,100,4,5,8*9ae85f3a
%RAWIMUSA,2124,291397.548;2124,291397.547755000,00000077,224,64366,111,13,-9,38*3ac88c69
%RAWIMUSA,2124,291397.558;2124,291397.557755000,00000077,306,64600,106,12,-5,-40*37db65af
%RAWIMUSA,2124,291397.568;2124,291397.567755000,00000077,261,64540,173,6,0,64*225039d8
%RAWIMUSA,2124,291397.578;2124,291397.577755000,00000077,292,64597,123,-4,-4,-44*142b771d
%RAWIMUSA,2124,291397.588;2124,291397.587755000,00000077,249,64470,42,-2,2,58*f9606d8c
%RAWIMUSA,2124,291397.598;2124,291397.597755000,00000077,125,64392,96,0,1,-50*98b9eb27
%RAWIMUSA,2124,291397.608;2124,291397.607755000,00000077,251,64623,33,6,1,25*1ceaefc3
%RAWIMUSA,2124,291397.618;2124,291397.617755000,00000077,205,64414,151,0,-1,-6*fe9ce7b3
%RAWIMUSA,2124,291397.628;2124,291397.627755000,00000077,386,64566,163,8,10,-11*0ef8505e
%RAWIMUSA,2124,291397.638;2124,291397.637755000,00000077,235,64445,99,5,0,53*43a6f1ad
%RAWIMUSA,2124,291397.648;2124,291397.647755000,00000077,323,64663,182,-1,4,-30*d1373cdf
%RAWIMUSA,2124,291397.658;2124,291397.657755000,00000077,322,64530,181,4,-1,76*a15d5de4
%RAWIMUSA,2124,291397.668;2124,291397.667755000,00000077,253,64429,46,0,-4,-62*4880f86d
%RAWIMUSA,2124,291397.678;2124,291397.677755000,00000077,307,64604,109,2,9,46*9dfb2396
%RAWIMUSA,2124,291397.688;2124,291397.687755000,00000077,177,64376,141,-8,15,-20*5352fc1d
%RAWIMUSA,2124,291397.698;2124,291397.697755000,00000077,363,64705,124,-6,-2,25*aad2c80e
%RAWIMUSA,2124,291397.708;2124,291397.707755000,00000077,170,64372,142,-8,-6,15*5b60ff58
%RAWIMUSA,2124,291397.718;2124,291397.717755000,00000077,363,64610,95,0,2,-25*a5a7ed5a
%RAWIMUSA,2124,291397.728;2124,291397.727755000,00000077,237,64468,198,5,-3,65*a329dc31
%RAWIMUSA,2124,291397.738;2124,291397.737755000,00000077,312,64547,129,-3,-2,-54*39fb7bc1
%RAWIMUSA,2124,291397.748;2124,291397.747755000,00000077,302,64490,58,-12,3,65*83670884
%RAWIMUSA,2124,291397.758;2124,291397.757755000,00000077,279,64425,144,9,0,-39*ca9e3786
%RAWIMUSA,2124,291397.768;2124,291397.767755000,00000077,363,64670,123,3,3,39*5174a290
%RAWIMUSA,2124,291397.778;2124,291397.777755000,00000077,191,64405,66,-1,24,-12*0a68aaeb
%RAWIMUSA,2124,291397.788;2124,291397.787755000,00000077,335,64670,122,19,11,1*d2224b64
%RAWIMUSA,2124,291397.798;2124,291397.797755000,00000077,172,64402,91,-5,13,29*51bd54de
%RAWIMUSA,2124,291397.808;2124,291397.807755000,00000077,368,64597,168,1,6,-26*9f48255f
%RAWIMUSA,2124,291397.818;2124,291397.817755000,00000077,223,64432,156,16,2,44*5c599e13
%RAWIMUSA,2124,291397.828;2124,291397.827755000,00000077,286,64610,63,-12,-6,-53*ab302f67
%RAWIMUSA,2124,291397.838;2124,291397.837755000,00000077,388,64577,159,0,1,78*2508de69
%RAWIMUSA,2124,291397.848;2124,291397.847755000,00000077,288,64436,91,1,-4,-39*b6d74d55
%RAWIMUSA,2124,291397.858;2124,291397.857755000,00000077,277,64607,103,15,-5,64*9b0758ea
%RAWIMUSA,2124,291397.868;2124,291397.867755000,00000077,227,64387,88,3,-2,-17*5797aef7
%RAWIMUSA,2124,291397.878;2124,291397.877755000,00000077,282,64597,144,2,9,9*1ba59aee
%RAWIMUSA,2124,291397.888;2124,291397.887755000,00000077,285,64416,98,-1,-10,29*f04f4ccc
%RAWIMUSA,2124,291397.898;2124,291397.897755000,00000077,297,64537,7,-6,7,-33*dd2557f0
%RAWIMUSA,2124,291397.908;2124,291397.907755000,00000077,278,64463,122,-8,27,49*4684d82b
%RAWIMUSA,2124,291397.918;2124,291397.917755000,00000077,216,64493,145,-1,-3,-41*5a5d5519
%RAWIMUSA,2124,291397.928;2124,291397.927755000,00000077,384,64493,77,0,8,50*1f539265
%RAWIMUSA,2124,291397.938;2124,291397.937755000,00000077,113,64389,36,0,11,-50*5d75e583
%RAWIMUSA,2124,291397.948;2124,291397.947755000,00000077,220,64642,116,-7,11,35*00fdb9c9
%RAWIMUSA,2124,291397.958;2124,291397.957755000,00000077,210,64350,172,-6,0,0*61dab007
%RAWIMUSA,2124,291397.968;2124,291397.967755000,00000077,445,64691,157,-3,3,-13*3876292b
%RAWIMUSA,2124,291397.978;2124,291397.977755000,00000077,240,64513,82,-6,-10,45*26964d4d
%RAWIMUSA,2124,291397.988;2124,291397.987755000,00000077,361,64512,36,6,14,-43*ae913600
%RAWIMUSA,2124,291397.998;2124,291397.997755000,00000077,283,64474,98,0,8,96*399447bb
%RAWIMUSA,2124,291398.008;2124,291398.007755000,00000077,289,64463,79,18,-6,-50*c28b91ef
%RAWIMUSA,2124,291398.018;2124,291398.017755000,00000077,288,64645,91,0,8,40*8f3d7c3a
%RAWIMUSA,2124,291398.028;2124,291398.027755000,00000077,143,64450,125,-11,12,-21*a00b1a1b
%RAWIMUSA,2124,291398.038;2124,291398.037755000,00000077,377,64611,108,3,12,-1*1ef4614d
%RAWIMUSA,2124,291398.048;2124,291398.047755000,00000077,225,64414,67,0,4,29*7a995754
%RAWIMUSA,2124,291398.058;2124,291398.057755000,00000077,374,64592,115,-4,8,-44*85b67c1e
%RAWIMUSA,2124,291398.068;2124,291398.067755000,00000077,318,64544,157,-8,1,63*0fa374ad
%RAWIMUSA,2124,291398.078;2124,291398.077755000,00000077,229,64501,96,2,0,-62*3be391cb
%RAWIMUSA,2124,291398.088;2124,291398.087755000,00000077,400,64647,59,13,5,59*fb2fe9c1
%RAWIMUSA,2124,291398.098;2124,291398.097755000,00000077,189,64308,91,13,4,-37*37380957
%RAWIMUSA,2124,291398.108;2124,291398.107755000,00000077,340,64726,117,-13,9,14*3e5b91bd
%RAWIMUSA,2124,291398.118;2124,291398.117755000,00000077,331,64366,167,0,1,23*24369660
%RAWIMUSA,2124,291398.128;2124,291398.127755000,00000077,324,64605,151,11,-4,-47*500a8978
%RAWIMUSA,2124,291398.138;2124,291398.137755000,00000077,387,64550,55,-13,12,63*abc1ab29
%RAWIMUSA,2124,291398.148;2124,291398.147755000,00000077,151,64442,39,8,-1,-60*ca8332d1
%RAWIMUSA,2124,291398.158;2124,291398.157755000,00000077,427,64614,136,4,-9,62*e755a9e3
%RAWIMUSA,2124,291398.168;2124,291398.167755000,00000077,301,64375,102,-2,4,-43*fb5cbe1d
%RAWIMUSA,2124,291398.178;2124,291398.177755000,00000077,305,64606,177,-1,4,3*62c79765
%RAWIMUSA,2124,291398.188;2124,291398.187755000,00000077,233,64364,127,-5,4,23*ee0cea50
%RAWIMUSA,2124,291398.198;2124,291398.197755000,00000077,397,64579,75,-1,-11,-45*5b577a31
%RAWIMUSA,2124,291398.208;2124,291398.207755000,00000077,286,64505,59,4,-7,47*8219a006
%RAWIMUSA,2124,291398.218;2124,291398.217755000,00000077,311,64419,127,0,11,-60*439dd5b4
%RAWIMUSA,2124,291398.228;2124,291398.227755000,00000077,392,64540,55,-2,10,58*3f598f3e
%RAWIMUSA,2124,291398.238;2124,291398.237755000,00000077,222,64338,93,13,0,-37*89a05ed9
%RAWIMUSA,2124,291398.248;2124,291398.247755000,00000077,282,64713,-17,-2,10,26*c72a635d
%RAWIMUSA,2124,291398.258;2124,291398.257755000,00000077,187,64354,105,1,-6,33*c9da477d
%RAWIMUSA,2124,291398.268;2124,291398.267755000,00000077,316,64553,34,0,-4,-44*dd40fcc8
%RAWIMUSA,2124,291398.278;2124,291398.277755000,00000077,338,64445,36,4,-2,56*90577658
%RAWIMUSA,2124,291398.288;2124,291398.287755000,00000077,176,64447,114,15,0,-47*c4e101e8
%RAWIMUSA,2124,291398.298;2124,291398.297755000,00000077,245,64674,85,3,14,58*ccec5e0a
%RAWIMUSA,2124,291398.308;2124,291398.307755000,00000077,207,64351,98,7,0,-30*1dab74af
%RAWIMUSA,2124,291398.318;2124,291398.317755000,00000077,254,64670,105,-1,2,30*5a2438bd
%RAWIMUSA,2124,291398.328;2124,291398.327755000,00000077,139,64354,144,0,-6,6*31671dca
%RAWIMUSA,2124,291398.338;2124,291398.337755000,00000077,320,64641,89,2,-9,-13*3b62f707
%RAWIMUSA,2124,291398.348;2124,291398.347755000,00000077,160,64489,102,-21,-2,37*c8545f33
%RAWIMUSA,2124,291398.358;2124,291398.357755000,00000077,194,64559,153,14,10,-41*9bc75e34
%RAWIMUSA,2124,291398.368;2124,291398.367755000,00000077,244,64573,87,-11,0,61*1a6f0388
%RAWIMUSA,2124,291398.378;2124,291398.377755000,00000077,94,64423,97,-7,4,-60*7e7cc4cf
%RAWIMUSA,2124,291398.388;2124,291398.387755000,00000077,408,64628,65,11,2,58*218b2f99
%RAWIMUSA,2124,291398.398;2124,291398.397755000,00000077,244,64459,142,3,10,-18*e2efef0e
%RAWIMUSA,2124,291398.408;2124,291398.407755000,00000077,266,64652,110,5,5,19*5795c385
%RAWIMUSA,2124,291398.418;2124,291398.417755000,00000077,182,64381,56,11,-12,17*6703b222
%RAWIMUSA,2124,291398.428;2124,291398.427755000,00000077,309,64545,94,5,9,-31*53e0c771
%RAWIMUSA,2124,291398.438;2124,291398.437755000,00000077,279,64420,114,5,12,66*e7834620
%RAWIMUSA,2124,291398.448;2124,291398.447755000,00000077,319,64481,100,4,3,-66*f0825e66
%RAWIMUSA,2124,291398.458;2124,291398.457755000,00000077,375,64498,131,5,3,72*49c136c3
%RAWIMUSA,2124,291398.468;2124,291398.467755000,00000077,253,64375,124,-5,0,-34*9b433c8b
%RAWIMUSA,2124,291398.478;2124,291398.477755000,00000077,346,64648,143,-1,12,38*2dc09747
%RAWIMUSA,2124,291398.488;2124,291398.487755000,00000077,148,64399,68,-1,2,-4*1dfe8734
%RAWIMUSA,2124,291398.498;2124,291398.497755000,00000077,394,64749,156,-3,-3,19*1ac14385
%RAWIMUSA,2124,291398.508;2124,291398.507755000,00000077,211,64389,80,4,6,31*b34da36f
%RAWIMUSA,2124,291398.518;2124,291398.517755000,00000077,282,64611,120,14,-5,-30*4c5e8f9f
%RAWIMUSA,2124,291398.528;2124,291398.527755000,00000077,283,64396,133,7,0,60*795e1e72
%RAWIMUSA,2124,291398.538;2124,291398.537755000,00000077,227,64492,110,4,-7,-55*742d795f
%RAWIMUSA,2124,291398.548;2124,291398.547755000,00000077,273,64493,148,0,4,60*f2ce7666
%RAWIMUSA,2124,291398.558;2124,291398.557755000,00000077,191,64390,106,4,-10,-30*e7188215
%RAWIMUSA,2124,291398.568;2124,291398.567755000,00000077,320,64675,149,0,0,45*75afdf28
%RAWIMUSA,2124,291398.578;2124,291398.577755000,00000077,233,64371,92,1,-1,-4*69745696
%RAWIMUSA,2124,291398.588;2124,291398.587755000,00000077,367,64691,36,16,3,-3*0e96d719
%RAWIMUSA,2124,291398.598;2124,291398.597755000,00000077,221,64406,100,0,-8,42*22b0808b
%RAWIMUSA,2124,291398.608;2124,291398.607755000,00000077,290,64636,0,-11,-5,-45*ae10c050
%RAWIMUSA,2124,291398.618;2124,291398.617755000,00000077,323,64465,24,-3,12,67*fd2c0ed0
%RAWIMUSA,2124,291398.628;2124,291398.627755000,00000077,306,64574,94,-2,-4,-56*646c281c
%RAWIMUSA,2124,291398.638;2124,291398.637755000,00000077,350,64627,30,10,-2,62*b0be1b16
%RAWIMUSA,2124,291398.648;2124,291398.647755000,00000077,145,64367,76,4,23,-38*668b56ba
%RAWIMUSA,2124,291398.658;2124,291398.657755000,00000077,358,64601,121,-7,11,3*3d6b1372
%RAWIMUSA,2124,291398.668;2124,291398.667755000,00000077,189,64476,96,6,-4,14*1faa59c2
%RAWIMUSA,2124,291398.678;2124,291398.677755000,00000077,366,64568,77,5,-1,-21*902d6e85
%RAWIMUSA,2124,291398.688;2124,291398.687755000,00000077,238,64403,175,-8,32,69*7fc1958d
%RAWIMUSA,2124,291398.698;2124,291398.697755000,00000077,324,64588,138,25,-6,-71*c14647e1
%RAWIMUSA,2124,291398.708;2124,291398.707755000,00000077,308,64589,48,3,-1,62*f703de9e
%RAWIMUSA,2124,291398.718;2124,291398.717755000,00000077,227,64470,86,0,-1,-29*d0916200
%RAWIMUSA,2124,291398.728;2124,291398.727755000,00000077,392,64636,151,1,5,39*97734b8d
%RAWIMUSA,2124,291398.738;2124,291398.737755000,00000077,257,64380,150,1,-3,0*0ca60ca8
%RAWIMUSA,2124,291398.748;2124,291398.747755000,00000077,424,64576,34,-2,-1,-27*3cfa2f67
%RAWIMUSA,2124,291398.758;2124,291398.757755000,00000077,183,64449,159,-17,-3,53*8929d75c
%RAWIMUSA,2124,291398.768;2124,291398.767755000,00000077,259,64652,162,-1,-23,-46*22a4c5ab
%RAWIMUSA,2124,291398.778;2124,291398.777755000,00000077,256,64641,38,-8,9,69*654855ab
%RAWIMUSA,2124,291398.788;2124,291398.787755000,00000077,212,64474,134,3,4,-36*85d014fb
%RAWIMUSA,2124,291398.798;2124,291398.797755000,00000077,259,64625,128,13,8,56*48693239
%RAWIMUSA,2124,291398.808;2124,291398.807755000,00000077,239,64362,63,8,0,-11*ca8bb99d
%RAWIMUSA,2124,291398.818;2124,291398.817755000,00000077,378,64644,100,5,-4,5*9f6ed600
%RAWIMUSA,2124,291398.828;2124,291398.827755000,00000077,224,64461,50,-2,8,17*73f002fa
%RAWIMUSA,2124,291398.838;2124,291398.837755000,00000077,318,64525,90,0,0,-14*bcecdd79
%RAWIMUSA,2124,291398.848;2124,291398.847755000,00000077,221,64356,18,-10,12,60*809980a1
%RAWIMUSA,2124,291398.858;2124,291398.857755000,00000077,364,64547,112,2,-1,-55*31c9b699
%RAWIMUSA,2124,291398.868;2124,291398.867755000,00000077,259,64563,107,10,1,59*624c44ce
%RAWIMUSA,2124,291398.878;2124,291398.877755000,00000077,279,64371,92,-4,-7,-39*aca7b84d
%RAWIMUSA,2124,291398.888;2124,291398.887755000,00000077,458,64634,27,0,-8,63*70b5e734
%RAWIMUSA,2124,291398.898;2124,291398.897755000,00000077,292,64360,77,0,8,-3*f8692a29
%RAWIMUSA,2124,291398.908;2124,291398.907755000,00000077,331,64770,89,5,5,-8*244a8f78
%RAWIMUSA,2124,291398.918;2124,291398.917755000,00000077,216,64452,73,6,8,31*b6410a37
%RAWIMUSA,2124,291398.928;2124,291398.927755000,00000077,295,64663,133,2,10,-45*2adb2e10
%RAWIMUSA,2124,291398.938;2124,291398.937755000,00000077,313,64547,169,3,4,74*0022df6b
%RAWIMUSA,2124,291398.948;2124,291398.947755000,00000077,161,64425,110,5,-7,-64*c6d9a24c
%RAWIMUSA,2124,291398.958;2124,291398.957755000,00000077,317,64747,70,16,17,73*56cc2466
%RAWIMUSA,2124,291398.968;2124,291398.967755000,00000077,230,64356,197,6,7,-19*5402d62a
%RAWIMUSA,2124,291398.978;2124,291398.977755000,00000077,316,64739,159,3,18,1*00f20cba
%RAWIMUSA,2124,291398.988;2124,291398.987755000,00000077,187,64379,157,25,32,42*bbbbb788
%RAWIMUSA,2124,291398.998;2124,291398.997755000,00000077,321,64605,83,6,1,-43*8585584c
%RAWIMUSA,2124,291399.008;2124,291399.007755000,00000077,290,64539,140,1,4,74*6fd7aaa1
%RAWIMUSA,2124,291399.018;2124,291399.017755000,00000077,340,64500,158,0,-4,-52*a7af9d5e
%RAWIMUSA,2124,291399.028;2124,291399.027755000,00000077,355,64576,42,7,-2,59*4fbf9ce1
%RAWIMUSA,2124,291399.038;2124,291399.037755000,00000077,199,64433,107,-4,-17,-35*46782bf3
%RAWIMUSA,2124,291399.048;2124,291399.047755000,00000077,395,64749,49,-2,1,26*97477d50
%RAWIMUSA,2124,291399.058;2124,291399.057755000,00000077,183,64334,168,2,0,7*92391446
%RAWIMUSA,2124,291399.068;2124,291399.067755000,00000077,357,64660,45,7,5,-31*84f321ea
%RAWIMUSA,2124,291399.078;2124,291399.077755000,00000077,291,64513,44,2,-2,75*3256bf48
%RAWIMUSA,2124,291399.088;2124,291399.087755000,00000077,290,64528,-3,7,-1,-62*f060d07f
%RAWIMUSA,2124,291399.098;2124,291399.097755000,00000077,313,64534,93,9,0,64*a61fd0b1
%RAWIMUSA,2124,291399.108;2124,291399.107755000,00000077,169,64382,164,6,-10,-45*c35b3704
%RAWIMUSA,2124,291399.118;2124,291399.117755000,00000077,277,64690,102,-13,-2,59*0c77ede1
%RAWIMUSA,2124,291399.128;2124,291399.127755000,00000077,331,64324,116,-4,-5,-16*ff36b2e9
%RAWIMUSA,2124,291399.138;2124,291399.137755000,00000077,254,64583,138,7,11,8*48b9aac7
%RAWIMUSA,2124,291399.148;2124,291399.147755000,00000077,179,64382,131,6,1,31*6523c677
%RAWIMUSA,2124,291399.158;2124,291399.157755000,00000077,339,64599,156,0,5,-37*3387d860
%RAWIMUSA,2124,291399.168;2124,291399.167755000,00000077,337,64527,101,11,18,56*25a52458
%RAWIMUSA,2124,291399.178;2124,291399.177755000,00000077,287,64643,85,0,4,-46*1204f511
%RAWIMUSA,2124,291399.188;2124,291399.187755000,00000077,188,64513,80,-7,13,68*50c44eaf
%RAWIMUSA,2124,291399.198;2124,291399.197755000,00000077,209,64402,104,7,0,-25*7af1a281
%RAWIMUSA,2124,291399.208;2124,291399.207755000,00000077,407,64629,103,10,6,48*c496682b
%RAWIMUSA,2124,291399.218;2124,291399.217755000,00000077,163,64402,100,-7,0,4*7a677bd6
%RAWIMUSA,2124,291399.228;2124,291399.227755000,00000077,300,64716,138,11,5,-8*f73bcfc1
%RAWIMUSA,2124,291399.238;2124,291399.237755000,00000077,231,64501,134,-1,18,38*dd6568d7
%RAWIMUSA,2124,291399.248;2124,291399.247755000,00000077,324,64696,83,8,7,-58*3c107d22
%RAWIMUSA,2124,291399.258;2124,291399.257755000,00000077,177,64579,61,7,-4,66*ee313544
%RAWIMUSA,2124,291399.268;2124,291399.267755000,00000077,197,64631,72,10,9,-49*8dce2aee
%RAWIMUSA,2124,291399.278;2124,291399.277755000,00000077,248,64648,163,-1,-2,73*4d911079
%RAWIMUSA,2124,291399.288;2124,291399.287755000,00000077,255,64396,132,-10,-1,-19*f98e8ad3
%RAWIMUSA,2124,291399.298;2124,291399.297755000,00000077,367,64682,205,4,-7,21*c41fc456
%RAWIMUSA,2124,291399.308;2124,291399.307755000,00000077,193,64346,204,10,4,11*55a42122
%RAWIMUSA,2124,291399.318;2124,291399.317755000,00000077,303,64617,85,-3,0,1*368eca34
%RAWIMUSA,2124,291399.328;2124,291399.327755000,00000077,214,64442,67,9,4,37*2ab41382
%RAWIMUSA,2124,291399.338;2124,291399.337755000,00000077,302,64536,142,7,0,-53*235c79cd
%RAWIMUSA,2124,291399.348;2124,291399.347755000,00000077,350,64557,-63,2,-5,55*3d68298f
%RAWIMUSA,2124,291399.358;2124,291399.357755000,00000077,327,64452,85,3,9,-51*f9122131
%RAWIMUSA,2124,291399.368;2124,291399.367755000,00000077,357,64655,121,6,11,42*05d1bf51
%RAWIMUSA,2124,291399.378;2124,291399.377755000,00000077,118,64400,85,11,1,-29*35d91638
%RAWIMUSA,2124,291399.388;2124,291399.387755000,00000077,323,64688,69,-1,8,-2*c8774cfb
%RAWIMUSA,2124,291399.398;2124,291399.397755000,00000077,240,64443,3,-7,1,34*60ade543
%RAWIMUSA,2124,291399.408;2124,291399.407755000,00000077,371,64571,128,1,-11,-34*be09d28b
%RAWIMUSA,2124,291399.418;2124,291399.417755000,00000077,297,64568,129,-1,7,57*a03c39ac
%RAWIMUSA,2124,291399.428;2124,291399.427755000,00000077,358,64518,144,-7,2,-58*aa049250
%RAWIMUSA,2124,291399.438;2124,291399.437755000,00000077,221,64538,113,0,9,70*6dc958d6
%RAWIMUSA,2124,291399.448;2124,291399.447755000,00000077,274,64445,124,3,-2,-28*d88cf8a9
%RAWIMUSA,2124,291399.458;2124,291399.457755000,00000077,319,64515,117,-1,4,32*6a8ac87b
%RAWIMUSA,2124,291399.468;2124,291399.467755000,00000077,125,64307,54,2,6,16*857d73c1
%RAWIMUSA,2124,291399.478;2124,291399.477755000,00000077,421,64673,137,-9,-1,-19*2e927080
%RAWIMUSA,2124,291399.488;2124,291399.487755000,00000077,280,64462,87,0,-4,51*1416e438
%RAWIMUSA,2124,291399.498;2124,291399.497755000,00000077,182,64539,91,-14,7,-47*db202c56
%RAWIMUSA,2124,291399.508;2124,291399.507755000,00000077,251,64521,151,10,-10,64*0a55ebdb
%RAWIMUSA,2124,291399.518;2124,291399.517755000,00000077,222,64455,135,5,-7,-52*0399bbb7
%RAWIMUSA,2124,291399.528;2124,291399.527755000,00000077,278,64516,136,-5,11,56*db36869d
%RAWIMUSA,2124,291399.538;2124,291399.537755000,00000077,158,64428,91,7,-7,-21*f3c122e2
%RAWIMUSA,2124,291399.548;2124,291399.547755000,00000077,358,64654,187,12,-14,22*f4afaabd
%RAWIMUSA,2124,291399.558;2124,291399.557755000,00000077,241,64356,15,-6,10,15*6933a6b4
%RAWIMUSA,2124,291399.568;2124,291399.567755000,00000077,295,64528,89,4,1,-36*1d883e83
%RAWIMUSA,2124,291399.578;2124,291399.577755000,00000077,208,64499,133,-7,1,51*4bc4181e
%RAWIMUSA,2124,291399.588;2124,291399.587755000,00000077,275,64583,129,-1,2,-58*70dcf1e8
%RAWIMUSA,2124,291399.598;2124,291399.597755000,00000077,371,64603,122,10,-2,45*3c145487
%RAWIMUSA,2124,291399.608;2124,291399.607755000,00000077,221,64402,131,15,-3,-40*6ace166b
%RAWIMUSA,2124,291399.618;2124,291399.617755000,00000077,413,64642,153,3,4,32*1d036307
%RAWIMUSA,2124,291399.628;2124,291399.627755000,00000077,144,64418,138,4,-3,22*21c0ed43
%RAWIMUSA,2124,291399.638;2124,291399.637755000,00000077,456,64670,99,-4,1,-6*8db3f325
%RAWIMUSA,2124,291399.648;2124,291399.647755000,00000077,187,64542,120,-10,6,34*db66c9fa
%RAWIMUSA,2124,291399.658;2124,291399.657755000,00000077,320,64610,102,13,7,-45*19a2a2f9
%RAWIMUSA,2124,291399.668;2124,291399.667755000,00000077,273,64567,71,2,9,69*089d4ab1
%RAWIMUSA,2124,291399.678;2124,291399.677755000,00000077,345,64326,105,-9,6,-42*279d52d8
%RAWIMUSA,2124,291399.688;2124,291399.687755000,00000077,230,64631,144,5,-3,57*0a9982ac
%RAWIMUSA,2124,291399.698;2124,291399.697755000,00000077,45,64361,103,6,-5,-9*fc61a3ac
%RAWIMUSA,2124,291399.708;2124,291399.707755000,00000077,416,64673,77,-2,-5,3*50d2d319
%RAWIMUSA,2124,291399.718;2124,291399.717755000,00000077,194,64456,148,-8,2,39*f05d04eb
%RAWIMUSA,2124,291399.728;2124,291399.727755000,00000077,413,64680,140,21,13,-39*cebc9670
%RAWIMUSA,2124,291399.738;2124,291399.737755000,00000077,197,64516,129,0,2,65*4c24ffe9
%RAWIMUSA,2124,291399.748;2124,291399.747755000,00000077,264,64506,6,7,2,-38*5d865d5e
%RAWIMUSA,2124,291399.758;2124,291399.757755000,00000077,287,64634,132,6,0,74*0239eb5a
%RAWIMUSA,2124,291399.768;2124,291399.767755000,00000077,317,64478,140,0,2,-43*098eb3c4
%RAWIMUSA,2124,291399.778;2124,291399.777755000,00000077,327,64684,126,3,1,39*5f348ff4
%RAWIMUSA,2124,291399.788;2124,291399.787755000,00000077,129,64342,82,-3,1,4*c5fb58c6
%RAWIMUSA,2124,291399.798;2124,291399.797755000,00000077,366,64589,71,16,16,7*2bfe5a7d
%RAWIMUSA,2124,291399.808;2124,291399.807755000,00000077,213,64500,76,7,12,29*1294d490
%RAWIMUSA,2124,291399.818;2124,291399.817755000,00000077,314,64606,102,-1,-15,-50*6ae12497
%RAWIMUSA,2124,291399.828;2124,291399.827755000,00000077,204,64455,89,8,21,49*2445433d
%RAWIMUSA,2124,291399.838;2124,291399.837755000,00000077,282,64429,162,1,-2,-51*e725059e
%RAWIMUSA,2124,291399.848;2124,291399.847755000,00000077,233,64553,30,20,0,45*60ffacb3
%RAWIMUSA,2124,291399.858;2124,291399.857755000,00000077,264,64444,79,0,1,-24*e3942d9e
%RAWIMUSA,2124,291399.868;2124,291399.867755000,00000077,331,64610,148,10,13,39*1f32eec5
%RAWIMUSA,2124,291399.878;2124,291399.877755000,00000077,341,64384,126,0,4,34*89bf4c0a
%RAWIMUSA,2124,291399.888;2124,291399.887755000,00000077,414,64581,66,2,10,-34*4fe9fd52
%RAWIMUSA,2124,291399.898;2124,291399.897755000,00000077,279,64388,93,3,26,63*e30b8729
%RAWIMUSA,2124,291399.908;2124,291399.907755000,00000077,282,64506,195,13,27,-56*2cba3dea
%RAWIMUSA,2124,291399.918;2124,291399.917755000,00000077,238,64679,122,12,18,69*e41fbe13
%RAWIMUSA,2124,291399.928;2124,291399.927755000,00000077,288,64483,70,8,12,-28*f648cf49
%RAWIMUSA,2124,291399.938;2124,291399.937755000,00000077,396,64677,21,-4,10,28*d7b37550
%RAWIMUSA,2124,291399.948;2124,291399.947755000,00000077,276,64437,110,-3,-3,-4*88bfba15
%RAWIMUSA,2124,291399.958;2124,291399.957755000,00000077,309,64637,188,4,4,-13*f211cda5
%RAWIMUSA,2124,291399.968;2124,291399.967755000,00000077,138,64509,124,2,11,59*31d59b6b
%RAWIMUSA,2124,291399.978;2124,291399.977755000,00000077,330,64577,134,15,0,-48*3b67a4a3
%RAWIMUSA,2124,291399.988;2124,291399.987755000,00000077,317,64549,170,-3,16,53*a4357592
%RAWIMUSA,2124,291399.998;2124,291399.997755000,00000077,252,64445,136,4,-1,-58*916f56d9
%RAWIMUSA,2124,291400.008;2124,291400.007755000,00000077,211,64614,55,2,-6,42*e97ebcb3
%RAWIMUSA,2124,291400.018;2124,291400.017755000,00000077,222,64421,33,-14,0,-25*2667cb99
%RAWIMUSA,2124,291400.028;2124,291400.027755000,00000077,355,64675,105,-1,-8,1*65379288
%RAWIMUSA,2124,291400.038;2124,291400.037755000,00000077,60,64450,140,-5,-7,41*928dc4b1
%RAWIMUSA,2124,291400.048;2124,291400.047755000,00000077,289,64636,84,-2,5,-29*3dd7a217
%RAWIMUSA,2124,291400.058;2124,291400.057755000,00000077,239,64583,185,-3,-16,44*8a048539
%RAWIMUSA,2124,291400.068;2124,291400.067755000,00000077,227,64563,93,0,15,-56*3ce04f09
%RAWIMUSA,2124,291400.078;2124,291400.077755000,00000077,287,64575,161,3,3,51*f455dc4d
%RAWIMUSA,2124,291400.088;2124,291400.087755000,00000077,186,64447,93,0,-5,-41*ceb7a2c0
%RAWIMUSA,2124,291400.098;2124,291400.097755000,00000077,253,64588,126,3,13,24*22bf0d38
%RAWIMUSA,2124,291400.108;2124,291400.107755000,00000077,130,64394,123,0,6,7*d0f5aa61
%RAWIMUSA,2124,291400.118;2124,291400.117755000,00000077,364,64585,175,1,21,0*a482c173
%RAWIMUSA,2124,291400.128;2124,291400.127755000,00000077,243,64445,51,-1,-1,32*8057aa71
%RAWIMUSA,2124,291400.138;2124,291400.137755000,00000077,330,64679,113,10,-6,-38*cf1436e9
%RAWIMUSA,2124,291400.148;2124,291400.147755000,00000077,231,64483,104,-19,5,59*c71414c7
%RAWIMUSA,2124,291400.158;2124,291400.157755000,00000077,211,64472,123,1,2,-56*f6b4b174
%RAWIMUSA,2124,291400.168;2124,291400.167755000,00000077,409,64550,-38,5,6,53*1f612d23
%RAWIMUSA,2124,291400.178;2124,291400.177755000,00000077,178,64397,118,2,6,-29*319eb9b1
%RAWIMUSA,2124,291400.188;2124,291400.187755000,00000077,488,64566,193,-3,-8,29*395d1c3c
%RAWIMUSA,2124,291400.198;2124,291400.197755000,00000077,167,64385,170,2,21,16*d3a9c321
%RAWIMUSA,2124,291400.208;2124,291400.207755000,00000077,303,64637,42,2,5,-28*c3223307
%RAWIMUSA,2124,291400.218;2124,291400.217755000,00000077,236,64500,115,0,1,48*bf495433
%RAWIMUSA,2124,291400.228;2124,291400.227755000,00000077,317,64599,62,-5,7,-56*1b9b9273
%RAWIMUSA,2124,291400.238;2124,291400.237755000,00000077,204,64519,36,16,-4,52*c6b16631
%RAWIMUSA,2124,291400.248;2124,291400.247755000,00000077,262,64386,91,7,3,-48*3673b975
%RAWIMUSA,2124,291400.258;2124,291400.257755000,00000077,333,64623,123,-5,-8,57*b76cd789
%RAWIMUSA,2124,291400.268;2124,291400.267755000,00000077,254,64451,153,0,3,-15*e7459f0d
%RAWIMUSA,2124,291400.278;2124,291400.277755000,00000077,344,64719,96,4,-1,18*dee897ff
%RAWIMUSA,2124,291400.288;2124,291400.287755000,00000077,291,64382,112,-6,5,9*80ac8818
%RAWIMUSA,2124,291400.298;2124,291400.297755000,00000077,244,64631,128,-11,8,-6*3be7d0dd
%RAWIMUSA,2124,291400.308;2124,291400.307755000,00000077,229,64425,153,-11,12,50*c7651a85
%RAWIMUSA,2124,291400.318;2124,291400.317755000,00000077,238,64505,163,3,6,-52*f86c1f1b
%RAWIMUSA,2124,291400.328;2124,291400.327755000,00000077,279,64603,108,2,9,61*c7c51ac6
%RAWIMUSA,2124,291400.338;2124,291400.337755000,00000077,297,64392,150,14,8,-52*b73b4670
%RAWIMUSA,2124,291400.348;2124,291400.347755000,00000077,396,64691,84,-6,-2,42*f3e118f6
%RAWIMUSA,2124,291400.358;2124,291400.357755000,00000077,168,64333,152,-3,-9,-6*fdfbc242
%RAWIMUSA,2124,291400.368;2124,291400.367755000,00000077,387,64634,156,26,4,-2*e3abfc42
%RAWIMUSA,2124,291400.378;2124,291400.377755000,00000077,273,64397,73,-7,0,42*e8941a92
%RAWIMUSA,2124,291400.388;2124,291400.387755000,00000077,353,64560,85,-13,-12,-51*54cc3c7c
%RAWIMUSA,2124,291400.398;2124,291400.397755000,00000077,295,64488,177,-7,-7,75*e10d1ae7
%RAWIMUSA,2124,291400.408;2124,291400.407755000,00000077,229,64537,94,6,2,-45*e43baa31
%RAWIMUSA,2124,291400.418;2124,291400.417755000,00000077,281,64640,209,6,11,46*f778b8ff
%RAWIMUSA,2124,291400.428;2124,291400.427755000,00000077,224,64355,50,-1,16,-21*b08f9ceb
%RAWIMUSA,2124,291400.438;2124,291400.437755000,00000077,411,64673,138,0,-4,27*54aa8970
%RAWIMUSA,2124,291400.448;2124,291400.447755000,00000077,272,64379,59,-5,3,24*f64cf2fb
%RAWIMUSA,2124,291400.458;2124,291400.457755000,00000077,352,64577,88,-15,4,-43*513aca35
%RAWIMUSA,2124,291400.468;2124,291400.467755000,00000077,167,64518,39,5,-10,40*fa4e8b3e
%RAWIMUSA,2124,291400.478;2124,291400.477755000,00000077,250,64391,160,0,4,-65*e48f7092
%RAWIMUSA,2124,291400.488;2124,291400.487755000,00000077,305,64569,198,4,4,67*0686dda9
%RAWIMUSA,2124,291400.498;2124,291400.497755000,00000077,261,64382,82,0,8,-46*877a073d
%RAWIMUSA,2124,291400.508;2124,291400.507755000,00000077,392,64600,73,-8,-8,16*2ca99a4c
%RAWIMUSA,2124,291400.518;2124,291400.517755000,00000077,225,64449,67,8,12,24*5e68b0a8
%RAWIMUSA,2124,291400.528;2124,291400.527755000,00000077,388,64644,100,0,7,-27*2a2be6d4
%RAWIMUSA,2124,291400.538;2124,291400.537755000,00000077,323,64510,90,-7,4,61*8b51bb67
%RAWIMUSA,2124,291400.548;2124,291400.547755000,00000077,286,64554,87,5,-10,-54*cc7d6d7b
%RAWIMUSA,2124,291400.558;2124,291400.557755000,00000077,181,64614,97,7,1,64*68a07093
%RAWIMUSA,2124,291400.568;2124,291400.567755000,00000077,196,64392,59,2,-1,-55*5812d2b1
%RAWIMUSA,2124,291400.578;2124,291400.577755000,00000077,448,64691,98,5,-12,45*52d8a469
%RAWIMUSA,2124,291400.588;2124,291400.587755000,00000077,193,64408,109,1,10,-5*9c80dd67
%RAWIMUSA,2124,291400.598;2124,291400.597755000,00000077,369,64713,124,0,11,-4*e2895077
%RAWIMUSA,2124,291400.608;2124,291400.607755000,00000077,240,64419,127,5,-5,36*8b4a61a0
%RAWIMUSA,2124,291400.618;2124,291400.617755000,00000077,252,64568,88,16,7,-39*f523e014
%RAWIMUSA,2124,291400.628;2124,291400.627755000,00000077,248,64593,64,-7,-7,73*0489ff70
%RAWIMUSA,2124,291400.638;2124,291400.637755000,00000077,273,64391,161,12,13,-46*eccb00ad
%RAWIMUSA,2124,291400.648;2124,291400.647755000,00000077,255,64667,77,11,1,69*4dcb25db
%RAWIMUSA,2124,291400.658;2124,291400.657755000,00000077,228,64376,139,12,7,-24*ae38168b
%RAWIMUSA,2124,291400.668;2124,291400.667755000,00000077,359,64644,163,5,-4,23*f1393d2d
%RAWIMUSA,2124,291400.678;2124,291400.677755000,00000077,217,64375,141,12,-16,23*a8934b12
%RAWIMUSA,2124,291400.688;2124,291400.687755000,00000077,342,64593,63,-4,15,-14*9366156a
%RAWIMUSA,2124,291400.698;2124,291400.697755000,00000077,315,64427,120,-7,6,52*1e894ffa
%RAWIMUSA,2124,291400.708;2124,291400.707755000,00000077,334,64463,79,5,5,-40*8f889bf3
%RAWIMUSA,2124,291400.718;2124,291400.717755000,00000077,223,64577,243,3,4,78*7dc320d3
%RAWIMUSA,2124,291400.728;2124,291400.727755000,00000077,262,64541,176,0,0,-49*f198dd30
%RAWIMUSA,2124,291400.738;2124,291400.737755000,00000077,412,64690,116,4,-2,45*28e904ac
%RAWIMUSA,2124,291400.748;2124,291400.747755000,00000077,149,64381,157,5,10,-14*14a1a24c
%RAWIMUSA,2124,291400.758;2124,291400.757755000,00000077,353,64639,77,-1,4,0*2afebe2b
%RAWIMUSA,2124,291400.768;2124,291400.767755000,00000077,237,64509,178,4,0,43*86a3b5d1
%RAWIMUSA,2124,291400.778;2124,291400.777755000,00000077,311,64449,96,17,-6,-49*0ac7860e
%RAWIMUSA,2124,291400.788;2124,291400.787755000,00000077,240,64433,58,3,0,68*0fb8497d
%RAWIMUSA,2124,291400.798;2124,291400.797755000,00000077,163,64469,173,2,-4,-53*26a24b48
%RAWIMUSA,2124,291400.808;2124,291400.807755000,00000077,383,64684,80,18,-4,48*6cd1cafd
%RAWIMUSA,2124,291400.818;2124,291400.817755000,00000077,192,64317,58,-8,0,-34*cfbe502d
%RAWIMUSA,2124,291400.828;2124,291400.827755000,00000077,296,64650,19,-6,5,22*76592274
%RAWIMUSA,2124,291400.838;2124,291400.837755000,00000077,219,64402,149,-3,5,22*7f7db803
%RAWIMUSA,2124,291400.848;2124,291400.847755000,00000077,230,64573,73,-9,-1,-30*e8479abb
%RAWIMUSA,2124,291400.858;2124,291400.857755000,00000077,229,64459,81,6,0,74*47059fbc
%RAWIMUSA,2124,291400.868;2124,291400.867755000,00000077,270,64492,143,7,6,-51*fa51d87b
%RAWIMUSA,2124,291400.878;2124,291400.877755000,00000077,329,64592,182,0,2,65*fde69ce3
%RAWIMUSA,2124,291400.888;2124,291400.887755000,00000077,252,64414,102,0,4,-18*09299107
%RAWIMUSA,2124,291400.898;2124,291400.897755000,00000077,280,64735,145,16,-2,23*84bdddbd
%RAWIMUSA,2124,291400.908;2124,291400.907755000,00000077,215,64464,130,9,-3,26*f0d56390
%RAWIMUSA,2124,291400.918;2124,291400.917755000,00000077,221,64541,158,-10,3,-22*9d00a645
%RAWIMUSA,2124,291400.928;2124,291400.927755000,00000077,209,64431,137,11,10,50*32ca55e0
%RAWIMUSA,2124,291400.938;2124,291400.937755000,00000077,254,64515,104,9,6,-50*d3943b67
%RAWIMUSA,2124,291400.948;2124,291400.947755000,00000077,258,64598,70,-5,8,52*07ef7d2f
%RAWIMUSA,2124,291400.958;2124,291400.957755000,00000077,297,64487,123,8,-1,-49*7c4fb09a
%RAWIMUSA,2124,291400.968;2124,291400.967755000,00000077,370,64621,146,13,8,54*d26a2daf
%RAWIMUSA,2124,291400.978;2124,291400.977755000,00000077,242,64448,85,11,0,-17*1365e05e
%RAWIMUSA,2124,291400.988;2124,291400.987755000,00000077,345,64679,123,4,-3,10*9141090f
%RAWIMUSA,2124,291400.998;2124,291400.997755000,00000077,93,64425,183,6,0,38*874a27a7
%RAWIMUSA,2124,291401.008;2124,291401.007755000,00000077,284,64684,62,11,-12,-33*0b64c6eb
%RAWIMUSA,2124,291401.018;2124,291401.017755000,00000077,241,64530,100,0,21,56*15ff6ca2
%RAWIMUSA,2124,291401.028;2124,291401.027755000,00000077,417,64518,95,-9,-6,-60*e2514c06
%RAWIMUSA,2124,291401.038;2124,291401.037755000,00000077,333,64590,106,11,3,53*7b61922b
%RAWIMUSA,2124,291401.048;2124,291401.047755000,00000077,229,64393,105,0,-1,-27*d59dbb2f
%RAWIMUSA,2124,291401.058;2124,291401.057755000,00000077,376,64607,56,-6,23,42*fab03e35
%RAWIMUSA,2124,291401.068;2124,291401.067755000,00000077,217,64354,89,7,-5,13*949f8f4c
%RAWIMUSA,2124,291401.078;2124,291401.077755000,00000077,294,64712,129,-10,0,-11*18bb384f
%RAWIMUSA,2124,291401.088;2124,291401.087755000,00000077,242,64477,63,3,11,49*d0d98287
%RAWIMUSA,2124,291401.098;2124,291401.097755000,00000077,308,64470,129,3,11,-47*43b38991
%RAWIMUSA,2124,291401.108;2124,291401.107755000,00000077,295,64568,181,0,21,64*8bb2859c
%RAWIMUSA,2124,291401.118;2124,291401.117755000,00000077,179,64374,160,11,0,-49*8e20602a
%RAWIMUSA,2124,291401.128;2124,291401.127755000,00000077,333,64739,121,-11,2,43*3fae24fa
%RAWIMUSA,2124,291401.138;2124,291401.137755000,00000077,218,64419,87,-12,4,-6*be8379ff
%RAWIMUSA,2124,291401.148;2124,291401.147755000,00000077,381,64668,93,-5,17,-2*43e16574
%RAWIMUSA,2124,291401.158;2124,291401.157755000,00000077,339,64427,149,0,0,54*08b7ec3d
%RAWIMUSA,2124,291401.168;2124,291401.167755000,00000077,310,64590,115,0,0,-52*b1269563
%RAWIMUSA,2124,291401.178;2124,291401.177755000,00000077,372,64489,56,6,4,69*efea750d
%RAWIMUSA,2124,291401.188;2124,291401.187755000,00000077,155,64453,122,3,14,-38*2fe46957
%RAWIMUSA,2124,291401.198;2124,291401.197755000,00000077,366,64718,114,-2,-9,65*f609770a
%RAWIMUSA,2124,291401.208;2124,291401.207755000,00000077,218,64353,67,3,-13,-25*8a1720d4
%RAWIMUSA,2124,291401.218;2124,291401.217755000,00000077,419,64655,201,-3,1,2*414cb6e8
%RAWIMUSA,2124,291401.228;2124,291401.227755000,00000077,113,64437,175,8,15,35*622f225f
%RAWIMUSA,2124,291401.238;2124,291401.237755000,00000077,349,64642,141,-9,0,-27*225b2182
%RAWIMUSA,2124,291401.248;2124,291401.247755000,00000077,252,64385,51,6,14,75*157e2d8a
%RAWIMUSA,2124,291401.258;2124,291401.257755000,00000077,284,64578,140,15,-6,-59*0dadf2b9
%RAWIMUSA,2124,291401.268;2124,291401.267755000,00000077,324,64659,140,-3,-3,54*8cc2c23f
%RAWIMUSA,2124,291401.278;2124,291401.277755000,00000077,326,64383,142,-1,22,-40*d93d9aa2
%RAWIMUSA,2124,291401.288;2124,291401.287755000,00000077,420,64606,139,-2,11,49*57d3c1f7
%RAWIMUSA,2124,291401.298;2124,291401.297755000,00000077,174,64380,134,1,5,3*2d11f722
%RAWIMUSA,2124,291401.308;2124,291401.307755000,00000077,340,64708,67,9,-4,-23*7e1ac359
%RAWIMUSA,2124,291401.318;2124,291401.317755000,00000077,358,64527,144,-1,-10,44*52c789e1
%RAWIMUSA,2124,291401.328;2124,291401.327755000,00000077,347,64633,159,5,13,-28*5f77371b
%RAWIMUSA,2124,291401.338;2124,291401.337755000,00000077,274,64552,104,12,-8,46*80c54a57
%RAWIMUSA,2124,291401.348;2124,291401.347755000,00000077,204,64532,89,0,3,-40*ba8f446f
%RAWIMUSA,2124,291401.358;2124,291401.357755000,00000077,319,64589,69,7,12,75*aa3acfe9
%RAWIMUSA,2124,291401.368;2124,291401.367755000,00000077,207,64451,101,-5,2,-14*276c56f7
%RAWIMUSA,2124,291401.378;2124,291401.377755000,00000077,339,64703,21,2,19,23*efe163e4
%RAWIMUSA,2124,291401.388;2124,291401.387755000,00000077,213,64388,119,0,8,27*cdde24dc
%RAWIMUSA,2124,291401.398;2124,291401.397755000,00000077,360,64671,124,2,13,-33*f3f4d56e
%RAWIMUSA,2124,291401.408;2124,291401.407755000,00000077,389,64513,41,8,5,59*fce947fd
%RAWIMUSA,2124,291401.418;2124,291401.417755000,00000077,235,64498,41,5,-1,-47*dc73fe3a
%RAWIMUSA,2124,291401.428;2124,291401.427755000,00000077,312,64565,42,-3,26,58*3044631b
%RAWIMUSA,2124,291401.438;2124,291401.437755000,00000077,222,64381,93,-15,19,-33*4dd9764b
%RAWIMUSA,2124,291401.448;2124,291401.447755000,00000077,380,64694,74,-12,7,44*db034dab
%RAWIMUSA,2124,291401.458;2124,291401.457755000,00000077,268,64437,108,15,-2,15*36e68bcd
%RAWIMUSA,2124,291401.468;2124,291401.467755000,00000077,307,64598,158,4,-7,-30*e139bd41
%RAWIMUSA,2124,291401.478;2124,291401.477755000,00000077,192,64503,67,11,12,50*d07a5ede
%RAWIMUSA,2124,291401.488;2124,291401.487755000,00000077,283,64519,162,-3,-2,-36*fc993e34
%RAWIMUSA,2124,291401.498;2124,291401.497755000,00000077,307,64604,64,11,2,68*359bb65c
%RAWIMUSA,2124,291401.508;2124,291401.507755000,00000077,214,64550,27,3,15,-45*9a571ee0
%RAWIMUSA,2124,291401.518;2124,291401.517755000,00000077,337,64651,102,8,0,52*53714c95
%RAWIMUSA,2124,291401.528;2124,291401.527755000,00000077,321,64346,60,18,7,-18*1754dba3
%RAWIMUSA,2124,291401.538;2124,291401.537755000,00000077,373,64606,71,10,3,15*6a9ea533
%RAWIMUSA,2124,291401.548;2124,291401.547755000,00000077,179,64329,193,5,3,11*746aaa35
%RAWIMUSA,2124,291401.558;2124,291401.557755000,00000077,357,64589,93,-2,-13,-22*2bad5552
%RAWIMUSA,2124,291401.568;2124,291401.567755000,00000077,155,64430,91,-4,4,62*d1ded44d
%RAWIMUSA,2124,291401.578;2124,291401.577755000,00000077,240,64563,136,10,0,-57*f3d07f32
%RAWIMUSA,2124,291401.588;2124,291401.587755000,00000077,289,64617,167,-17,10,55*66b140e1
%RAWIMUSA,2124,291401.598;2124,291401.597755000,00000077,320,64443,132,0,9,-47*0117ed38
%RAWIMUSA,2124,291401.608;2124,291401.607755000,00000077,306,64778,-2,12,3,57*f925601e
%RAWIMUSA,2124,291401.618;2124,291401.617755000,00000077,157,64334,152,5,-5,-18*51595405
%RAWIMUSA,2124,291401.628;2124,291401.627755000,00000077,339,64573,103,-2,-2,5*bcc862ea
%RAWIMUSA,2124,291401.638;2124,291401.637755000,00000077,230,64379,75,-6,15,23*427369f1
%RAWIMUSA,2124,291401.648;2124,291401.647755000,00000077,383,64634,106,9,-4,-22*2ee32290
%RAWIMUSA,2124,291401.658;2124,291401.657755000,00000077,204,64462,84,5,-2,61*3bc1e7de
%RAWIMUSA,2124,291401.668;2124,291401.667755000,00000077,292,64591,104,18,-6,-52*d6ee16a7
%RAWIMUSA,2124,291401.678;2124,291401.677755000,00000077,248,64499,54,0,4,69*fd5bfe4f
%RAWIMUSA,2124,291401.688;2124,291401.687755000,00000077,246,64458,95,-8,8,-23*ddb096ca
%RAWIMUSA,2124,291401.698;2124,291401.697755000,00000077,309,64615,146,2,6,54*915371c8
%RAWIMUSA,2124,291401.708;2124,291401.707755000,00000077,195,64433,87,-4,-3,-19*a9f05d44
%RAWIMUSA,2124,291401.718;2124,291401.717755000,00000077,354,64567,169,-15,3,17*ef4d6f32
%RAWIMUSA,2124,291401.728;2124,291401.727755000,00000077,286,64435,113,9,19,22*be85e189
%RAWIMUSA,2124,291401.738;2124,291401.737755000,00000077,334,64749,59,-14,1,-48*24e8f038
%RAWIMUSA,2124,291401.748;2124,291401.747755000,00000077,265,64468,36,-10,1,65*92be3ff9
%RAWIMUSA,2124,291401.758;2124,291401.757755000,00000077,286,64457,91,12,11,-64*4f06ad9e
%RAWIMUSA,2124,291401.768;2124,291401.767755000,00000077,265,64609,202,5,4,63*59bfd884
%RAWIMUSA,2124,291401.778;2124,291401.777755000,00000077,197,64474,72,13,13,-45*657e9dd8
%RAWIMUSA,2124,291401.788;2124,291401.787755000,00000077,286,64746,51,8,12,19*1576f126
%RAWIMUSA,2124,291401.798;2124,291401.797755000,00000077,244,64341,145,10,3,18*aea7229d
%RAWIMUSA,2124,291401.808;2124,291401.807755000,00000077,349,64576,110,-3,-8,-29*68c1cb1b
%RAWIMUSA,2124,291401.818;2124,291401.817755000,00000077,281,64496,34,5,3,63*0018559b
%RAWIMUSA,2124,291401.828;2124,291401.827755000,00000077,273,64444,83,9,13,-41*19646edf
%RAWIMUSA,2124,291401.838;2124,291401.837755000,00000077,188,64522,105,-14,9,75*b2440d77
%RAWIMUSA,2124,291401.848;2124,291401.847755000,00000077,220,64409,115,6,-10,-36*f045fbb6
%RAWIMUSA,2124,291401.858;2124,291401.857755000,00000077,363,64672,211,9,-1,45*3533088d
%RAWIMUSA,2124,291401.868;2124,291401.867755000,00000077,262,64400,70,6,-6,0*7f9a122e
%RAWIMUSA,2124,291401.878;2124,291401.877755000,00000077,358,64651,139,-15,-4,-6*9c6a2845
%RAWIMUSA,2124,291401.888;2124,291401.887755000,00000077,397,64467,188,-1,5,41*0fe62b1a
%RAWIMUSA,2124,291401.898;2124,291401.897755000,00000077,377,64510,81,-1,4,-48*7ba65822
%RAWIMUSA,2124,291401.908;2124,291401.907755000,00000077,237,64548,41,-2,13,65*cef0496d
%RAWIMUSA,2124,291401.918;2124,291401.917755000,00000077,335,64381,147,-19,10,-53*0221ea43
%RAWIMUSA,2124,291401.928;2124,291401.927755000,00000077,395,64632,22,-5,-7,62*97428c68
%RAWIMUSA,2124,291401.938;2124,291401.937755000,00000077,188,64417,186,8,-9,-11*a102a794
%RAWIMUSA,2124,291401.948;2124,291401.947755000,00000077,346,64659,115,8,-4,-6*4e2585b5
%RAWIMUSA,2124,291401.958;2124,291401.957755000,00000077,182,64426,160,5,1,40*1bf5c7f5
%RAWIMUSA,2124,291401.968;2124,291401.967755000,00000077,307,64691,118,1,-6,-45*f0518a92
%RAWIMUSA,2124,291401.978;2124,291401.977755000,00000077,257,64598,114,-4,13,83*0f1e7d64
%RAWIMUSA,2124,291401.988;2124,291401.987755000,00000077,278,64458,-34,16,5,-68*5849f0b1
%RAWIMUSA,2124,291401.998;2124,291401.997755000,00000077,292,64624,80,-9,7,33*0f0c99aa
%RAWIMUSA,2124,291402.008;2124,291402.007755000,00000077,203,64413,101,0,-12,-25*7282b1a2
%RAWIMUSA,2124,291402.018;2124,291402.017755000,00000077,317,64674,143,0,-8,26*f3f665a3
%RAWIMUSA,2124,291402.028;2124,291402.027755000,00000077,257,64489,84,12,-14,20*ba3a5264
%RAWIMUSA,2124,291402.038;2124,291402.037755000,00000077,308,64627,104,8,3,-15*d85ab94b
%RAWIMUSA,2124,291402.048;2124,291402.047755000,00000077,150,64559,20,-3,8,52*0a4eb11c
%RAWIMUSA,2124,291402.058;2124,291402.057755000,00000077,380,64553,135,0,8,-55*947858b6
%RAWIMUSA,2124,291402.068;2124,291402.067755000,00000077,324,64564,70,11,-2,63*07ea1199
%RAWIMUSA,2124,291402.078;2124,291402.077755000,00000077,220,64494,26,-8,0,-48*bce85752
%RAWIMUSA,2124,291402.088;2124,291402.087755000,00000077,298,64669,128,3,-7,53*0f9dd0a3
%RAWIMUSA,2124,291402.098;2124,291402.097755000,00000077,189,64445,88,11,3,-24*1c9385ec
%RAWIMUSA,2124,291402.108;2124,291402.107755000,00000077,262,64699,190,4,-6,1*779f056f
%RAWIMUSA,2124,291402.118;2124,291402.117755000,00000077,236,64409,90,9,-1,17*c6790a8e
%RAWIMUSA,2124,291402.128;2124,291402.127755000,00000077,333,64486,206,-2,-9,-34*84604835
%RAWIMUSA,2124,291402.138;2124,291402.137755000,00000077,287,64476,173,-11,5,76*bea43295
%RAWIMUSA,2124,291402.148;2124,291402.147755000,00000077,308,64585,117,9,-10,-47*4df4e8da
%RAWIMUSA,2124,291402.158;2124,291402.157755000,00000077,254,64627,67,0,0,63*251f32f1
%RAWIMUSA,2124,291402.168;2124,291402.167755000,00000077,231,64374,178,14,11,-39*a454edd3
%RAWIMUSA,2124,291402.178;2124,291402.177755000,00000077,379,64702,105,0,15,36*a9741ebd
%RAWIMUSA,2124,291402.188;2124,291402.187755000,00000077,258,64366,64,-2,-3,-7*cf4db1e2
%RAWIMUSA,2124,291402.198;2124,291402.197755000,00000077,315,64648,123,10,9,-7*e1037e66
%RAWIMUSA,2124,291402.208;2124,291402.207755000,00000077,176,64386,77,1,6,27*04149e90
%RAWIMUSA,2124,291402.218;2124,291402.217755000,00000077,232,64641,121,1,-6,-37*75f527cc
%RAWIMUSA,2124,291402.228;2124,291402.227755000,00000077,291,64371,121,-1,-2,52*1a08e45d
%RAWIMUSA,2124,291402.238;2124,291402.237755000,00000077,278,64519,91,20,-2,-35*5945d651
%RAWIMUSA,2124,291402.248;2124,291402.247755000,00000077,282,64532,79,-1,8,74*436d1668
%RAWIMUSA,2124,291402.258;2124,291402.257755000,00000077,185,64419,116,6,18,-38*f8ee3ba6
%RAWIMUSA,2124,291402.268;2124,291402.267755000,00000077,320,64609,83,-20,5,43*7a6598fc
%RAWIMUSA,2124,291402.278;2124,291402.277755000,00000077,139,64423,4,2,12,-24*91e6de08
%RAWIMUSA,2124,291402.288;2124,291402.287755000,00000077,352,64636,134,4,27,13*69e8a868
%RAWIMUSA,2124,291402.298;2124,291402.297755000,00000077,258,64481,119,-4,-8,30*e9f28ba6
%RAWIMUSA,2124,291402.308;2124,291402.307755000,00000077,353,64497,103,-9,0,-30*a894ef57
%RAWIMUSA,2124,291402.318;2124,291402.317755000,00000077,256,64560,137,-1,0,50*ed6c7cc7
%RAWIMUSA,2124,291402.328;2124,291402.327755000,00000077,311,64480,9,4,21,-56*9b677e73
%RAWIMUSA,2124,291402.338;2124,291402.337755000,00000077,286,64586,113,1,-3,65*dbebc699
%RAWIMUSA,2124,291402.348;2124,291402.347755000,00000077,234,64371,194,4,10,-36*7ff08712
%RAWIMUSA,2124,291402.358;2124,291402.357755000,00000077,415,64605,47,0,3,45*a4a7eccf
%RAWIMUSA,2124,291402.368;2124,291402.367755000,00000077,210,64418,86,4,21,1*bc8bea4a
%RAWIMUSA,2124,291402.378;2124,291402.377755000,00000077,489,64630,225,4,-2,-9*b2795486
%RAWIMUSA,2124,291402.388;2124,291402.387755000,00000077,202,64476,101,23,20,23*559ecccf
%RAWIMUSA,2124,291402.398;2124,291402.397755000,00000077,366,64578,66,17,2,-47*f1d9b287
%RAWIMUSA,2124,291402.408;2124,291402.407755000,00000077,374,64539,27,8,-7,58*0dd5c89a
%RAWIMUSA,2124,291402.418;2124,291402.417755000,00000077,258,64487,136,-9,11,-62*f5ebb920
%RAWIMUSA,2124,291402.428;2124,291402.427755000,00000077,319,64553,146,0,15,58*4cb54220
%RAWIMUSA,2124,291402.438;2124,291402.437755000,00000077,261,64361,114,12,15,-29*cbad7370
%RAWIMUSA,2124,291402.448;2124,291402.447755000,00000077,393,64641,60,0,4,29*e723c286
%RAWIMUSA,2124,291402.458;2124,291402.457755000,00000077,124,64462,136,1,0,-2*6c28c43a
%RAWIMUSA,2124,291402.468;2124,291402.467755000,00000077,300,64760,58,12,-16,-13*124a527a
%RAWIMUSA,2124,291402.478;2124,291402.477755000,00000077,190,64442,39,8,-1,56*3ed35fff
%RAWIMUSA,2124,291402.488;2124,291402.487755000,00000077,268,64620,5,1,-5,-45*e761d826
%RAWIMUSA,2124,291402.498;2124,291402.497755000,00000077,284,64542,223,-9,4,70*ac1167ce
%RAWIMUSA,2124,291402.508;2124,291402.507755000,00000077,300,64450,136,3,1,-52*875639a7
%RAWIMUSA,2124,291402.518;2124,291402.517755000,00000077,318,64657,65,11,0,47*7d3c9ec5
%RAWIMUSA,2124,291402.528;2124,291402.527755000,00000077,187,64326,5,0,0,-7*592b038c
%RAWIMUSA,2124,291402.538;2124,291402.537755000,00000077,424,64646,106,-16,-12,-5*87ace147
%RAWIMUSA,2124,291402.548;2124,291402.547755000,00000077,226,64255,85,-6,0,19*bfc10013
%RAWIMUSA,2124,291402.558;2124,291402.557755000,00000077,326,64630,85,4,-1,-23*07bed763
%RAWIMUSA,2124,291402.568;2124,291402.567755000,00000077,236,64534,113,-4,4,47*e85fe252
%RAWIMUSA,2124,291402.578;2124,291402.577755000,00000077,237,64485,126,0,-1,-61*2b62adb2
%RAWIMUSA,2124,291402.588;2124,291402.587755000,00000077,268,64684,144,-2,2,47*1a6e339e
%RAWIMUSA,2124,291402.598;2124,291402.597755000,00000077,298,64384,46,-2,3,-21*d32b1eb2
%RAWIMUSA,2124,291402.608;2124,291402.607755000,00000077,324,64614,21,7,7,35*d0a29a4c
%RAWIMUSA,2124,291402.618;2124,291402.617755000,00000077,197,64466,132,1,7,12*5486f8f4
%RAWIMUSA,2124,291402.628;2124,291402.627755000,00000077,297,64610,123,10,10,-27*9e4f91e0
%RAWIMUSA,2124,291402.638;2124,291402.637755000,00000077,215,64515,55,4,12,52*90e8070f
%RAWIMUSA,2124,291402.648;2124,291402.647755000,00000077,332,64585,-99,-2,6,-23*8764d943
%RAWIMUSA,2124,291402.658;2124,291402.657755000,00000077,263,64537,209,4,-4,54*bab60902
%RAWIMUSA,2124,291402.668;2124,291402.667755000,00000077,275,64479,123,2,9,-50*c0a8415b
%RAWIMUSA,2124,291402.678;2124,291402.677755000,00000077,247,64609,90,-9,9,48*1524e8e3
%RAWIMUSA,2124,291402.688;2124,291402.687755000,00000077,200,64351,1,-7,5,-14*5086734d
%RAWIMUSA,2124,291402.698;2124,291402.697755000,00000077,276,64672,67,3,1,16*dce17644
%RAWIMUSA,2124,291402.708;2124,291402.707755000,00000077,196,64492,237,-5,4,26*2b1b2d12
%RAWIMUSA,2124,291402.718;2124,291402.717755000,00000077,353,64603,10,10,1,-50*a6bc4d5c
%RAWIMUSA,2124,291402.728;2124,291402.727755000,00000077,294,64452,78,4,3,49*c0ac50d5
%RAWIMUSA,2124,291402.738;2124,291402.737755000,00000077,196,64470,126,-6,2,-57*901ca9fe
%RAWIMUSA,2124,291402.748;2124,291402.747755000,00000077,296,64748,149,-4,5,75*81e48085
%RAWIMUSA,2124,291402.758;2124,291402.757755000,00000077,210,64293,61,2,-5,-31*6e25b025
%RAWIMUSA,2124,291402.768;2124,291402.767755000,00000077,431,64695,33,2,2,20*f893d876
%RAWIMUSA,2124,291402.778;2124,291402.777755000,00000077,168,64408,91,2,18,13*3198451c
%RAWIMUSA,2124,291402.788;2124,291402.787755000,00000077,412,64531,109,13,-1,-5*6e16c7ff
%RAWIMUSA,2124,291402.798;2124,291402.797755000,00000077,237,64435,80,-6,-16,57*99343aad
%RAWIMUSA,2124,291402.808;2124,291402.807755000,00000077,242,64429,39,-4,-9,-54*e5372b0d
%RAWIMUSA,2124,291402.818;2124,291402.817755000,00000077,280,64488,66,2,12,65*8b9597ad
%RAWIMUSA,2124,291402.828;2124,291402.827755000,00000077,293,64451,238,7,-6,-50*758dff44
%RAWIMUSA,2124,291402.838;2124,291402.837755000,00000077,419,64700,92,11,0,37*49f4ae61
%RAWIMUSA,2124,291402.848;2124,291402.847755000,00000077,90,64445,105,-2,19,-10*65581238
%RAWIMUSA,2124,291402.858;2124,291402.857755000,00000077,350,64615,60,3,-1,0*8b9e7292
%RAWIMUSA,2124,291402.868;2124,291402.867755000,00000077,260,64384,111,-10,0,40*1a2b6816
%RAWIMUSA,2124,291402.878;2124,291402.877755000,00000077,385,64538,87,2,8,-43*8030ad0e
%RAWIMUSA,2124,291402.888;2124,291402.887755000,00000077,362,64520,37,13,1,62*cefddf88
%RAWIMUSA,2124,291402.898;2124,291402.897755000,00000077,355,64498,49,5,3,-52*3a9fcd69
%RAWIMUSA,2124,291402.908;2124,291402.907755000,00000077,312,64705,153,21,-3,57*0d2eb637
%RAWIMUSA,2124,291402.918;2124,291402.917755000,00000077,200,64355,54,15,-4,-15*7a6d9412
%RAWIMUSA,2124,291402.928;2124,291402.927755000,00000077,360,64638,65,-10,-4,14*e5364fc8
%RAWIMUSA,2124,291402.938;2124,291402.937755000,00000077,236,64433,137,4,1,34*c7af91d9
%RAWIMUSA,2124,291402.948;2124,291402.947755000,00000077,343,64571,69,12,-18,-37*a083ca50
%RAWIMUSA,2124,291402.958;2124,291402.957755000,00000077,187,64489,151,2,-5,70*2b344d7d
%RAWIMUSA,2124,291402.968;2124,291402.967755000,00000077,240,64455,36,-2,-2,-59*2a41387c
%RAWIMUSA,2124,291402.978;2124,291402.977755000,00000077,366,64622,75,3,23,78*5ffc0dd7
%RAWIMUSA,2124,291402.988;2124,291402.987755000,00000077,196,64375,174,0,-11,-45*5303d201
%RAWIMUSA,2124,291402.998;2124,291402.997755000,00000077,268,64650,70,15,1,15*325cc3e5
%RAWIMUSA,2124,291403.008;2124,291403.007755000,00000077,227,64360,77,4,3,28*43ccf8a9
%RAWIMUSA,2124,291403.018;2124,291403.017755000,00000077,338,64539,141,-4,13,-47*2bbe4ad4
%RAWIMUSA,2124,291403.028;2124,291403.027755000,00000077,248,64407,257,-2,-8,72*ffd364ad
%RAWIMUSA,2124,291403.038;2124,291403.037755000,00000077,296,64356,78,13,13,-50*426537d2
%RAWIMUSA,2124,291403.048;2124,291403.047755000,00000077,404,64657,98,11,-3,65*5680918c
%RAWIMUSA,2124,291403.058;2124,291403.057755000,00000077,140,64396,87,2,18,-29*1f616d4e
%RAWIMUSA,2124,291403.068;2124,291403.067755000,00000077,353,64629,206,-10,-4,34*1926c73c
%RAWIMUSA,2124,291403.078;2124,291403.077755000,00000077,210,64312,91,-12,-1,5*69814607
%RAWIMUSA,2124,291403.088;2124,291403.087755000,00000077,336,64543,114,11,5,-43*69da9dfc
%RAWIMUSA,2124,291403.098;2124,291403.097755000,00000077,252,64506,81,2,5,36*87cf4c44
%RAWIMUSA,2124,291403.108;2124,291403.107755000,00000077,288,64548,189,-8,7,-42*2d40e8d5
%RAWIMUSA,2124,291403.118;2124,291403.117755000,00000077,271,64538,51,0,9,56*44ceac77
%RAWIMUSA,2124,291403.128;2124,291403.127755000,00000077,193,64433,177,6,1,-44*559e8d99
%RAWIMUSA,2124,291403.138;2124,291403.137755000,00000077,406,64652,119,-7,12,39*466e7f2c
%RAWIMUSA,2124,291403.148;2124,291403.147755000,00000077,171,64363,76,9,1,18*09cb8348
%RAWIMUSA,2124,291403.158;2124,291403.157755000,00000077,319,64743,183,15,0,-16*ac609707
%RAWIMUSA,2124,291403.168;2124,291403.167755000,00000077,249,64401,57,0,2,45*9f299b5f
%RAWIMUSA,2124,291403.178;2124,291403.177755000,00000077,284,64489,11,-13,14,-51*6f08aca9
%RAWIMUSA,2124,291403.188;2124,291403.187755000,00000077,342,64597,58,6,4,69*b1b85c7d
%RAWIMUSA,2124,291403.198;2124,291403.197755000,00000077,252,64459,105,3,-1,-24*dd684dd9
%RAWIMUSA,2124,291403.208;2124,291403.207755000,00000077,254,64684,120,1,0,41*3fef52f5
%RAWIMUSA,2124,291403.218;2124,291403.217755000,00000077,259,64384,141,-11,10,-1*b284b86e
%RAWIMUSA,2124,291403.228;2124,291403.227755000,00000077,314,64661,50,17,4,13*d2cc01ad
%RAWIMUSA,2124,291403.238;2124,291403.237755000,00000077,299,64391,196,-5,14,21*95af020c
%RAWIMUSA,2124,291403.248;2124,291403.247755000,00000077,358,64571,120,7,9,-43*3ef6a9e6
%RAWIMUSA,2124,291403.258;2124,291403.257755000,00000077,268,64421,147,0,-3,62*2a660726
%RAWIMUSA,2124,291403.268;2124,291403.267755000,00000077,323,64526,102,-8,-12,-33*22c65766
%RAWIMUSA,2124,291403.278;2124,291403.277755000,00000077,369,64516,80,12,20,58*144def19
%RAWIMUSA,2124,291403.288;2124,291403.287755000,00000077,199,64356,25,1,12,-40*39d17ffd
%RAWIMUSA,2124,291403.298;2124,291403.297755000,00000077,263,64545,151,-8,2,39*d7128702
%RAWIMUSA,2124,291403.308;2124,291403.307755000,00000077,158,64373,83,11,2,13*c87d375a
%RAWIMUSA,2124,291403.318;2124,291403.317755000,00000077,327,64646,168,9,-5,-19*60a57d2a
%RAWIMUSA,2124,291403.328;2124,291403.327755000,00000077,311,64459,87,13,-4,45*825cc270
%RAWIMUSA,2124,291403.338;2124,291403.337755000,00000077,285,64500,42,0,-12,-56*75d19ed0
%RAWIMUSA,2124,291403.348;2124,291403.347755000,00000077,391,64531,47,-9,6,77*46b79ced
%RAWIMUSA,2124,291403.358;2124,291403.357755000,00000077,227,64410,113,1,0,-41*1377db76
%RAWIMUSA,2124,291403.368;2124,291403.367755000,00000077,352,64693,200,-5,2,39*5e6dc39d
%RAWIMUSA,2124,291403.378;2124,291403.377755000,00000077,154,64388,36,12,-6,8*d5d086a8
%RAWIMUSA,2124,291403.388;2124,291403.387755000,00000077,320,64623,48,4,14,-1*bc677ee6
%RAWIMUSA,2124,291403.398;2124,291403.397755000,00000077,234,64448,109,0,-3,41*fd5962af
%RAWIMUSA,2124,291403.408;2124,291403.407755000,00000077,331,64439,88,17,6,-51*5bfe3f58
%RAWIMUSA,2124,291403.418;2124,291403.417755000,00000077,246,64609,70,14,7,76*63b044ef
%RAWIMUSA,2124,291403.428;2124,291403.427755000,00000077,225,64416,103,3,-2,-36*2afa3898
%RAWIMUSA,2124,291403.438;2124,291403.437755000,00000077,342,64540,114,17,-2,46*2e501e6b
%RAWIMUSA,2124,291403.448;2124,291403.447755000,00000077,267,64346,121,1,11,-15*a283e03a
%RAWIMUSA,2124,291403.458;2124,291403.457755000,00000077,463,64641,93,3,0,3*f313c20c
%RAWIMUSA,2124,291403.468;2124,291403.467755000,00000077,276,64378,151,3,3,35*798f989f
%RAWIMUSA,2124,291403.478;2124,291403.477755000,00000077,350,64610,106,3,0,-31*8119943e
%RAWIMUSA,2124,291403.488;2124,291403.487755000,00000077,286,64427,135,0,13,62*a15d50c2
%RAWIMUSA,2124,291403.498;2124,291403.497755000,00000077,219,64477,168,12,3,-37*4355327b
%RAWIMUSA,2124,291403.508;2124,291403.507755000,00000077,326,64646,83,12,9,63*5ef05b18
%RAWIMUSA,2124,291403.518;2124,291403.517755000,00000077,160,64438,128,-7,11,-42*74bde642
%RAWIMUSA,2124,291403.528;2124,291403.527755000,00000077,376,64639,144,6,-8,50*154133ef
%RAWIMUSA,2124,291403.538;2124,291403.537755000,00000077,165,64394,47,7,-13,2*c23a5f29
%RAWIMUSA,2124,291403.548;2124,291403.547755000,00000077,358,64615,97,-12,2,-3*bf9a5c97
%RAWIMUSA,2124,291403.558;2124,291403.557755000,00000077,231,64248,114,0,2,40*668f784e
%RAWIMUSA,2124,291403.568;2124,291403.567755000,00000077,270,64527,85,0,10,-46*6a5cf6b3
%RAWIMUSA,2124,291403.578;2124,291403.577755000,00000077,274,64545,85,-4,-4,53*1e89d9b9
%RAWIMUSA,2124,291403.588;2124,291403.587755000,00000077,239,64451,167,-13,2,-45*6f02451a
%RAWIMUSA,2124,291403.598;2124,291403.597755000,00000077,316,64632,126,6,-5,80*75afef49
%RAWIMUSA,2124,291403.608;2124,291403.607755000,00000077,90,64390,35,10,-7,-23*abac199c
%RAWIMUSA,2124,291403.618;2124,291403.617755000,00000077,371,64668,58,-10,0,14*e4e7cda1
%RAWIMUSA,2124,291403.628;2124,291403.627755000,00000077,251,64366,90,13,13,9*9de9064c
%RAWIMUSA,2124,291403.638;2124,291403.637755000,00000077,358,64577,127,1,-8,-36*22317c84
%RAWIMUSA,2124,291403.648;2124,291403.647755000,00000077,250,64485,93,-3,6,53*6c8867da
%RAWIMUSA,2124,291403.658;2124,291403.657755000,00000077,222,64551,-9,0,-1,-50*3547ef59
%RAWIMUSA,2124,291403.668;2124,291403.667755000,00000077,314,64525,104,-13,7,62*eb29b115
%RAWIMUSA,2124,291403.678;2124,291403.677755000,00000077,147,64534,3,3,-4,-50*f21c4eaf
%RAWIMUSA,2124,291403.688;2124,291403.687755000,00000077,262,64676,129,9,-8,39*1a7618e9
%RAWIMUSA,2124,291403.698;2124,291403.697755000,00000077,302,64343,44,0,-8,0*b1c9936d
%RAWIMUSA,2124,291403.708;2124,291403.707755000,00000077,297,64549,-5,0,15,-3*ff74fa23
%RAWIMUSA,2124,291403.718;2124,291403.717755000,00000077,262,64320,196,-6,-4,23*e8bd10d2
%RAWIMUSA,2124,291403.728;2124,291403.727755000,00000077,316,64503,152,3,-1,-26*70cdfa86
%RAWIMUSA,2124,291403.738;2124,291403.737755000,00000077,264,64536,148,-1,10,46*dc5c8c3b
%RAWIMUSA,2124,291403.748;2124,291403.747755000,00000077,401,64586,121,-2,-4,-33*0d8e0258
%RAWIMUSA,2124,291403.758;2124,291403.757755000,00000077,355,64622,144,-3,4,72*58de58cc
%RAWIMUSA,2124,291403.768;2124,291403.767755000,00000077,276,64495,95,-2,-1,-50*554dbac1
%RAWIMUSA,2124,291403.778;2124,291403.777755000,00000077,381,64629,125,7,-7,56*08feaa5d
%RAWIMUSA,2124,291403.788;2124,291403.787755000,00000077,210,64408,87,-4,6,3*de5c5e5e
%RAWIMUSA,2124,291403.798;2124,291403.797755000,00000077,333,64603,41,-6,0,1*52bdcf3d
%RAWIMUSA,2124,291403.808;2124,291403.807755000,00000077,226,64378,118,-4,-1,20*cd6b76fe
%RAWIMUSA,2124,291403.818;2124,291403.817755000,00000077,280,64646,137,13,3,-26*48c6115a
%RAWIMUSA,2124,291403.828;2124,291403.827755000,00000077,187,64423,50,12,25,74*4fab2b13
%RAWIMUSA,2124,291403.838;2124,291403.837755000,00000077,231,64567,161,16,-11,-39*49295152
%RAWIMUSA,2124,291403.848;2124,291403.847755000,00000077,320,64629,75,3,1,78*ad8a9f84
%RAWIMUSA,2124,291403.858;2124,291403.857755000,00000077,280,64430,76,1,0,-43*4ed09299
%RAWIMUSA,2124,291403.868;2124,291403.867755000,00000077,337,64632,106,-5,-10,49*72a2ac01
%RAWIMUSA,2124,291403.878;2124,291403.877755000,00000077,43,64332,150,6,14,0*1fa5f4b1
%RAWIMUSA,2124,291403.888;2124,291403.887755000,00000077,287,64626,62,0,-2,-8*2683c06a
%RAWIMUSA,2124,291403.898;2124,291403.897755000,00000077,168,64424,51,0,12,53*08338dac
%RAWIMUSA,2124,291403.908;2124,291403.907755000,00000077,261,64560,17,-7,11,-53*1038733f
%RAWIMUSA,2124,291403.918;2124,291403.917755000,00000077,307,64604,80,8,11,69*f68dee85
%RAWIMUSA,2124,291403.928;2124,291403.927755000,00000077,206,64416,122,1,0,-49*a8e4e245
%RAWIMUSA,2124,291403.938;2124,291403.937755000,00000077,332,64613,37,-1,8,44*64d4a1bc
%RAWIMUSA,2124,291403.948;2124,291403.947755000,00000077,164,64405,125,-1,1,14*cdd67ed5
%RAWIMUSA,2124,291403.958;2124,291403.957755000,00000077,312,64591,121,3,5,-13*6b740650
%RAWIMUSA,2124,291403.968;2124,291403.967755000,00000077,226,64439,43,-8,6,67*b4280452
%RAWIMUSA,2124,291403.978;2124,291403.977755000,00000077,227,64576,178,16,17,-46*7a1e4503
%RAWIMUSA,2124,291403.988;2124,291403.987755000,00000077,265,64483,135,2,-5,80*eccbc781
%RAWIMUSA,2124,291403.998;2124,291403.997755000,00000077,354,64463,165,-1,-16,-59*fb40a6b2
%RAWIMUSA,2124,291404.008;2124,291404.007755000,00000077,269,64657,132,-4,-5,44*95ecd1cf
%RAWIMUSA,2124,291404.018;2124,291404.017755000,00000077,181,64325,106,8,-13,-1*0049b14c
%RAWIMUSA,2124,291404.028;2124,291404.027755000,00000077,323,64684,63,6,15,-7*2a9fa728
%RAWIMUSA,2124,291404.038;2124,291404.037755000,00000077,177,64442,142,4,6,37*5094d227
%RAWIMUSA,2124,291404.048;2124,291404.047755000,00000077,302,64538,106,-1,-1,-51*bda15e08
%RAWIMUSA,2124,291404.058;2124,291404.057755000,00000077,289,64514,147,-7,6,62*19d7e83c
%RAWIMUSA,2124,291404.068;2124,291404.067755000,00000077,253,64446,120,2,0,-70*c793c833
