%RAWIMUSA,2124,291731.608;2124,291731.607755000,00000077,391,-63885,-53,6,5,4*ce1f6b46
%RAWIMUSA,2124,291731.618;2124,291731.617755000,00000077,394,-63987,-53,4,10,-7*cecdf386
%RAWIMUSA,2124,291731.628;2124,291731.627755000,00000077,395,-63982,-94,4,6,18*a0623794
%RAWIMUSA,2124,291731.638;2124,291731.637755000,00000077,318,-64011,28,0,-12,0*c587084b
%RAWIMUSA,2124,291731.648;2124,291731.647755000,00000077,495,-64001,12,2,15,8*9920466b
%RAWIMUSA,2124,291731.658;2124,291731.657755000,00000077,347,-63951,-14,1,-5,-3*d26e3fa6
%RAWIMUSA,2124,291731.668;2124,291731.667755000,00000077,265,-63862,-73,15,4,12*c6155758
%RAWIMUSA,2124,291731.678;2124,291731.677755000,00000077,389,-64003,51,5,7,14*aa35db95
%RAWIMUSA,2124,291731.688;2124,291731.687755000,00000077,348,-63945,24,1,8,5*535019e8
%RAWIMUSA,2124,291731.698;2124,291731.697755000,00000077,336,-63876,-24,-14,0,11*bf4dae25
%RAWIMUSA,2124,291731.708;2124,291731.707755000,00000077,314,-63962,-116,-7,12,18*56c64222
%RAWIMUSA,2124,291731.718;2124,291731.717755000,00000077,290,-63961,3,21,5,6*1e9ca3b5
%RAWIMUSA,2124,291731.728;2124,291731.727755000,00000077,346,-63982,-40,9,0,-2*ede627ec
%RAWIMUSA,2124,291731.738;2124,291731.737755000,00000077,330,-63963,-177,14,1,11*cbcdee38
%RAWIMUSA,2124,291731.748;2124,291731.747755000,00000077,277,-63939,-10,4,-14,10*a38763bd
%RAWIMUSA,2124,291731.758;2124,291731.757755000,00000077,293,-63994,-64,2,-3,5*e685673c
%RAWIMUSA,2124,291731.768;2124,291731.767755000,00000077,348,-63927,-80,-9,-12,12*175852c9
%RAWIMUSA,2124,291731.778;2124,291731.777755000,00000077,351,-63999,-100,12,11,14*1dd82884
%RAWIMUSA,2124,291731.788;2124,291731.787755000,00000077,388,-64003,-93,-2,6,29*68a27f55
%RAWIMUSA,2124,291731.798;2124,291731.797755000,00000077,298,-64016,47,-17,9,1*92fa018b
%RAWIMUSA,2124,291731.808;2124,291731.807755000,00000077,296,-64026,-11,-9,5,-3*ad61a2fe
%RAWIMUSA,2124,291731.818;2124,291731.817755000,00000077,343,-63950,-83,5,19,10*bd712144
%RAWIMUSA,2124,291731.828;2124,291731.827755000,00000077,430,-64032,24,-10,7,1*8e211dee
%RAWIMUSA,2124,291731.838;2124,291731.837755000,00000077,305,-64060,24,0,-1,12*1e2f8ffe
%RAWIMUSA,2124,291731.848;2124,291731.847755000,00000077,375,-63904,-64,3,2,8*fb3031d0
%RAWIMUSA,2124,291731.858;2124,291731.857755000,00000077,258,-63936,-16,4,5,12*66ef455c
%RAWIMUSA,2124,291731.868;2124,291731.867755000,00000077,361,-64005,-31,10,-8,9*a77395ce
%RAWIMUSA,2124,291731.878;2124,291731.877755000,00000077,390,-63975,-71,4,10,-5*ccd00266
%RAWIMUSA,2124,291731.888;2124,291731.887755000,00000077,295,-63931,-49,1,-8,22*24273bec
%RAWIMUSA,2124,291731.898;2124,291731.897755000,00000077,476,-63858,52,11,-1,4*8041da27
%RAWIMUSA,2124,291731.908;2124,291731.907755000,00000077,289,-64025,-70,6,4,21*dd265110
%RAWIMUSA,2124,291731.918;2124,291731.917755000,00000077,387,-63934,-38,17,-4,12*165a206f
%RAWIMUSA,2124,291731.928;2124,291731.927755000,00000077,318,-63963,-68,5,-2,7*eae580a1
%RAWIMUSA,2124,291731.938;2124,291731.937755000,00000077,324,-63875,-102,12,-2,6*1584de64
%RAWIMUSA,2124,291731.948;2124,291731.947755000,00000077,428,-63888,-26,1,9,0*01c47b77
%RAWIMUSA,2124,291731.958;2124,291731.957755000,00000077,289,-64152,-29,0,0,14*1bb78ecf
%RAWIMUSA,2124,291731.968;2124,291731.967755000,00000077,346,-64001,-45,4,10,1*cb47641b
%RAWIMUSA,2124,291731.978;2124,291731.977755000,00000077,307,-63949,-88,-1,3,-1*1cd4edb2
%RAWIMUSA,2124,291731.988;2124,291731.987755000,00000077,218,-64016,-60,2,0,11*c23ed909
%RAWIMUSA,2124,291731.998;2124,291731.997755000,00000077,331,-63917,-12,4,-10,10*31c2858a
%RAWIMUSA,2124,291732.008;2124,291732.007755000,00000077,266,-63987,-81,1,22,5*49e354dc
%RAWIMUSA,2124,291732.018;2124,291732.017755000,00000077,340,-63908,-92,2,10,-3*69dec922
%RAWIMUSA,2124,291732.028;2124,291732.027755000,00000077,389,-63918,-8,0,1,15*51ecee33
%RAWIMUSA,2124,291732.038;2124,291732.037755000,00000077,289,-63946,-115,5,-1,14*37b79c65
%RAWIMUSA,2124,291732.048;2124,291732.047755000,00000077,302,-63934,13,4,14,-20*34b37b0c
%RAWIMUSA,2124,291732.058;2124,291732.057755000,00000077,295,-63924,58,15,-11,2*fa0e634e
%RAWIMUSA,2124,291732.068;2124,291732.067755000,00000077,318,-64041,-97,-7,18,10*b205af66
%RAWIMUSA,2124,291732.078;2124,291732.077755000,00000077,278,-63982,17,12,-11,-1*5184ed48
%RAWIMUSA,2124,291732.088;2124,291732.087755000,00000077,417,-64001,22,1,2,2*00d37b64
%RAWIMUSA,2124,291732.098;2124,291732.097755000,00000077,405,-63946,-24,-2,-14,9*635dcc23
%RAWIMUSA,2124,291732.108;2124,291732.107755000,00000077,333,-63890,-16,5,11,14*eb61b6cd
%RAWIMUSA,2124,291732.118;2124,291732.117755000,00000077,290,-64029,21,2,0,3*0d380f4e
%RAWIMUSA,2124,291732.128;2124,291732.127755000,00000077,399,-64029,-49,-4,-6,-4*5ab6bf0a
%RAWIMUSA,2124,291732.138;2124,291732.137755000,00000077,389,-63985,-5,-5,5,16*a136dd45
%RAWIMUSA,2124,291732.148;2124,291732.147755000,00000077,402,-63975,13,-1,-7,11*0858bb53
%RAWIMUSA,2124,291732.158;2124,291732.157755000,00000077,278,-63998,-73,-2,19,7*e5a2431c
%RAWIMUSA,2124,291732.168;2124,291732.167755000,00000077,283,-63914,-92,4,6,3*67baf874
%RAWIMUSA,2124,291732.178;2124,291732.177755000,00000077,394,-64006,-56,-4,12,21*2f18e2e5
%RAWIMUSA,2124,291732.188;2124,291732.187755000,00000077,321,-63904,-105,-6,2,5*58ceca36
%RAWIMUSA,2124,291732.198;2124,291732.197755000,00000077,222,-64055,-38,8,6,-2*d87a254e
%RAWIMUSA,2124,291732.208;2124,291732.207755000,00000077,444,-63928,-82,-2,18,16*17179e12
%RAWIMUSA,2124,291732.218;2124,291732.217755000,00000077,419,-64033,-34,8,-9,18*3a456ccb
%RAWIMUSA,2124,291732.228;2124,291732.227755000,00000077,312,-63993,-8,23,10,15*1a365d4a
%RAWIMUSA,2124,291732.238;2124,291732.237755000,00000077,260,-63976,-63,10,-4,10*f3441e2d
%RAWIMUSA,2124,291732.248;2124,291732.247755000,00000077,298,-63955,6,-11,-2,9*df2c96a4
%RAWIMUSA,2124,291732.258;2124,291732.257755000,00000077,258,-63973,-54,-2,-10,0*3f4ade24
%RAWIMUSA,2124,291732.268;2124,291732.267755000,00000077,398,-63919,1,12,-1,26*6ed11a39
%RAWIMUSA,2124,291732.278;2124,291732.277755000,00000077,322,-64045,-6,-16,12,8*d0919b4b
%RAWIMUSA,2124,291732.288;2124,291732.287755000,00000077,241,-63984,-45,3,9,14*b48cbed4
%RAWIMUSA,2124,291732.298;2124,291732.297755000,00000077,363,-64004,-23,1,-6,15*ce4e67e6
%RAWIMUSA,2124,291732.308;2124,291732.307755000,00000077,248,-63833,-98,3,2,0*ad7a37d4
%RAWIMUSA,2124,291732.318;2124,291732.317755000,00000077,370,-63930,-32,0,7,10*b4bc2133
%RAWIMUSA,2124,291732.328;2124,291732.327755000,00000077,351,-63975,95,5,-3,5*289d0645
%RAWIMUSA,2124,291732.338;2124,291732.337755000,00000077,390,-63958,-97,9,4,25*618b6f95
%RAWIMUSA,2124,291732.348;2124,291732.347755000,00000077,288,-63965,-2,2,6,10*7ef28a58
%RAWIMUSA,2124,291732.358;2124,291732.357755000,00000077,339,-63992,-2,14,-2,1*d988a6e2
%RAWIMUSA,2124,291732.368;2124,291732.367755000,00000077,391,-63951,51,6,3,6*5e401854
%RAWIMUSA,2124,291732.378;2124,291732.377755000,00000077,368,-64037,-58,-4,8,18*cf8a303d
%RAWIMUSA,2124,291732.388;2124,291732.387755000,00000077,401,-63983,-71,4,3,15*726dea21
%RAWIMUSA,2124,291732.398;2124,291732.397755000,00000077,368,-63964,-37,-2,-3,9*0f9c88c0
%RAWIMUSA,2124,291732.408;2124,291732.407755000,00000077,315,-63937,22,3,14,10*7b79d73d
%RAWIMUSA,2124,291732.418;2124,291732.417755000,00000077,372,-63998,-107,12,1,9*26490cc9
%RAWIMUSA,2124,291732.428;2124,291732.427755000,00000077,307,-63928,-48,15,9,16*059dd14b
%RAWIMUSA,2124,291732.438;2124,291732.437755000,00000077,331,-63994,-97,12,0,-6*31ceabf5
%RAWIMUSA,2124,291732.448;2124,291732.447755000,00000077,353,-63975,47,5,11,17*60724278
%RAWIMUSA,2124,291732.458;2124,291732.457755000,00000077,339,-63921,-41,-22,-7,11*16a93c73
%RAWIMUSA,2124,291732.468;2124,291732.467755000,00000077,265,-63899,-122,2,3,6*08ded560
%RAWIMUSA,2124,291732.478;2124,291732.477755000,00000077,384,-63947,-103,-19,11,3*add4bdbe
%RAWIMUSA,2124,291732.488;2124,291732.487755000,00000077,349,-63996,-5,5,6,-4*320c8fd6
%RAWIMUSA,2124,291732.498;2124,291732.497755000,00000077,439,-64022,-74,-3,3,17*4a30b947
%RAWIMUSA,2124,291732.508;2124,291732.507755000,00000077,388,-64015,-41,9,0,7*7a17ad3d
%RAWIMUSA,2124,291732.518;2124,291732.517755000,00000077,465,-63871,-4,9,6,-3*d97e472b
%RAWIMUSA,2124,291732.528;2124,291732.527755000,00000077,361,-63950,-75,5,-13,-3*cd3fbf8a
%RAWIMUSA,2124,291732.538;2124,291732.537755000,00000077,349,-64023,-32,-2,15,8*24acab95
%RAWIMUSA,2124,291732.548;2124,291732.547755000,00000077,307,-63900,-54,-2,4,8*0eadbb08
%RAWIMUSA,2124,291732.558;2124,291732.557755000,00000077,464,-63944,36,16,-4,7*d875343d
%RAWIMUSA,2124,291732.568;2124,291732.567755000,00000077,367,-63945,8,0,7,8*5364c8c5
%RAWIMUSA,2124,291732.578;2124,291732.577755000,00000077,302,-63853,-95,-1,-4,4*1223e772
%RAWIMUSA,2124,291732.588;2124,291732.587755000,00000077,369,-63909,-77,11,20,-10*17e6767c
%RAWIMUSA,2124,291732.598;2124,291732.597755000,00000077,501,-63992,-97,-5,10,-3*067540e8
%RAWIMUSA,2124,291732.608;2124,291732.607755000,00000077,326,-63899,-19,6,2,4*fbbaa299
%RAWIMUSA,2124,291732.618;2124,291732.617755000,00000077,314,-63932,-10,-5,1,6*1a4a4051
%RAWIMUSA,2124,291732.628;2124,291732.627755000,00000077,337,-63970,-11,0,9,1*8f5bae7e
%RAWIMUSA,2124,291732.638;2124,291732.637755000,00000077,320,-64029,26,9,3,18*2995fb5d
%RAWIMUSA,2124,291732.648;2124,291732.647755000,00000077,387,-63922,21,10,0,24*8499cfdb
%RAWIMUSA,2124,291732.658;2124,291732.657755000,00000077,361,-63958,20,9,-1,13*9b66c95e
%RAWIMUSA,2124,291732.668;2124,291732.667755000,00000077,214,-63902,-25,0,1,15*97a3d6bf
%RAWIMUSA,2124,291732.678;2124,291732.677755000,00000077,338,-64028,-1,6,4,16*870b7288
%RAWIMUSA,2124,291732.688;2124,291732.687755000,00000077,283,-63951,-52,10,20,14*a9bc4a69
%RAWIMUSA,2124,291732.698;2124,291732.697755000,00000077,341,-63890,19,3,8,4*944a7163
%RAWIMUSA,2124,291732.708;2124,291732.707755000,00000077,312,-63962,-129,10,-4,10*95513b7d
%RAWIMUSA,2124,291732.718;2124,291732.717755000,00000077,379,-64053,-75,9,-1,16*4f22e3cd
%RAWIMUSA,2124,291732.728;2124,291732.727755000,00000077,327,-63952,14,10,1,-3*e6427fee
%RAWIMUSA,2124,291732.738;2124,291732.737755000,00000077,322,-63890,-42,10,1,4*52d8812b
%RAWIMUSA,2124,291732.748;2124,291732.747755000,00000077,339,-64011,-57,2,13,4*f59acb27
%RAWIMUSA,2124,291732.758;2124,291732.757755000,00000077,390,-63957,-63,-3,7,1*72722062
%RAWIMUSA,2124,291732.768;2124,291732.767755000,00000077,238,-63915,103,15,0,15*8949b9fa
%RAWIMUSA,2124,291732.778;2124,291732.777755000,00000077,382,-63959,-40,1,-9,3*3974792c
%RAWIMUSA,2124,291732.788;2124,291732.787755000,00000077,308,-63892,23,0,3,-2*d780178a
%RAWIMUSA,2124,291732.798;2124,291732.797755000,00000077,320,-63939,16,11,1,1*921ff8a5
%RAWIMUSA,2124,291732.808;2124,291732.807755000,00000077,349,-64039,-4,11,-3,2*6243261d
%RAWIMUSA,2124,291732.818;2124,291732.817755000,00000077,359,-64029,-23,-4,0,-6*28777e8f
%RAWIMUSA,2124,291732.828;2124,291732.827755000,00000077,292,-64149,6,-6,1,9*18f510cc
%RAWIMUSA,2124,291732.838;2124,291732.837755000,00000077,445,-63992,-24,-16,-2,9*8accea7a
%RAWIMUSA,2124,291732.848;2124,291732.847755000,00000077,388,-63801,15,24,1,4*3d35f59a
%RAWIMUSA,2124,291732.858;2124,291732.857755000,00000077,264,-63947,-37,8,-15,12*e21c0955
%RAWIMUSA,2124,291732.868;2124,291732.867755000,00000077,346,-63938,31,-3,2,7*a7ecc9ac
%RAWIMUSA,2124,291732.878;2124,291732.877755000,00000077,357,-63976,-58,9,18,0*35a31105
%RAWIMUSA,2124,291732.888;2124,291732.887755000,00000077,356,-63962,-16,-2,22,20*846e733f
%RAWIMUSA,2124,291732.898;2124,291732.897755000,00000077,360,-63954,-18,8,0,0*4690d0b0
%RAWIMUSA,2124,291732.908;2124,291732.907755000,00000077,335,-63937,49,-4,0,4*f9020938
%RAWIMUSA,2124,291732.918;2124,291732.917755000,00000077,310,-63945,4,0,3,-4*940f268d
%RAWIMUSA,2124,291732.928;2124,291732.927755000,00000077,415,-63907,-118,7,3,-1*71de77af
%RAWIMUSA,2124,291732.938;2124,291732.937755000,00000077,343,-64042,9,4,7,5*7ff44bfb
%RAWIMUSA,2124,291732.948;2124,291732.947755000,00000077,280,-63987,-79,-18,0,16*027b6472
%RAWIMUSA,2124,291732.958;2124,291732.957755000,00000077,327,-63971,-98,7,-8,5*7d202037
%RAWIMUSA,2124,291732.968;2124,291732.967755000,00000077,337,-63918,-159,3,15,17*653c4cb2
%RAWIMUSA,2124,291732.978;2124,291732.977755000,00000077,341,-63923,-88,3,-4,16*6a7e6373
%RAWIMUSA,2124,291732.988;2124,291732.987755000,00000077,281,-64021,36,7,24,9*90dc9960
%RAWIMUSA,2124,291732.998;2124,291732.997755000,00000077,219,-64083,-103,5,-7,6*12b97109
%RAWIMUSA,2124,291733.008;2124,291733.007755000,00000077,359,-63938,-52,21,-2,11*80f5eac8
%RAWIMUSA,2124,291733.018;2124,291733.017755000,00000077,401,-63914,-116,5,16,-6*47e6cce7
%RAWIMUSA,2124,291733.028;2124,291733.027755000,00000077,226,-63987,30,-5,-4,6*f8fc5150
%RAWIMUSA,2124,291733.038;2124,291733.037755000,00000077,323,-63951,-6,3,9,0*7cf90df7
%RAWIMUSA,2124,291733.048;2124,291733.047755000,00000077,317,-63884,-55,7,14,6*a4c62581
%RAWIMUSA,2124,291733.058;2124,291733.057755000,00000077,382,-63942,-26,0,4,3*118982aa
%RAWIMUSA,2124,291733.068;2124,291733.067755000,00000077,338,-63928,17,6,13,-5*2ca925d3
%RAWIMUSA,2124,291733.078;2124,291733.077755000,00000077,278,-64008,75,1,10,0*33809803
%RAWIMUSA,2124,291733.088;2124,291733.087755000,00000077,297,-63941,64,-4,0,25*eedeb451
%RAWIMUSA,2124,291733.098;2124,291733.097755000,00000077,315,-64005,17,10,-2,17*fb511cf2
%RAWIMUSA,2124,291733.108;2124,291733.107755000,00000077,277,-63909,-78,1,0,11*953ddf52
%RAWIMUSA,2124,291733.118;2124,291733.117755000,00000077,377,-63903,-91,5,-5,11*ac3257b5
%RAWIMUSA,2124,291733.128;2124,291733.127755000,00000077,317,-63954,-19,-1,3,8*0c803283
%RAWIMUSA,2124,291733.138;2124,291733.137755000,00000077,347,-63936,-108,1,-10,4*0a7f63f9
%RAWIMUSA,2124,291733.148;2124,291733.147755000,00000077,404,-64015,-62,9,0,11*cf6af0b3
%RAWIMUSA,2124,291733.158;2124,291733.157755000,00000077,331,-64078,-71,10,1,4*34ee7bc8
%RAWIMUSA,2124,291733.168;2124,291733.167755000,00000077,328,-64022,-23,2,3,-5*94e373c8
%RAWIMUSA,2124,291733.178;2124,291733.177755000,00000077,280,-64023,-61,5,-4,5*1b863cd7
%RAWIMUSA,2124,291733.188;2124,291733.187755000,00000077,387,-63965,-27,7,0,-2*3bb0cfe2
%RAWIMUSA,2124,291733.198;2124,291733.197755000,00000077,326,-63898,-11,9,13,30*33f43251
%RAWIMUSA,2124,291733.208;2124,291733.207755000,00000077,426,-64000,25,-11,6,15*ba2114f6
%RAWIMUSA,2124,291733.218;2124,291733.217755000,00000077,316,-63937,3,10,-3,2*96fada3c
%RAWIMUSA,2124,291733.228;2124,291733.227755000,00000077,347,-63964,46,3,20,-6*f33ea779
%RAWIMUSA,2124,291733.238;2124,291733.237755000,00000077,390,-64066,-73,-5,9,4*cc315b46
%RAWIMUSA,2124,291733.248;2124,291733.247755000,00000077,404,-63959,49,6,10,17*bf18434b
%RAWIMUSA,2124,291733.258;2124,291733.257755000,00000077,247,-63984,-24,11,4,7*6c574803
%RAWIMUSA,2124,291733.268;2124,291733.267755000,00000077,350,-64084,-81,13,8,7*f2086cff
%RAWIMUSA,2124,291733.278;2124,291733.277755000,00000077,400,-63952,5,0,-4,-10*f587e3ee
%RAWIMUSA,2124,291733.288;2124,291733.287755000,00000077,357,-63970,-114,15,-8,7*379976e4
%RAWIMUSA,2124,291733.298;2124,291733.297755000,00000077,305,-64042,78,11,25,-2*6cec9ea6
%RAWIMUSA,2124,291733.308;2124,291733.307755000,00000077,281,-63902,0,14,4,2*ae6202e8
%RAWIMUSA,2124,291733.318;2124,291733.317755000,00000077,294,-63960,10,4,2,12*5aec3134
%RAWIMUSA,2124,291733.328;2124,291733.327755000,00000077,360,-64100,74,4,23,12*396db501
%RAWIMUSA,2124,291733.338;2124,291733.337755000,00000077,339,-64028,-15,5,-15,10*41877e18
%RAWIMUSA,2124,291733.348;2124,291733.347755000,00000077,305,-63998,-9,2,1,6*dc004141
%RAWIMUSA,2124,291733.358;2124,291733.357755000,00000077,298,-63940,-71,8,-2,0*2da91cd0
%RAWIMUSA,2124,291733.368;2124,291733.367755000,00000077,244,-64005,-5,1,-5,20*9ed17897
%RAWIMUSA,2124,291733.378;2124,291733.377755000,00000077,404,-63943,-133,5,0,1*f44be334
%RAWIMUSA,2124,291733.388;2124,291733.387755000,00000077,394,-63904,18,-7,-11,0*ed457fd6
%RAWIMUSA,2124,291733.398;2124,291733.397755000,00000077,311,-64011,-22,0,2,-2*3846aff7
%RAWIMUSA,2124,291733.408;2124,291733.407755000,00000077,303,-63887,57,6,5,10*24ab5b62
%RAWIMUSA,2124,291733.418;2124,291733.417755000,00000077,363,-63962,-36,0,-4,0*9406958a
%RAWIMUSA,2124,291733.428;2124,291733.427755000,00000077,297,-63949,7,9,13,12*167fc1b8
%RAWIMUSA,2124,291733.438;2124,291733.437755000,00000077,315,-63984,-7,-3,-9,23*875a51c5
%RAWIMUSA,2124,291733.448;2124,291733.447755000,00000077,322,-63942,-24,-4,0,0*6db7065d
%RAWIMUSA,2124,291733.458;2124,291733.457755000,00000077,395,-64010,-90,14,-8,13*fa7300e4
%RAWIMUSA,2124,291733.468;2124,291733.467755000,00000077,309,-64028,-64,0,16,-11*11c60026
%RAWIMUSA,2124,291733.478;2124,291733.477755000,00000077,329,-63951,-121,-16,-5,-3*a2cd8f08
%RAWIMUSA,2124,291733.488;2124,291733.487755000,00000077,379,-63902,19,-3,23,2*14b394f7
%RAWIMUSA,2124,291733.498;2124,291733.497755000,00000077,372,-64017,-168,10,-5,8*075fb0f2
%RAWIMUSA,2124,291733.508;2124,291733.507755000,00000077,309,-63928,24,-9,11,6*b245e73f
%RAWIMUSA,2124,291733.518;2124,291733.517755000,00000077,445,-63926,-44,-7,-13,16*b7eb70d8
%RAWIMUSA,2124,291733.528;2124,291733.527755000,00000077,340,-64026,-22,2,26,2*3731c57e
%RAWIMUSA,2124,291733.538;2124,291733.537755000,00000077,384,-63971,28,-7,7,17*486c40ea
%RAWIMUSA,2124,291733.548;2124,291733.547755000,00000077,405,-63964,-65,-12,15,-1*73f96d9a
%RAWIMUSA,2124,291733.558;2124,291733.557755000,00000077,368,-63976,-28,1,-15,1*26a2bcc7
%RAWIMUSA,2124,291733.568;2124,291733.567755000,00000077,338,-63943,-38,12,7,2*d565db07
%RAWIMUSA,2124,291733.578;2124,291733.577755000,00000077,306,-63899,-60,9,-12,5*a15b32c3
%RAWIMUSA,2124,291733.588;2124,291733.587755000,00000077,354,-64137,-39,-8,10,3*ef3ab0ca
%RAWIMUSA,2124,291733.598;2124,291733.597755000,00000077,351,-63888,-41,14,-12,8*4b5d8a98
%RAWIMUSA,2124,291733.608;2124,291733.607755000,00000077,409,-64047,-152,7,8,4*5950ec37
%RAWIMUSA,2124,291733.618;2124,291733.617755000,00000077,378,-63880,-68,25,2,11*4505d91e
%RAWIMUSA,2124,291733.628;2124,291733.627755000,00000077,338,-64044,-33,1,2,7*a16a3cb9
%RAWIMUSA,2124,291733.638;2124,291733.637755000,00000077,270,-63971,-166,3,2,-11*59304a7b
%RAWIMUSA,2124,291733.648;2124,291733.647755000,00000077,370,-63913,-77,11,19,16*4e0f08c0
%RAWIMUSA,2124,291733.658;2124,291733.657755000,00000077,274,-63959,-24,14,-10,7*5ad87786
%RAWIMUSA,2124,291733.668;2124,291733.667755000,00000077,338,-64035,-11,-8,8,-2*eef95783
%RAWIMUSA,2124,291733.678;2124,291733.677755000,00000077,373,-63952,-137,-3,-17,3*cc66e573
%RAWIMUSA,2124,291733.688;2124,291733.687755000,00000077,291,-64089,-53,-4,-4,12*3c3ddeee
%RAWIMUSA,2124,291733.698;2124,291733.697755000,00000077,260,-63896,-70,7,2,0*4517dc34
%RAWIMUSA,2124,291733.708;2124,291733.707755000,00000077,240,-64004,22,-1,3,-6*6b472dda
%RAWIMUSA,2124,291733.718;2124,291733.717755000,00000077,324,-64002,-75,19,-5,10*908983ca
%RAWIMUSA,2124,291733.728;2124,291733.727755000,00000077,297,-64019,-48,2,-1,3*bde03940
%RAWIMUSA,2124,291733.738;2124,291733.737755000,00000077,351,-63962,-44,1,3,17*b4eeb9f8
%RAWIMUSA,2124,291733.748;2124,291733.747755000,00000077,284,-63881,-44,5,-4,14*9fffd55f
%RAWIMUSA,2124,291733.758;2124,291733.757755000,00000077,409,-63983,82,-15,-6,-7*3fe381ee
%RAWIMUSA,2124,291733.768;2124,291733.767755000,00000077,328,-64041,-45,-3,9,3*1c350531
%RAWIMUSA,2124,291733.778;2124,291733.777755000,00000077,343,-63995,-16,16,-2,9*af1f876a
%RAWIMUSA,2124,291733.788;2124,291733.787755000,00000077,321,-63884,-29,-2,7,24*da0e3a93
%RAWIMUSA,2124,291733.798;2124,291733.797755000,00000077,371,-63879,71,13,-5,1*6f33b83e
%RAWIMUSA,2124,291733.808;2124,291733.807755000,00000077,366,-63984,-33,-3,3,17*dcea328b
%RAWIMUSA,2124,291733.818;2124,291733.817755000,00000077,301,-63964,-37,10,8,18*8e610a46
%RAWIMUSA,2124,291733.828;2124,291733.827755000,00000077,392,-64050,-14,7,7,10*7d678b9b
%RAWIMUSA,2124,291733.838;2124,291733.837755000,00000077,427,-63991,-12,-6,0,5*13ea1336
%RAWIMUSA,2124,291733.848;2124,291733.847755000,00000077,328,-64011,-40,-13,16,4*e4ea8a77
%RAWIMUSA,2124,291733.858;2124,291733.857755000,00000077,502,-64028,-29,-2,-3,7*28a91d05
%RAWIMUSA,2124,291733.868;2124,291733.867755000,00000077,312,-64022,13,10,18,9*076d0f4b
%RAWIMUSA,2124,291733.878;2124,291733.877755000,00000077,371,-63947,9,9,5,11*41c03fa2
%RAWIMUSA,2124,291733.888;2124,291733.887755000,00000077,429,-63956,-123,-11,16,20*d25db8ae
%RAWIMUSA,2124,291733.898;2124,291733.897755000,00000077,346,-63985,-149,1,4,7*9f0cae8a
%RAWIMUSA,2124,291733.908;2124,291733.907755000,00000077,355,-63879,20,0,11,-1*5182d251
%RAWIMUSA,2124,291733.918;2124,291733.917755000,00000077,419,-63942,-32,11,7,5*9ec52af5
%RAWIMUSA,2124,291733.928;2124,291733.927755000,00000077,324,-64003,1,4,2,9*970de039
%RAWIMUSA,2124,291733.938;2124,291733.937755000,00000077,357,-64013,-33,8,-5,2*11f30bfb
%RAWIMUSA,2124,291733.948;2124,291733.947755000,00000077,282,-63976,-7,-6,-11,8*fb650bf2
%RAWIMUSA,2124,291733.958;2124,291733.957755000,00000077,264,-63965,-39,-3,10,-3*7607ec7e
%RAWIMUSA,2124,291733.968;2124,291733.967755000,00000077,341,-63995,-28,10,8,25*281622a8
%RAWIMUSA,2124,291733.978;2124,291733.977755000,00000077,301,-64030,-69,-1,-1,3*f704bd53
%RAWIMUSA,2124,291733.988;2124,291733.987755000,00000077,320,-63965,-36,-3,1,4*d52582d3
%RAWIMUSA,2124,291733.998;2124,291733.997755000,00000077,378,-63985,2,0,2,0*40bd17dd
%RAWIMUSA,2124,291734.008;2124,291734.007755000,00000077,410,-63949,-45,-1,1,3*70a0f04f
%RAWIMUSA,2124,291734.018;2124,291734.017755000,00000077,358,-63885,-2,4,-9,-7*77e267ad
%RAWIMUSA,2124,291734.028;2124,291734.027755000,00000077,333,-63937,14,3,-6,9*be2a66a6
%RAWIMUSA,2124,291734.038;2124,291734.037755000,00000077,336,-64014,-5,-3,-18,4*c6298a8a
%RAWIMUSA,2124,291734.048;2124,291734.047755000,00000077,284,-63979,-60,15,-1,3*b3a578ca
%RAWIMUSA,2124,291734.058;2124,291734.057755000,00000077,339,-63946,-64,3,3,9*f93e456a
%RAWIMUSA,2124,291734.068;2124,291734.067755000,00000077,332,-63962,-44,1,9,5*2bc9bc44
%RAWIMUSA,2124,291734.078;2124,291734.077755000,00000077,455,-64081,24,2,-15,10*0b09b55d
%RAWIMUSA,2124,291734.088;2124,291734.087755000,00000077,323,-63903,-59,6,12,9*1cd48eab
%RAWIMUSA,2124,291734.098;2124,291734.097755000,00000077,269,-64020,-26,2,4,16*968ce0f6
%RAWIMUSA,2124,291734.108;2124,291734.107755000,00000077,364,-63917,33,1,-13,6*d08e31e2
%RAWIMUSA,2124,291734.118;2124,291734.117755000,00000077,349,-63937,-2,8,1,-2*a6f6040f
%RAWIMUSA,2124,291734.128;2124,291734.127755000,00000077,442,-63884,-49,-2,14,2*4cab4c2b
%RAWIMUSA,2124,291734.138;2124,291734.137755000,00000077,373,-63954,-44,-9,1,-2*1b7d35f0
%RAWIMUSA,2124,291734.148;2124,291734.147755000,00000077,371,-64019,45,11,15,10*88bf0315
%RAWIMUSA,2124,291734.158;2124,291734.157755000,00000077,362,-63891,-136,9,8,-2*c3aab24c
%RAWIMUSA,2124,291734.168;2124,291734.167755000,00000077,317,-63913,-30,0,3,7*4268b5e4
%RAWIMUSA,2124,291734.178;2124,291734.177755000,00000077,389,-64015,-11,6,12,0*7a5f2e77
%RAWIMUSA,2124,291734.188;2124,291734.187755000,00000077,324,-63955,-79,5,9,10*ebf7ba86
%RAWIMUSA,2124,291734.198;2124,291734.197755000,00000077,410,-64040,-35,2,19,8*e1914321
%RAWIMUSA,2124,291734.208;2124,291734.207755000,00000077,319,-64037,-138,1,2,5*e7d3f76b
%RAWIMUSA,2124,291734.218;2124,291734.217755000,00000077,362,-63883,-42,-10,-3,12*1427d40f
%RAWIMUSA,2124,291734.228;2124,291734.227755000,00000077,329,-63950,3,-1,8,11*89882fe2
%RAWIMUSA,2124,291734.238;2124,291734.237755000,00000077,405,-63894,11,2,10,20*cfb98681
%RAWIMUSA,2124,291734.248;2124,291734.247755000,00000077,457,-63962,10,-3,5,1*8cf17f36
%RAWIMUSA,2124,291734.258;2124,291734.257755000,00000077,256,-64055,1,6,-3,0*4a5b2c91
%RAWIMUSA,2124,291734.268;2124,291734.267755000,00000077,435,-63991,-104,6,-10,7*e92a5b49
%RAWIMUSA,2124,291734.278;2124,291734.277755000,00000077,324,-63946,77,6,-6,15*b546a2f2
%RAWIMUSA,2124,291734.288;2124,291734.287755000,00000077,349,-64050,-40,0,16,-9*b6a14531
%RAWIMUSA,2124,291734.298;2124,291734.297755000,00000077,248,-63906,-33,13,0,2*cc6b1609
%RAWIMUSA,2124,291734.308;2124,291734.307755000,00000077,440,-63987,-49,6,11,2*5718c5b4
%RAWIMUSA,2124,291734.318;2124,291734.317755000,00000077,330,-63983,32,-10,1,15*3d339cd9
%RAWIMUSA,2124,291734.328;2124,291734.327755000,00000077,287,-64105,-25,-3,3,19*8d60bf3a
%RAWIMUSA,2124,291734.338;2124,291734.337755000,00000077,309,-63923,-9,7,-3,17*2c86d9a0
%RAWIMUSA,2124,291734.348;2124,291734.347755000,00000077,436,-64118,15,-2,6,10*a49d0e46
%RAWIMUSA,2124,291734.358;2124,291734.357755000,00000077,256,-63902,-51,-3,-5,-3*74ed6660
%RAWIMUSA,2124,291734.368;2124,291734.367755000,00000077,417,-64040,-10,0,13,23*58b5ded3
%RAWIMUSA,2124,291734.378;2124,291734.377755000,00000077,177,-63965,-13,16,-10,0*19f2ed7e
%RAWIMUSA,2124,291734.388;2124,291734.387755000,00000077,376,-63978,-32,4,3,12*be81c21b
%RAWIMUSA,2124,291734.398;2124,291734.397755000,00000077,475,-63933,-37,8,-5,-4*8bf95e49
%RAWIMUSA,2124,291734.408;2124,291734.407755000,00000077,423,-63987,28,7,14,26*7199c1a9
%RAWIMUSA,2124,291734.418;2124,291734.417755000,00000077,392,-63840,-39,7,0,-7*2365ee9d
%RAWIMUSA,2124,291734.428;2124,291734.427755000,00000077,445,-63973,-16,0,3,16*3d3fbb17
%RAWIMUSA,2124,291734.438;2124,291734.437755000,00000077,318,-63778,31,5,-11,-16*652ceaea
%RAWIMUSA,2124,291734.448;2124,291734.447755000,00000077,282,-64034,-80,13,4,27*b4c9e2a8
%RAWIMUSA,2124,291734.458;2124,291734.457755000,00000077,346,-63873,7,-5,-7,-17*f5b910d4
%RAWIMUSA,2124,291734.468;2124,291734.467755000,00000077,344,-64010,-108,-1,15,38*7dd896a4
%RAWIMUSA,2124,291734.478;2124,291734.477755000,00000077,355,-63980,-66,-5,5,8*d1004a82
%RAWIMUSA,2124,291734.488;2124,291734.487755000,00000077,362,-63929,-129,4,4,6*589959ef
%RAWIMUSA,2124,291734.498;2124,291734.497755000,00000077,302,-63931,-14,-6,0,0*c7d5e43a
%RAWIMUSA,2124,291734.508;2124,291734.507755000,00000077,384,-63979,-60,8,8,33*0aff6f50
%RAWIMUSA,2124,291734.518;2124,291734.517755000,00000077,325,-63900,-31,10,-4,-13*4cbc5f6e
%RAWIMUSA,2124,291734.528;2124,291734.527755000,00000077,480,-64038,-22,6,13,26*02a551eb
%RAWIMUSA,2124,291734.538;2124,291734.537755000,00000077,333,-63872,27,12,-11,-33*66048a25
%RAWIMUSA,2124,291734.548;2124,291734.547755000,00000077,376,-64063,46,1,0,37*3e1c6e3b
%RAWIMUSA,2124,291734.558;2124,291734.557755000,00000077,312,-63957,19,-5,-2,-29*d32d5668
%RAWIMUSA,2124,291734.568;2124,291734.567755000,00000077,383,-63979,6,8,-9,47*217ddf38
%RAWIMUSA,2124,291734.578;2124,291734.577755000,00000077,399,-63880,16,0,8,-25*36bf1b69
%RAWIMUSA,2124,291734.588;2124,291734.587755000,00000077,250,-63917,-10,-16,11,39*06a50325
%RAWIMUSA,2124,291734.598;2124,291734.597755000,00000077,349,-64026,-128,-2,-5,-21*639849fa
%RAWIMUSA,2124,291734.608;2124,291734.607755000,00000077,323,-63952,4,6,23,41*a247f7ff
%RAWIMUSA,2124,291734.618;2124,291734.617755000,00000077,344,-63961,-25,-5,1,-22*b48603d7
%RAWIMUSA,2124,291734.628;2124,291734.627755000,00000077,414,-63887,14,14,15,31*792b5a3b
%RAWIMUSA,2124,291734.638;2124,291734.637755000,00000077,235,-64073,-4,-13,0,-26*1c3d3213
%RAWIMUSA,2124,291734.648;2124,291734.647755000,00000077,281,-63838,-12,5,17,29*30f0e76b
%RAWIMUSA,2124,291734.658;2124,291734.657755000,00000077,435,-64024,-47,5,9,-10*9df1a4cc
%RAWIMUSA,2124,291734.668;2124,291734.667755000,00000077,362,-63905,-137,8,19,25*0669a16d
%RAWIMUSA,2124,291734.678;2124,291734.677755000,00000077,294,-63999,21,0,-6,-3*72743604
%RAWIMUSA,2124,291734.688;2124,291734.687755000,00000077,343,-63889,0,5,8,2*f91169c8
%RAWIMUSA,2124,291734.698;2124,291734.697755000,00000077,310,-64029,18,6,7,10*e1506321
%RAWIMUSA,2124,291734.708;2124,291734.707755000,00000077,327,-63941,-86,9,0,-7*28c1840f
%RAWIMUSA,2124,291734.718;2124,291734.717755000,00000077,426,-63940,-15,2,0,32*8d2bfcf2
%RAWIMUSA,2124,291734.728;2124,291734.727755000,00000077,373,-63889,-135,-1,3,-2*5acda423
%RAWIMUSA,2124,291734.738;2124,291734.737755000,00000077,287,-63919,-64,0,-3,29*8237d649
%RAWIMUSA,2124,291734.748;2124,291734.747755000,00000077,439,-63952,-116,12,8,-18*9cbe3dec
%RAWIMUSA,2124,291734.758;2124,291734.757755000,00000077,307,-63914,-30,4,10,32*9920519c
%RAWIMUSA,2124,291734.768;2124,291734.767755000,00000077,245,-63914,-68,17,3,-28*996b310e
%RAWIMUSA,2124,291734.778;2124,291734.777755000,00000077,360,-63994,-28,-2,8,29*4f5f095b
%RAWIMUSA,2124,291734.788;2124,291734.787755000,00000077,438,-64073,-23,-5,0,-12*ddaf0984
%RAWIMUSA,2124,291734.798;2124,291734.797755000,00000077,434,-63850,57,9,0,52*41b66fbf
%RAWIMUSA,2124,291734.808;2124,291734.807755000,00000077,337,-64043,7,9,10,-25*c15d4305
%RAWIMUSA,2124,291734.818;2124,291734.817755000,00000077,281,-63865,-77,1,1,13*75e65f71
%RAWIMUSA,2124,291734.828;2124,291734.827755000,00000077,423,-64110,18,7,14,16*03cdb994
%RAWIMUSA,2124,291734.838;2124,291734.837755000,00000077,348,-63921,7,6,-2,9*5db37052
%RAWIMUSA,2124,291734.848;2124,291734.847755000,00000077,345,-64003,-17,11,11,12*7cffd40c
%RAWIMUSA,2124,291734.858;2124,291734.857755000,00000077,318,-63958,2,1,-15,-6*d0b6642d
%RAWIMUSA,2124,291734.868;2124,291734.867755000,00000077,358,-63938,8,7,13,31*ac6a4fee
%RAWIMUSA,2124,291734.878;2124,291734.877755000,00000077,378,-63877,-65,3,-5,-21*b067f8b0
%RAWIMUSA,2124,291734.888;2124,291734.887755000,00000077,362,-63891,-57,21,-7,39*7825499c
%RAWIMUSA,2124,291734.898;2124,291734.897755000,00000077,299,-64053,-37,18,-13,-18*ad2cfc26
%RAWIMUSA,2124,291734.908;2124,291734.907755000,00000077,322,-64000,36,0,-1,32*38906e8e
%RAWIMUSA,2124,291734.918;2124,291734.917755000,00000077,367,-63965,12,-4,13,-22*a5d690d7
%RAWIMUSA,2124,291734.928;2124,291734.927755000,00000077,337,-63805,-44,-4,14,20*e2f292fc
%RAWIMUSA,2124,291734.938;2124,291734.937755000,00000077,397,-64086,-53,-4,-12,6*ff336f79
%RAWIMUSA,2124,291734.948;2124,291734.947755000,00000077,340,-63934,30,-1,4,10*361af909
%RAWIMUSA,2124,291734.958;2124,291734.957755000,00000077,262,-63965,-98,5,1,23*2893ce17
%RAWIMUSA,2124,291734.968;2124,291734.967755000,00000077,290,-63866,-38,0,-6,-6*dfff8a56
%RAWIMUSA,2124,291734.978;2124,291734.977755000,00000077,256,-63967,-29,18,-6,23*1a1389fa
%RAWIMUSA,2124,291734.988;2124,291734.987755000,00000077,296,-63923,-1,-1,15,-24*a9fb1a6c
%RAWIMUSA,2124,291734.998;2124,291734.997755000,00000077,343,-63985,-82,12,7,43*a0db52e8
%RAWIMUSA,2124,291735.008;2124,291735.007755000,00000077,308,-63916,-34,10,3,-31*89807183
%RAWIMUSA,2124,291735.018;2124,291735.017755000,00000077,334,-64018,-49,2,0,35*191fb406
%RAWIMUSA,2124,291735.028;2124,291735.027755000,00000077,340,-63963,-23,-5,-7,-41*131ebdc8
%RAWIMUSA,2124,291735.038;2124,291735.037755000,00000077,435,-64022,41,-13,2,28*aec0f559
%RAWIMUSA,2124,291735.048;2124,291735.047755000,00000077,339,-63897,-40,5,4,-12*4bf1fa25
%RAWIMUSA,2124,291735.058;2124,291735.057755000,00000077,380,-64042,-70,12,13,32*8285b556
%RAWIMUSA,2124,291735.068;2124,291735.067755000,00000077,318,-64016,96,-9,1,-5*9248b90b
%RAWIMUSA,2124,291735.078;2124,291735.077755000,00000077,378,-64029,17,7,26,31*b08d815b
%RAWIMUSA,2124,291735.088;2124,291735.087755000,00000077,370,-64037,36,3,10,-25*6b20eb2d
%RAWIMUSA,2124,291735.098;2124,291735.097755000,00000077,407,-63899,-67,5,17,9*8d14dd14
%RAWIMUSA,2124,291735.108;2124,291735.107755000,00000077,368,-64004,-38,0,10,6*c84b775a
%RAWIMUSA,2124,291735.118;2124,291735.117755000,00000077,301,-63926,62,-8,-2,18*39b9eda7
%RAWIMUSA,2124,291735.128;2124,291735.127755000,00000077,359,-64053,-123,4,4,0*469fd547
%RAWIMUSA,2124,291735.138;2124,291735.137755000,00000077,226,-63845,-47,-6,-8,-6*ee2e886b
%RAWIMUSA,2124,291735.148;2124,291735.147755000,00000077,365,-63983,-38,1,11,35*6b5c5270
%RAWIMUSA,2124,291735.158;2124,291735.157755000,00000077,409,-63846,-37,1,-11,-15*4ac0d8dd
%RAWIMUSA,2124,291735.168;2124,291735.167755000,00000077,313,-63881,-28,-1,1,41*c145af13
%RAWIMUSA,2124,291735.178;2124,291735.177755000,00000077,359,-63984,-53,1,-6,-27*c64374db
%RAWIMUSA,2124,291735.188;2124,291735.187755000,00000077,309,-63950,-12,2,20,34*5c410811
%RAWIMUSA,2124,291735.198;2124,291735.197755000,00000077,421,-64000,-81,4,8,-35*7d8c696b
%RAWIMUSA,2124,291735.208;2124,291735.207755000,00000077,321,-63947,-76,0,6,62*a15bd242
%RAWIMUSA,2124,291735.218;2124,291735.217755000,00000077,388,-63953,-26,0,1,-27*b2596a2b
%RAWIMUSA,2124,291735.228;2124,291735.227755000,00000077,377,-63940,-43,7,15,25*eee684e5
%RAWIMUSA,2124,291735.238;2124,291735.237755000,00000077,395,-63978,-2,-6,-10,-1*968625e1
%RAWIMUSA,2124,291735.248;2124,291735.247755000,00000077,367,-63813,30,-1,5,-10*42d553cf
%RAWIMUSA,2124,291735.258;2124,291735.257755000,00000077,301,-64017,54,5,11,30*b63f8ebf
%RAWIMUSA,2124,291735.268;2124,291735.267755000,00000077,409,-63940,2,2,-9,-2*e94171aa
%RAWIMUSA,2124,291735.278;2124,291735.277755000,00000077,288,-63949,4,-2,-3,1*d2d2b642
%RAWIMUSA,2124,291735.288;2124,291735.287755000,00000077,384,-64032,-34,5,25,30*94ba7431
%RAWIMUSA,2124,291735.298;2124,291735.297755000,00000077,247,-63917,-9,-3,7,-13*3e67c2ac
%RAWIMUSA,2124,291735.308;2124,291735.307755000,00000077,313,-63852,4,-1,5,37*afe32ab6
%RAWIMUSA,2124,291735.318;2124,291735.317755000,00000077,428,-63960,-7,-3,0,10*95dc50e4
%RAWIMUSA,2124,291735.328;2124,291735.327755000,00000077,258,-63921,-121,7,7,-12*84e8570f
%RAWIMUSA,2124,291735.338;2124,291735.337755000,00000077,341,-63962,-31,10,4,20*59cd2d9c
%RAWIMUSA,2124,291735.348;2124,291735.347755000,00000077,403,-64005,24,1,22,22*f009ca1c
%RAWIMUSA,2124,291735.358;2124,291735.357755000,00000077,442,-64014,-104,-10,-14,-1*d5bb9e46
%RAWIMUSA,2124,291735.368;2124,291735.367755000,00000077,406,-63985,-67,-1,4,25*e33e0c61
%RAWIMUSA,2124,291735.378;2124,291735.377755000,00000077,320,-64030,-47,10,-5,0*7857f665
%RAWIMUSA,2124,291735.388;2124,291735.387755000,00000077,341,-64003,15,4,7,0*830b91e8
%RAWIMUSA,2124,291735.398;2124,291735.397755000,00000077,369,-63937,-130,5,-4,9*543de0cf
%RAWIMUSA,2124,291735.408;2124,291735.407755000,00000077,412,-63957,-44,-11,12,-10*fc12ebff
%RAWIMUSA,2124,291735.418;2124,291735.417755000,00000077,375,-63972,-6,3,4,2*08bb3129
%RAWIMUSA,2124,291735.428;2124,291735.427755000,00000077,388,-63892,-35,22,13,12*45081761
%RAWIMUSA,2124,291735.438;2124,291735.437755000,00000077,416,-63961,6,0,5,-7*30747200
%RAWIMUSA,2124,291735.448;2124,291735.447755000,00000077,306,-64021,-75,0,6,-7*7dab7053
%RAWIMUSA,2124,291735.458;2124,291735.457755000,00000077,293,-64133,-28,-1,1,17*4bcd33cb
%RAWIMUSA,2124,291735.468;2124,291735.467755000,00000077,300,-64007,-10,-10,-5,-6*e8a32d95
%RAWIMUSA,2124,291735.478;2124,291735.477755000,00000077,319,-63985,13,-7,-7,-17*05507b4a
%RAWIMUSA,2124,291735.488;2124,291735.487755000,00000077,375,-63915,-52,0,3,12*8a3ea212
%RAWIMUSA,2124,291735.498;2124,291735.497755000,00000077,352,-64005,-71,13,-3,14*c9eb5e3a
%RAWIMUSA,2124,291735.508;2124,291735.507755000,00000077,309,-64048,-94,0,10,14*70cefdc4
%RAWIMUSA,2124,291735.518;2124,291735.517755000,00000077,434,-63958,14,0,13,14*ce8d4030
%RAWIMUSA,2124,291735.528;2124,291735.527755000,00000077,396,-64061,41,9,8,6*3fdeaa8b
%RAWIMUSA,2124,291735.538;2124,291735.537755000,00000077,358,-63897,0,-4,-5,5*98669211
%RAWIMUSA,2124,291735.548;2124,291735.547755000,00000077,282,-63923,65,10,15,5*100fb274
%RAWIMUSA,2124,291735.558;2124,291735.557755000,00000077,350,-63949,-75,-7,0,22*7bdca2fa
%RAWIMUSA,2124,291735.568;2124,291735.567755000,00000077,381,-63953,24,8,0,13*1996e5c1
%RAWIMUSA,2124,291735.578;2124,291735.577755000,00000077,345,-63950,63,12,-6,9*864258fd
%RAWIMUSA,2124,291735.588;2124,291735.587755000,00000077,402,-63982,52,5,14,-2*55d4c983
%RAWIMUSA,2124,291735.598;2124,291735.597755000,00000077,349,-63929,-28,19,-4,17*39a7d9fe
%RAWIMUSA,2124,291735.608;2124,291735.607755000,00000077,316,-63962,-38,1,-3,17*704a6e5a
%RAWIMUSA,2124,291735.618;2124,291735.617755000,00000077,206,-64020,-79,-5,6,-4*57e5196b
%RAWIMUSA,2124,291735.628;2124,291735.627755000,00000077,338,-64000,-8,1,5,2*eda7bf0a
%RAWIMUSA,2124,291735.638;2124,291735.637755000,00000077,338,-63969,16,3,4,14*baaee3f7
%RAWIMUSA,2124,291735.648;2124,291735.647755000,00000077,343,-63924,-31,3,14,4*4e281349
%RAWIMUSA,2124,291735.658;2124,291735.657755000,00000077,464,-64085,14,11,-12,7*8ca2c100
%RAWIMUSA,2124,291735.668;2124,291735.667755000,00000077,325,-63916,3,9,-11,2*a4289800
%RAWIMUSA,2124,291735.678;2124,291735.677755000,00000077,366,-64040,-14,10,0,9*cc429305
%RAWIMUSA,2124,291735.688;2124,291735.687755000,00000077,390,-63978,-16,3,12,22*fd53c2c2
%RAWIMUSA,2124,291735.698;2124,291735.697755000,00000077,334,-63869,-62,2,15,9*811aa64a
%RAWIMUSA,2124,291735.708;2124,291735.707755000,00000077,276,-63980,-38,-9,-5,-2*cec4fb53
%RAWIMUSA,2124,291735.718;2124,291735.717755000,00000077,381,-63909,0,38,-9,10*30a492fe
%RAWIMUSA,2124,291735.728;2124,291735.727755000,00000077,380,-63935,-3,-1,9,12*b76bb4ed
%RAWIMUSA,2124,291735.738;2124,291735.737755000,00000077,311,-63940,-74,-11,-6,14*c8099ff9
%RAWIMUSA,2124,291735.748;2124,291735.747755000,00000077,380,-64053,-127,0,15,-3*9c7fd429
%RAWIMUSA,2124,291735.758;2124,291735.757755000,00000077,357,-63983,43,0,-13,0*0302a06d
%RAWIMUSA,2124,291735.768;2124,291735.767755000,00000077,309,-63926,40,23,11,11*75d44472
%RAWIMUSA,2124,291735.778;2124,291735.777755000,00000077,248,-63885,75,6,12,1*99de218d
%RAWIMUSA,2124,291735.788;2124,291735.787755000,00000077,258,-64019,-97,0,10,-4*a5bd6f9b
%RAWIMUSA,2124,291735.798;2124,291735.797755000,00000077,347,-64046,-53,21,-6,10*37b52dbc
%RAWIMUSA,2124,291735.808;2124,291735.807755000,00000077,217,-64002,30,-3,6,6*f83248db
%RAWIMUSA,2124,291735.818;2124,291735.817755000,00000077,323,-63976,12,5,-9,17*f1071f14
%RAWIMUSA,2124,291735.828;2124,291735.827755000,00000077,335,-63959,6,6,17,15*95b9098a
%RAWIMUSA,2124,291735.838;2124,291735.837755000,00000077,400,-63994,47,5,13,7*22b16c3f
%RAWIMUSA,2124,291735.848;2124,291735.847755000,00000077,289,-64019,-13,-9,0,2*5629ebde
%RAWIMUSA,2124,291735.858;2124,291735.857755000,00000077,269,-64019,-49,11,3,16*c92b07a1
%RAWIMUSA,2124,291735.868;2124,291735.867755000,00000077,308,-64003,-16,18,-4,-4*b5ffa04d
%RAWIMUSA,2124,291735.878;2124,291735.877755000,00000077,430,-63970,-51,0,-1,1*d957374e
%RAWIMUSA,2124,291735.888;2124,291735.887755000,00000077,336,-63937,-46,11,13,14*363debcd
%RAWIMUSA,2124,291735.898;2124,291735.897755000,00000077,281,-64002,-13,7,8,4*fd1ec6e8
%RAWIMUSA,2124,291735.908;2124,291735.907755000,00000077,274,-63964,-36,13,8,-2*ebc50306
%RAWIMUSA,2124,291735.918;2124,291735.917755000,00000077,323,-64046,-36,-6,-8,27*a301a2d7
%RAWIMUSA,2124,291735.928;2124,291735.927755000,00000077,371,-63957,-55,-1,0,13*25ffa5ba
%RAWIMUSA,2124,291735.938;2124,291735.937755000,00000077,293,-64024,-35,-9,6,9*78ed8e09
%RAWIMUSA,2124,291735.948;2124,291735.947755000,00000077,335,-63982,-89,-7,-15,18*c897dfc8
%RAWIMUSA,2124,291735.958;2124,291735.957755000,00000077,352,-64023,-51,5,10,3*d1cb39e6
%RAWIMUSA,2124,291735.968;2124,291735.967755000,00000077,425,-64108,-2,5,3,2*61562fe7
%RAWIMUSA,2124,291735.978;2124,291735.977755000,00000077,277,-64017,-46,2,1,6*2123027b
%RAWIMUSA,2124,291735.988;2124,291735.987755000,00000077,290,-64019,-16,2,1,-10*c07b615f
%RAWIMUSA,2124,291735.998;2124,291735.997755000,00000077,313,-63911,40,4,-1,-3*a0b3758b
%RAWIMUSA,2124,291736.008;2124,291736.007755000,00000077,306,-63956,0,-6,17,8*0c80c0b6
%RAWIMUSA,2124,291736.018;2124,291736.017755000,00000077,346,-63955,-47,10,-4,4*c2d10a15
%RAWIMUSA,2124,291736.028;2124,291736.027755000,00000077,335,-63922,-56,-3,13,19*69a759e6
%RAWIMUSA,2124,291736.038;2124,291736.037755000,00000077,341,-63979,128,3,2,0*953137d2
%RAWIMUSA,2124,291736.048;2124,291736.047755000,00000077,391,-63952,-43,15,-14,12*f90377f7
%RAWIMUSA,2124,291736.058;2124,291736.057755000,00000077,326,-64035,20,8,-1,11*ddcec529
%RAWIMUSA,2124,291736.068;2124,291736.067755000,00000077,198,-63876,-65,2,-7,6*0f370f5b
%RAWIMUSA,2124,291736.078;2124,291736.077755000,00000077,374,-64059,-96,-5,-3,12*5cae4ebf
%RAWIMUSA,2124,291736.088;2124,291736.087755000,00000077,306,-63957,57,8,14,16*33f8fe49
%RAWIMUSA,2124,291736.098;2124,291736.097755000,00000077,275,-64021,-14,11,-3,-8*31a238e4
%RAWIMUSA,2124,291736.108;2124,291736.107755000,00000077,338,-63926,14,-4,9,-12*5d1e8b49
%RAWIMUSA,2124,291736.118;2124,291736.117755000,00000077,464,-63983,-6,-10,-1,18*ccf2bc01
%RAWIMUSA,2124,291736.128;2124,291736.127755000,00000077,331,-64057,-21,1,16,0*47d2b485
%RAWIMUSA,2124,291736.138;2124,291736.137755000,00000077,348,-63953,-27,7,8,0*4b87b307
%RAWIMUSA,2124,291736.148;2124,291736.147755000,00000077,352,-63971,-40,3,2,12*8ac186b8
%RAWIMUSA,2124,291736.158;2124,291736.157755000,00000077,481,-64005,38,5,0,9*5912cd8a
%RAWIMUSA,2124,291736.168;2124,291736.167755000,00000077,239,-64070,-30,-8,-5,7*bf7bf355
%RAWIMUSA,2124,291736.178;2124,291736.177755000,00000077,262,-63977,-95,7,1,-13*88a7bfca
%RAWIMUSA,2124,291736.188;2124,291736.187755000,00000077,376,-64037,-81,13,23,-1*1a22552a
%RAWIMUSA,2124,291736.198;2124,291736.197755000,00000077,240,-63970,8,7,6,22*01898c48
%RAWIMUSA,2124,291736.208;2124,291736.207755000,00000077,322,-64067,-6,5,-5,5*092c7c00
%RAWIMUSA,2124,291736.218;2124,291736.217755000,00000077,307,-63934,-79,-2,-1,6*8c96b0f7
%RAWIMUSA,2124,291736.228;2124,291736.227755000,00000077,329,-63972,-113,4,-12,8*cf342568
%RAWIMUSA,2124,291736.238;2124,291736.237755000,00000077,400,-63870,-43,6,0,6*a11aae03
%RAWIMUSA,2124,291736.248;2124,291736.247755000,00000077,313,-64100,15,0,2,1*15fca1b2
%RAWIMUSA,2124,291736.258;2124,291736.257755000,00000077,334,-63982,81,-9,-2,18*7a164c74
%RAWIMUSA,2124,291736.268;2124,291736.267755000,00000077,410,-64031,-49,1,0,12*0109f0ac
%RAWIMUSA,2124,291736.278;2124,291736.277755000,00000077,393,-63973,41,11,0,7*ceb34792
%RAWIMUSA,2124,291736.288;2124,291736.287755000,00000077,380,-63917,9,-2,17,13*7338748c
%RAWIMUSA,2124,291736.298;2124,291736.297755000,00000077,348,-63961,31,0,2,3*4c095286
%RAWIMUSA,2124,291736.308;2124,291736.307755000,00000077,409,-64038,-96,23,12,5*b9d09740
%RAWIMUSA,2124,291736.318;2124,291736.317755000,00000077,380,-64014,7,9,-4,26*f754ad9d
%RAWIMUSA,2124,291736.328;2124,291736.327755000,00000077,385,-63995,-20,0,0,14*3736cabd
%RAWIMUSA,2124,291736.338;2124,291736.337755000,00000077,327,-64011,-5,-23,11,10*4cc88ea5
%RAWIMUSA,2124,291736.348;2124,291736.347755000,00000077,340,-63962,-99,17,0,4*88c5fd6e
%RAWIMUSA,2124,291736.358;2124,291736.357755000,00000077,408,-63966,-9,0,-6,13*834f4def
%RAWIMUSA,2124,291736.368;2124,291736.367755000,00000077,361,-63943,-19,2,8,1*35dc5c99
%RAWIMUSA,2124,291736.378;2124,291736.377755000,00000077,248,-63994,-78,-10,2,-3*f972ea52
%RAWIMUSA,2124,291736.388;2124,291736.387755000,00000077,399,-63815,-81,0,7,8*cc33bb64
%RAWIMUSA,2124,291736.398;2124,291736.397755000,00000077,273,-63958,-71,15,3,15*7c545fca
%RAWIMUSA,2124,291736.408;2124,291736.407755000,00000077,344,-63943,-42,-2,6,11*4e396c0f
%RAWIMUSA,2124,291736.418;2124,291736.417755000,00000077,374,-64085,-64,-6,-3,-6*9aaeaf97
%RAWIMUSA,2124,291736.428;2124,291736.427755000,00000077,394,-64001,-155,3,1,0*7d1e6112
%RAWIMUSA,2124,291736.438;2124,291736.437755000,00000077,353,-63951,63,12,14,12*2e7a39ef
%RAWIMUSA,2124,291736.448;2124,291736.447755000,00000077,364,-63887,-62,18,8,2*190c247f
%RAWIMUSA,2124,291736.458;2124,291736.457755000,00000077,413,-63896,-29,2,-6,3*277fd6e3
%RAWIMUSA,2124,291736.468;2124,291736.467755000,00000077,289,-63960,-36,0,-6,1*d9abbb05
%RAWIMUSA,2124,291736.478;2124,291736.477755000,00000077,342,-63867,-42,11,6,2*281ffb66
%RAWIMUSA,2124,291736.488;2124,291736.487755000,00000077,316,-63859,55,-13,11,4*bff6bc82
%RAWIMUSA,2124,291736.498;2124,291736.497755000,00000077,372,-63996,-43,11,2,4*e6559f6a
%RAWIMUSA,2124,291736.508;2124,291736.507755000,00000077,297,-63878,-10,7,9,9*e85389ae
%RAWIMUSA,2124,291736.518;2124,291736.517755000,00000077,426,-64022,45,-1,-1,11*5064132c
%RAWIMUSA,2124,291736.528;2124,291736.527755000,00000077,391,-63927,4,1,17,5*6f350041
%RAWIMUSA,2124,291736.538;2124,291736.537755000,00000077,343,-64043,-98,-8,2,0*1ff913ed
%RAWIMUSA,2124,291736.548;2124,291736.547755000,00000077,422,-63962,-115,3,2,6*348b8b87
%RAWIMUSA,2124,291736.558;2124,291736.557755000,00000077,343,-63989,-66,2,-5,10*f2ef4a74
%RAWIMUSA,2124,291736.568;2124,291736.567755000,00000077,270,-63958,-53,5,-17,-3*76ec2247
%RAWIMUSA,2124,291736.578;2124,291736.577755000,00000077,341,-63921,-36,1,4,-7*1e257e47
%RAWIMUSA,2124,291736.588;2124,291736.587755000,00000077,330,-63911,-130,-3,-1,-1*9adad9a4
%RAWIMUSA,2124,291736.598;2124,291736.597755000,00000077,396,-64013,-17,9,-9,10*e34e95f8
%RAWIMUSA,2124,291736.608;2124,291736.607755000,00000077,397,-63853,80,12,7,16*ff01b5d8
%RAWIMUSA,2124,291736.618;2124,291736.617755000,00000077,370,-63961,-24,-12,7,-10*2defc6d6
%RAWIMUSA,2124,291736.628;2124,291736.627755000,00000077,302,-63982,-100,-13,-2,5*91a97724
%RAWIMUSA,2124,291736.638;2124,291736.637755000,00000077,453,-63919,-69,1,-13,25*1b128510
%RAWIMUSA,2124,291736.648;2124,291736.647755000,00000077,343,-63989,25,8,9,5*244e4635
%RAWIMUSA,2124,291736.658;2124,291736.657755000,00000077,266,-64004,-16,10,4,0*92b0bcc3
%RAWIMUSA,2124,291736.668;2124,291736.667755000,00000077,325,-64006,-76,-6,14,8*547fbd64
%RAWIMUSA,2124,291736.678;2124,291736.677755000,00000077,371,-63917,-10,0,-10,6*e9e3fe34
%RAWIMUSA,2124,291736.688;2124,291736.687755000,00000077,329,-63894,37,8,-5,1*e00f928a
%RAWIMUSA,2124,291736.698;2124,291736.697755000,00000077,377,-63958,-31,6,1,-9*65d638af
%RAWIMUSA,2124,291736.708;2124,291736.707755000,00000077,346,-63991,-53,-15,8,22*b775885c
%RAWIMUSA,2124,291736.718;2124,291736.717755000,00000077,359,-63863,23,-14,-16,19*aa1bb4e8
%RAWIMUSA,2124,291736.728;2124,291736.727755000,00000077,342,-64066,-107,0,10,11*87b42115
%RAWIMUSA,2124,291736.738;2124,291736.737755000,00000077,316,-63922,-67,5,-3,1*083979cc
%RAWIMUSA,2124,291736.748;2124,291736.747755000,00000077,372,-63923,-98,-1,16,9*be307cb3
%RAWIMUSA,2124,291736.758;2124,291736.757755000,00000077,317,-63942,60,6,-8,8*fd69120b
%RAWIMUSA,2124,291736.768;2124,291736.767755000,00000077,368,-63947,-25,3,-3,17*ef5c17a2
%RAWIMUSA,2124,291736.778;2124,291736.777755000,00000077,380,-63956,6,8,-3,-3*28db438b
%RAWIMUSA,2124,291736.788;2124,291736.787755000,00000077,345,-64009,-48,10,-1,13*10112384
%RAWIMUSA,2124,291736.798;2124,291736.797755000,00000077,426,-63878,-28,-9,-15,12*de2547d7
%RAWIMUSA,2124,291736.808;2124,291736.807755000,00000077,366,-63948,-66,8,17,6*d9ab7005
%RAWIMUSA,2124,291736.818;2124,291736.817755000,00000077,379,-63933,11,5,20,-1*b1d1d94b
%RAWIMUSA,2124,291736.828;2124,291736.827755000,00000077,408,-64003,-103,-1,-6,15*7b87c1e5
%RAWIMUSA,2124,291736.838;2124,291736.837755000,00000077,383,-63951,-89,-5,5,-1*84b1a37f
%RAWIMUSA,2124,291736.848;2124,291736.847755000,00000077,343,-63975,-70,6,-16,2*07b206f0
%RAWIMUSA,2124,291736.858;2124,291736.857755000,00000077,343,-63996,16,0,-8,-5*befad4ad
%RAWIMUSA,2124,291736.868;2124,291736.867755000,00000077,372,-63989,-61,18,0,12*a56fb228
%RAWIMUSA,2124,291736.878;2124,291736.877755000,00000077,311,-63876,32,3,6,-8*f9cfa546
%RAWIMUSA,2124,291736.888;2124,291736.887755000,00000077,261,-63948,54,2,0,-2*3d13365a
%RAWIMUSA,2124,291736.898;2124,291736.897755000,00000077,316,-63898,-37,1,-6,21*7f8baecf
%RAWIMUSA,2124,291736.908;2124,291736.907755000,00000077,372,-63999,-110,11,-12,1*c1c9c11d
%RAWIMUSA,2124,291736.918;2124,291736.917755000,00000077,313,-63933,-99,6,6,5*3cba18ae
%RAWIMUSA,2124,291736.928;2124,291736.927755000,00000077,320,-63921,-9,7,3,3*4d43888a
%RAWIMUSA,2124,291736.938;2124,291736.937755000,00000077,381,-64077,-61,-4,7,11*56f1b784
%RAWIMUSA,2124,291736.948;2124,291736.947755000,00000077,358,-63888,55,7,3,-7*aee5991c
%RAWIMUSA,2124,291736.958;2124,291736.957755000,00000077,278,-63902,-72,-5,0,27*5c9404a4
%RAWIMUSA,2124,291736.968;2124,291736.967755000,00000077,279,-63916,-38,10,6,16*7d714197
%RAWIMUSA,2124,291736.978;2124,291736.977755000,00000077,370,-63950,-38,2,7,7*8ec942e3
%RAWIMUSA,2124,291736.988;2124,291736.987755000,00000077,361,-63964,7,-17,25,17*d5a65dfa
%RAWIMUSA,2124,291736.998;2124,291736.997755000,00000077,225,-63970,89,8,-3,2*95eab848
%RAWIMUSA,2124,291737.008;2124,291737.007755000,00000077,338,-63968,3,-5,11,-7*d66344d1
%RAWIMUSA,2124,291737.018;2124,291737.017755000,00000077,388,-63928,-139,-1,-2,9*8cf129c4
%RAWIMUSA,2124,291737.028;2124,291737.027755000,00000077,375,-63953,-70,27,4,11*8746e3bb
%RAWIMUSA,2124,291737.038;2124,291737.037755000,00000077,252,-63875,-48,0,-16,14*2afa669c
%RAWIMUSA,2124,291737.048;2124,291737.047755000,00000077,418,-64025,-33,9,28,15*3d4c252a
%RAWIMUSA,2124,291737.058;2124,291737.057755000,00000077,345,-63968,-92,8,-1,0*04490dc6
%RAWIMUSA,2124,291737.068;2124,291737.067755000,00000077,291,-63938,-107,-4,1,1*235efc5c
%RAWIMUSA,2124,291737.078;2124,291737.077755000,00000077,349,-64055,-86,4,-2,13*6ed11342
%RAWIMUSA,2124,291737.088;2124,291737.087755000,00000077,367,-63930,-17,3,3,-4*55c79468
%RAWIMUSA,2124,291737.098;2124,291737.097755000,00000077,339,-63898,-74,-2,20,28*cdb51533
%RAWIMUSA,2124,291737.108;2124,291737.107755000,00000077,373,-63864,42,6,14,9*2bfc95bc
%RAWIMUSA,2124,291737.118;2124,291737.117755000,00000077,441,-63990,62,2,2,19*b547e48d
%RAWIMUSA,2124,291737.128;2124,291737.127755000,00000077,357,-63960,-30,-9,3,20*fbd0e95b
%RAWIMUSA,2124,291737.138;2124,291737.137755000,00000077,364,-63953,18,-7,12,9*a20e2612
%RAWIMUSA,2124,291737.148;2124,291737.147755000,00000077,274,-63979,-48,-9,3,22*1202fb1d
%RAWIMUSA,2124,291737.158;2124,291737.157755000,00000077,398,-64013,13,3,-10,24*b10582c2
%RAWIMUSA,2124,291737.168;2124,291737.167755000,00000077,352,-64088,-128,-5,2,19*f2322aad
%RAWIMUSA,2124,291737.178;2124,291737.177755000,00000077,389,-63985,-34,2,-19,9*37316e37
%RAWIMUSA,2124,291737.188;2124,291737.187755000,00000077,443,-63975,-73,14,-6,12*567a64a4
%RAWIMUSA,2124,291737.198;2124,291737.197755000,00000077,307,-63840,-5,-3,9,2*bc970d3f
%RAWIMUSA,2124,291737.208;2124,291737.207755000,00000077,415,-63926,-6,-2,9,14*564f2780
%RAWIMUSA,2124,291737.218;2124,291737.217755000,00000077,434,-63924,-120,18,-8,2*35549038
%RAWIMUSA,2124,291737.228;2124,291737.227755000,00000077,424,-63967,17,6,0,26*cbdc909f
%RAWIMUSA,2124,291737.238;2124,291737.237755000,00000077,379,-64057,40,8,3,12*baff47c3
%RAWIMUSA,2124,291737.248;2124,291737.247755000,00000077,341,-63965,3,6,23,3*0a3c0e0a
%RAWIMUSA,2124,291737.258;2124,291737.257755000,00000077,445,-63866,70,9,-12,1*ad138448
%RAWIMUSA,2124,291737.268;2124,291737.267755000,00000077,237,-63898,-64,15,-6,5*aaef9870
%RAWIMUSA,2124,291737.278;2124,291737.277755000,00000077,410,-63944,-33,9,5,10*96d82008
%RAWIMUSA,2124,291737.288;2124,291737.287755000,00000077,374,-63920,-7,16,-2,4*4bd852be
%RAWIMUSA,2124,291737.298;2124,291737.297755000,00000077,462,-63961,32,7,-11,-5*8a7b34a1
%RAWIMUSA,2124,291737.308;2124,291737.307755000,00000077,351,-63934,-45,2,17,-2*e1b07c30
%RAWIMUSA,2124,291737.318;2124,291737.317755000,00000077,408,-63924,-11,0,14,7*efe72f42
%RAWIMUSA,2124,291737.328;2124,291737.327755000,00000077,399,-63949,36,7,-8,-1*2bdb2174
%RAWIMUSA,2124,291737.338;2124,291737.337755000,00000077,393,-63938,50,17,1,1*93b57439
%RAWIMUSA,2124,291737.348;2124,291737.347755000,00000077,464,-64001,14,-5,6,25*90d8c2bb
%RAWIMUSA,2124,291737.358;2124,291737.357755000,00000077,364,-63915,-39,4,4,4*aa9ec763
%RAWIMUSA,2124,291737.368;2124,291737.367755000,00000077,433,-63926,1,4,-1,2*f6e7ce8d
%RAWIMUSA,2124,291737.378;2124,291737.377755000,00000077,310,-64019,10,-9,-7,0*86784f0a
%RAWIMUSA,2124,291737.388;2124,291737.387755000,00000077,379,-64036,-57,32,3,20*8f7a6ed8
%RAWIMUSA,2124,291737.398;2124,291737.397755000,00000077,410,-64002,-22,3,-2,14*d22092a5
%RAWIMUSA,2124,291737.408;2124,291737.407755000,00000077,434,-63906,-55,13,2,1*556bb335
%RAWIMUSA,2124,291737.418;2124,291737.417755000,00000077,329,-63902,-70,4,3,10*438e3fe9
%RAWIMUSA,2124,291737.428;2124,291737.427755000,00000077,237,-64024,-84,5,11,-3*08fde87f
%RAWIMUSA,2124,291737.438;2124,291737.437755000,00000077,381,-63928,-39,0,0,15*f5a9fd5a
%RAWIMUSA,2124,291737.448;2124,291737.447755000,00000077,267,-64078,-32,-3,-3,4*bc31aa0f
%RAWIMUSA,2124,291737.458;2124,291737.457755000,00000077,361,-63922,-45,6,2,10*89dc6c14
%RAWIMUSA,2124,291737.468;2124,291737.467755000,00000077,354,-63906,17,-3,13,4*a2a5e599
%RAWIMUSA,2124,291737.478;2124,291737.477755000,00000077,431,-63879,16,4,2,3*646c9505
%RAWIMUSA,2124,291737.488;2124,291737.487755000,00000077,322,-63939,22,6,-3,-7*45620480
%RAWIMUSA,2124,291737.498;2124,291737.497755000,00000077,387,-64065,-47,4,4,5*54f6c639
%RAWIMUSA,2124,291737.508;2124,291737.507755000,00000077,359,-63880,14,27,0,23*69494dba
%RAWIMUSA,2124,291737.518;2124,291737.517755000,00000077,355,-63964,-35,-1,-6,3*c348d96b
%RAWIMUSA,2124,291737.528;2124,291737.527755000,00000077,336,-64002,-63,3,14,5*e4a4aba8
%RAWIMUSA,2124,291737.538;2124,291737.537755000,00000077,323,-63929,-24,-8,11,0*97e1a94f
%RAWIMUSA,2124,291737.548;2124,291737.547755000,00000077,403,-63995,5,-3,11,-5*fe9a8d53
%RAWIMUSA,2124,291737.558;2124,291737.557755000,00000077,384,-63987,-84,-8,0,0*32fa1c5b
%RAWIMUSA,2124,291737.568;2124,291737.567755000,00000077,303,-63943,-146,-10,-5,-6*1c6cead7
%RAWIMUSA,2124,291737.578;2124,291737.577755000,00000077,362,-63930,15,9,-10,-3*780f1fee
%RAWIMUSA,2124,291737.588;2124,291737.587755000,00000077,369,-63925,-4,7,-1,23*a8c3cb36
%RAWIMUSA,2124,291737.598;2124,291737.597755000,00000077,263,-64025,-81,9,-11,13*266e3c1d
%RAWIMUSA,2124,291737.608;2124,291737.607755000,00000077,277,-63997,68,-5,19,23*b92f575e
%RAWIMUSA,2124,291737.618;2124,291737.617755000,00000077,357,-64119,-13,4,3,1*1d1dca74
%RAWIMUSA,2124,291737.628;2124,291737.627755000,00000077,357,-63950,46,-11,15,5*dd24651a
%RAWIMUSA,2124,291737.638;2124,291737.637755000,00000077,399,-64026,37,-4,2,17*d2eac2a1
%RAWIMUSA,2124,291737.648;2124,291737.647755000,00000077,322,-63900,6,7,-3,1*61a848bb
%RAWIMUSA,2124,291737.658;2124,291737.657755000,00000077,273,-63993,35,5,13,4*56a3a362
%RAWIMUSA,2124,291737.668;2124,291737.667755000,00000077,331,-64012,13,-1,10,19*1643de1d
%RAWIMUSA,2124,291737.678;2124,291737.677755000,00000077,375,-63997,-3,-5,3,3*5245064a
%RAWIMUSA,2124,291737.688;2124,291737.687755000,00000077,327,-63928,34,-2,-7,16*6df39d9a
%RAWIMUSA,2124,291737.698;2124,291737.697755000,00000077,367,-64046,-130,18,-3,0*b1a8d4d6
%RAWIMUSA,2124,291737.708;2124,291737.707755000,00000077,395,-63961,34,2,6,2*f499d00f
%RAWIMUSA,2124,291737.718;2124,291737.717755000,00000077,338,-64083,-110,-5,-13,8*c1d765f7
%RAWIMUSA,2124,291737.728;2124,291737.727755000,00000077,302,-64135,-25,-5,0,-1*c2e6ac5c
%RAWIMUSA,2124,291737.738;2124,291737.737755000,00000077,379,-64047,-57,-4,10,0*53222873
%RAWIMUSA,2124,291737.748;2124,291737.747755000,00000077,341,-63915,128,-2,0,29*3f881bdf
%RAWIMUSA,2124,291737.758;2124,291737.757755000,00000077,266,-64059,-17,11,-5,10*5194fabc
%RAWIMUSA,2124,291737.768;2124,291737.767755000,00000077,347,-63960,-45,11,5,0*92f81f7c
%RAWIMUSA,2124,291737.778;2124,291737.777755000,00000077,346,-64027,-100,2,0,-4*8ff254d3
%RAWIMUSA,2124,291737.788;2124,291737.787755000,00000077,370,-63971,-54,7,11,0*632793e7
%RAWIMUSA,2124,291737.798;2124,291737.797755000,00000077,414,-63892,-85,12,16,24*2d8378de
%RAWIMUSA,2124,291737.808;2124,291737.807755000,00000077,345,-63858,-20,15,-8,14*63a1a1d9
%RAWIMUSA,2124,291737.818;2124,291737.817755000,00000077,325,-63955,6,0,14,14*3b2ec821
%RAWIMUSA,2124,291737.828;2124,291737.827755000,00000077,276,-63858,-11,-2,19,22*c7ce1ba0
%RAWIMUSA,2124,291737.838;2124,291737.837755000,00000077,328,-64122,-28,-2,-2,8*4d53fd27
%RAWIMUSA,2124,291737.848;2124,291737.847755000,00000077,247,-63886,140,-5,17,16*865a2fc9
%RAWIMUSA,2124,291737.858;2124,291737.857755000,00000077,352,-63976,-68,4,-3,-9*2abf7e97
%RAWIMUSA,2124,291737.868;2124,291737.867755000,00000077,345,-63894,35,6,-8,10*c4c692f1
%RAWIMUSA,2124,291737.878;2124,291737.877755000,00000077,401,-63921,-29,1,8,3*c28ce737
%RAWIMUSA,2124,291737.888;2124,291737.887755000,00000077,250,-63860,2,6,11,3*be9ba404
%RAWIMUSA,2124,291737.898;2124,291737.897755000,00000077,340,-63913,-19,8,6,4*39240ef1
%RAWIMUSA,2124,291737.908;2124,291737.907755000,00000077,374,-63901,-141,10,-5,9*7faa7337
%RAWIMUSA,2124,291737.918;2124,291737.917755000,00000077,342,-64094,-41,10,0,21*a16f374d
%RAWIMUSA,2124,291737.928;2124,291737.927755000,00000077,395,-63857,5,3,9,8*ad1734e1
%RAWIMUSA,2124,291737.938;2124,291737.937755000,00000077,298,-63996,-85,13,5,4*20355280
%RAWIMUSA,2124,291737.948;2124,291737.947755000,00000077,271,-63982,96,1,-2,15*2d62badf
%RAWIMUSA,2124,291737.958;2124,291737.957755000,00000077,306,-64021,-24,4,3,-2*c56a497f
%RAWIMUSA,2124,291737.968;2124,291737.967755000,00000077,371,-63901,-42,7,1,6*51f9df40
%RAWIMUSA,2124,291737.978;2124,291737.977755000,00000077,422,-64085,-2,-7,-7,16*f414c896
%RAWIMUSA,2124,291737.988;2124,291737.987755000,00000077,342,-63863,-53,-8,0,7*9a790165
%RAWIMUSA,2124,291737.998;2124,291737.997755000,00000077,385,-64043,129,25,-11,10*f3f465f2
%RAWIMUSA,2124,291738.008;2124,291738.007755000,00000077,314,-63879,71,13,-5,-3*04db14c1
%RAWIMUSA,2124,291738.018;2124,291738.017755000,00000077,274,-63962,-95,8,3,22*385cf037
%RAWIMUSA,2124,291738.028;2124,291738.027755000,00000077,444,-63910,-108,5,21,17*b91d7ac3
%RAWIMUSA,2124,291738.038;2124,291738.037755000,00000077,429,-64049,37,8,9,10*cc6f56dd
%RAWIMUSA,2124,291738.048;2124,291738.047755000,00000077,323,-63830,72,2,3,-4*27a53f66
%RAWIMUSA,2124,291738.058;2124,291738.057755000,00000077,411,-63982,-40,20,-2,21*df33f5b6
%RAWIMUSA,2124,291738.068;2124,291738.067755000,00000077,308,-63872,41,-1,-1,-13*ca493e33
%RAWIMUSA,2124,291738.078;2124,291738.077755000,00000077,303,-63987,-106,2,-14,24*d9c94b5c
%RAWIMUSA,2124,291738.088;2124,291738.087755000,00000077,254,-63940,1,-12,0,10*c457d333
%RAWIMUSA,2124,291738.098;2124,291738.097755000,00000077,385,-64106,24,7,0,13*f46b2286
%RAWIMUSA,2124,291738.108;2124,291738.107755000,00000077,272,-63838,-91,10,5,-15*91e45cad
%RAWIMUSA,2124,291738.118;2124,291738.117755000,00000077,359,-63948,-58,0,7,23*0bde8ac9
%RAWIMUSA,2124,291738.128;2124,291738.127755000,00000077,321,-63955,-2,7,6,-10*866e4f40
%RAWIMUSA,2124,291738.138;2124,291738.137755000,00000077,333,-63997,33,-8,-4,44*55847f3c
%RAWIMUSA,2124,291738.148;2124,291738.147755000,00000077,351,-63970,33,3,13,-27*b44d97c5
%RAWIMUSA,2124,291738.158;2124,291738.157755000,00000077,326,-63958,9,16,1,29*8e19d277
%RAWIMUSA,2124,291738.168;2124,291738.167755000,00000077,330,-63892,-108,0,11,-13*40626506
%RAWIMUSA,2124,291738.178;2124,291738.177755000,00000077,360,-63880,-37,8,4,29*7fca4ec1
%RAWIMUSA,2124,291738.188;2124,291738.187755000,00000077,429,-63907,25,1,-19,-24*54881b61
%RAWIMUSA,2124,291738.198;2124,291738.197755000,00000077,360,-64050,41,9,5,21*b6eb5ddb
%RAWIMUSA,2124,291738.208;2124,291738.207755000,00000077,417,-63933,-31,5,-4,-12*2b1d0dba
%RAWIMUSA,2124,291738.218;2124,291738.217755000,00000077,312,-63952,13,11,3,25*c94b745d
%RAWIMUSA,2124,291738.228;2124,291738.227755000,00000077,346,-63963,37,13,1,-10*923e38f9
%RAWIMUSA,2124,291738.238;2124,291738.237755000,00000077,402,-63990,78,13,4,27*db058951
%RAWIMUSA,2124,291738.248;2124,291738.247755000,00000077,344,-63884,-17,-3,-1,-24*c7530d5f
%RAWIMUSA,2124,291738.258;2124,291738.257755000,00000077,349,-64070,-65,1,2,47*8a4d52ad
%RAWIMUSA,2124,291738.268;2124,291738.267755000,00000077,303,-63877,-6,4,9,-17*3c14dc28
%RAWIMUSA,2124,291738.278;2124,291738.277755000,00000077,429,-63958,-71,-4,5,41*d2ef8883
%RAWIMUSA,2124,291738.288;2124,291738.287755000,00000077,361,-64031,56,0,-5,-19*cd883108
%RAWIMUSA,2124,291738.298;2124,291738.297755000,00000077,327,-63837,-48,4,0,33*3a9d5085
