%RAWIMUSA,2124,292776.248;2124,292776.247755000,00000077,-64018,174,-467,8,19,25*4af7f2bf
%RAWIMUSA,2124,292776.258;2124,292776.257755000,00000077,-63951,189,-565,0,1,2*e1738c03
%RAWIMUSA,2124,292776.268;2124,292776.267755000,00000077,-63980,250,-527,12,0,-4*8b53d842
%RAWIMUSA,2124,292776.278;2124,292776.277755000,00000077,-63951,198,-520,-5,2,16*8799e048
%RAWIMUSA,2124,292776.288;2124,292776.287755000,00000077,-64028,221,-506,9,-3,-6*08166d0b
%RAWIMUSA,2124,292776.298;2124,292776.297755000,00000077,-63874,283,-548,2,5,6*d4a8ce7e
%RAWIMUSA,2124,292776.308;2124,292776.307755000,00000077,-63930,178,-477,-2,6,23*c7dd71c4
%RAWIMUSA,2124,292776.318;2124,292776.317755000,00000077,-64038,212,-538,0,-8,-1*be8d5385
%RAWIMUSA,2124,292776.328;2124,292776.327755000,00000077,-63948,311,-506,-6,4,0*3be7d5f7
%RAWIMUSA,2124,292776.338;2124,292776.337755000,00000077,-63911,303,-420,4,-2,9*3d16d05c
%RAWIMUSA,2124,292776.348;2124,292776.347755000,00000077,-63878,279,-487,6,4,0*70c72c03
%RAWIMUSA,2124,292776.358;2124,292776.357755000,00000077,-63887,199,-487,1,8,2*8796ad66
%RAWIMUSA,2124,292776.368;2124,292776.367755000,00000077,-63936,148,-523,-2,6,3*9f93fb64
%RAWIMUSA,2124,292776.378;2124,292776.377755000,00000077,-63860,206,-510,16,5,12*86425591
%RAWIMUSA,2124,292776.388;2124,292776.387755000,00000077,-63983,190,-485,-7,8,-1*fd13c4dc
%RAWIMUSA,2124,292776.398;2124,292776.397755000,00000077,-63921,154,-496,-3,13,-5*00038003
%RAWIMUSA,2124,292776.408;2124,292776.407755000,00000077,-63928,232,-410,-3,2,4*25619821
%RAWIMUSA,2124,292776.418;2124,292776.417755000,00000077,-63833,210,-550,21,7,-4*231a1146
%RAWIMUSA,2124,292776.428;2124,292776.427755000,00000077,-63859,305,-551,0,1,11*8a819645
%RAWIMUSA,2124,292776.438;2124,292776.437755000,00000077,-63921,127,-531,6,3,22*7c564265
%RAWIMUSA,2124,292776.448;2124,292776.447755000,00000077,-63958,228,-428,-5,5,8*ac1b91e8
%RAWIMUSA,2124,292776.458;2124,292776.457755000,00000077,-63943,196,-623,-6,0,7*68fa8666
%RAWIMUSA,2124,292776.468;2124,292776.467755000,00000077,-63963,195,-584,1,5,13*36539a99
%RAWIMUSA,2124,292776.478;2124,292776.477755000,00000077,-63997,154,-466,12,-2,19*af606df9
%RAWIMUSA,2124,292776.488;2124,292776.487755000,00000077,-63925,231,-440,-8,5,0*23abee78
%RAWIMUSA,2124,292776.498;2124,292776.497755000,00000077,-63889,252,-479,0,4,-1*60a184a7
%RAWIMUSA,2124,292776.508;2124,292776.507755000,00000077,-63993,261,-474,-11,-3,9*622bbe35
%RAWIMUSA,2124,292776.518;2124,292776.517755000,00000077,-63992,222,-393,-3,15,8*febc4351
%RAWIMUSA,2124,292776.528;2124,292776.527755000,00000077,-63987,242,-397,3,13,4*f1d8b5aa
%RAWIMUSA,2124,292776.538;2124,292776.537755000,00000077,-64013,220,-521,-7,8,6*487bed41
%RAWIMUSA,2124,292776.548;2124,292776.547755000,00000077,-63954,196,-443,-5,1,27*27a6f068
%RAWIMUSA,2124,292776.558;2124,292776.557755000,00000077,-63986,197,-379,0,0,11*1c1cff1f
%RAWIMUSA,2124,292776.568;2124,292776.567755000,00000077,-63864,256,-546,-9,12,6*fe84089d
%RAWIMUSA,2124,292776.578;2124,292776.577755000,00000077,-63965,220,-483,-8,23,15*c58a9ec4
%RAWIMUSA,2124,292776.588;2124,292776.587755000,00000077,-63921,203,-595,0,20,6*9f08fe9a
%RAWIMUSA,2124,292776.598;2124,292776.597755000,00000077,-63900,225,-490,8,11,5*2f2fb7ee
%RAWIMUSA,2124,292776.608;2124,292776.607755000,00000077,-64009,197,-522,4,2,-4*911c1f84
%RAWIMUSA,2124,292776.618;2124,292776.617755000,00000077,-63950,157,-532,-2,-6,1*885c0540
%RAWIMUSA,2124,292776.628;2124,292776.627755000,00000077,-64003,312,-520,9,5,10*19646c56
%RAWIMUSA,2124,292776.638;2124,292776.637755000,00000077,-63961,166,-465,0,14,7*629e72b3
%RAWIMUSA,2124,292776.648;2124,292776.647755000,00000077,-63904,170,-397,10,4,8*2cb07c43
%RAWIMUSA,2124,292776.658;2124,292776.657755000,00000077,-63963,172,-518,-10,8,-1*b7309ef9
%RAWIMUSA,2124,292776.668;2124,292776.667755000,00000077,-63867,168,-457,0,3,-3*214830e3
%RAWIMUSA,2124,292776.678;2124,292776.677755000,00000077,-63977,158,-522,4,7,15*0fec87ab
%RAWIMUSA,2124,292776.688;2124,292776.687755000,00000077,-63967,217,-459,6,6,8*b680a874
%RAWIMUSA,2124,292776.698;2124,292776.697755000,00000077,-64001,237,-497,10,9,0*f4bbdaf7
%RAWIMUSA,2124,292776.708;2124,292776.707755000,00000077,-63920,167,-576,0,-9,8*3b266f3c
%RAWIMUSA,2124,292776.718;2124,292776.717755000,00000077,-63954,231,-456,4,5,14*0dd527bc
%RAWIMUSA,2124,292776.728;2124,292776.727755000,00000077,-63946,196,-618,10,18,4*2dc461cd
%RAWIMUSA,2124,292776.738;2124,292776.737755000,00000077,-63920,107,-497,14,4,8*0fe5eb99
%RAWIMUSA,2124,292776.748;2124,292776.747755000,00000077,-63970,248,-508,-2,3,4*0384907c
%RAWIMUSA,2124,292776.758;2124,292776.757755000,00000077,-63902,193,-472,16,-7,2*1bf3b9f6
%RAWIMUSA,2124,292776.768;2124,292776.767755000,00000077,-63905,184,-526,1,-6,-10*bb1505b1
%RAWIMUSA,2124,292776.778;2124,292776.777755000,00000077,-63972,281,-509,14,-5,0*1bde54ec
%RAWIMUSA,2124,292776.788;2124,292776.787755000,00000077,-63976,262,-574,-4,0,4*f147a544
%RAWIMUSA,2124,292776.798;2124,292776.797755000,00000077,-64008,243,-421,4,5,-3*c6cdb9a6
%RAWIMUSA,2124,292776.808;2124,292776.807755000,00000077,-63945,200,-466,-10,2,3*1bab9692
%RAWIMUSA,2124,292776.818;2124,292776.817755000,00000077,-63955,227,-473,-7,4,5*03a67e95
%RAWIMUSA,2124,292776.828;2124,292776.827755000,00000077,-63948,191,-487,-3,20,24*01eee0a5
%RAWIMUSA,2124,292776.838;2124,292776.837755000,00000077,-63939,186,-539,7,10,0*7b4fb4c2
%RAWIMUSA,2124,292776.848;2124,292776.847755000,00000077,-63962,103,-554,-2,-14,21*4bbae2fa
%RAWIMUSA,2124,292776.858;2124,292776.857755000,00000077,-63947,252,-372,-3,8,10*94574549
%RAWIMUSA,2124,292776.868;2124,292776.867755000,00000077,-63949,227,-519,-7,2,29*994d9a75
%RAWIMUSA,2124,292776.878;2124,292776.877755000,00000077,-63929,207,-447,0,9,-2*69cba581
%RAWIMUSA,2124,292776.888;2124,292776.887755000,00000077,-64037,90,-438,4,15,12*365e2aa4
%RAWIMUSA,2124,292776.898;2124,292776.897755000,00000077,-63947,174,-462,-3,14,27*61a2bb1e
%RAWIMUSA,2124,292776.908;2124,292776.907755000,00000077,-63993,72,-455,5,8,10*0736cef0
%RAWIMUSA,2124,292776.918;2124,292776.917755000,00000077,-64012,127,-458,6,2,3*2b414fbc
%RAWIMUSA,2124,292776.928;2124,292776.927755000,00000077,-63937,233,-502,0,2,3*54dc2fe8
%RAWIMUSA,2124,292776.938;2124,292776.937755000,00000077,-63963,266,-535,2,0,8*38fb94b2
%RAWIMUSA,2124,292776.948;2124,292776.947755000,00000077,-63973,285,-424,-5,-2,1*2d6c349f
%RAWIMUSA,2124,292776.958;2124,292776.957755000,00000077,-63968,199,-459,2,11,14*f0ff95fc
%RAWIMUSA,2124,292776.968;2124,292776.967755000,00000077,-63937,197,-474,0,1,-4*a12f0b66
%RAWIMUSA,2124,292776.978;2124,292776.977755000,00000077,-63997,266,-486,-5,20,13*57b38207
%RAWIMUSA,2124,292776.988;2124,292776.987755000,00000077,-64051,261,-501,3,7,0*0178040a
%RAWIMUSA,2124,292776.998;2124,292776.997755000,00000077,-63974,123,-512,-2,2,10*c4cc4e1e
%RAWIMUSA,2124,292777.008;2124,292777.007755000,00000077,-63985,222,-464,-4,1,-14*8df0b960
%RAWIMUSA,2124,292777.018;2124,292777.017755000,00000077,-63829,261,-510,11,15,24*4ee3f490
%RAWIMUSA,2124,292777.028;2124,292777.027755000,00000077,-63972,208,-507,-3,-10,11*4b92bd13
%RAWIMUSA,2124,292777.038;2124,292777.037755000,00000077,-63991,140,-493,-4,-2,-2*2424b03c
%RAWIMUSA,2124,292777.048;2124,292777.047755000,00000077,-64000,274,-473,-7,11,5*3c59c16c
%RAWIMUSA,2124,292777.058;2124,292777.057755000,00000077,-63939,174,-490,-8,-1,9*ea49d81c
%RAWIMUSA,2124,292777.068;2124,292777.067755000,00000077,-63891,279,-526,14,-3,0*567e5433
%RAWIMUSA,2124,292777.078;2124,292777.077755000,00000077,-63923,296,-560,-3,2,-5*669b0824
%RAWIMUSA,2124,292777.088;2124,292777.087755000,00000077,-63967,278,-456,-1,6,13*602185fc
%RAWIMUSA,2124,292777.098;2124,292777.097755000,00000077,-64031,188,-437,9,-8,5*12327fce
%RAWIMUSA,2124,292777.108;2124,292777.107755000,00000077,-63964,209,-402,2,16,-4*fa01ce44
%RAWIMUSA,2124,292777.118;2124,292777.117755000,00000077,-63902,200,-542,6,0,12*6029ffd1
%RAWIMUSA,2124,292777.128;2124,292777.127755000,00000077,-64001,233,-508,-2,14,8*10e8c28f
%RAWIMUSA,2124,292777.138;2124,292777.137755000,00000077,-63895,274,-474,14,-2,-7*6733a7cb
%RAWIMUSA,2124,292777.148;2124,292777.147755000,00000077,-63850,165,-561,-13,7,-10*cf5e0aba
%RAWIMUSA,2124,292777.158;2124,292777.157755000,00000077,-63851,242,-495,3,-2,8*3079e3c0
%RAWIMUSA,2124,292777.168;2124,292777.167755000,00000077,-63945,179,-555,5,-4,7*b68a9c52
%RAWIMUSA,2124,292777.178;2124,292777.177755000,00000077,-63905,165,-493,-7,0,9*6767c73f
%RAWIMUSA,2124,292777.188;2124,292777.187755000,00000077,-63896,112,-507,0,5,8*1670c796
%RAWIMUSA,2124,292777.198;2124,292777.197755000,00000077,-63896,242,-405,12,4,17*25a898c8
%RAWIMUSA,2124,292777.208;2124,292777.207755000,00000077,-63941,248,-529,-2,9,3*132b04ea
%RAWIMUSA,2124,292777.218;2124,292777.217755000,00000077,-63911,173,-515,-10,1,-3*83ffc848
%RAWIMUSA,2124,292777.228;2124,292777.227755000,00000077,-63945,275,-551,-2,7,0*c1af692d
%RAWIMUSA,2124,292777.238;2124,292777.237755000,00000077,-64037,245,-441,7,6,15*20ff7811
%RAWIMUSA,2124,292777.248;2124,292777.247755000,00000077,-63988,223,-515,5,0,2*c62c55c9
%RAWIMUSA,2124,292777.258;2124,292777.257755000,00000077,-63977,225,-513,-7,6,0*078b71a1
%RAWIMUSA,2124,292777.268;2124,292777.267755000,00000077,-64017,246,-586,-11,-11,8*7994bde6
%RAWIMUSA,2124,292777.278;2124,292777.277755000,00000077,-63971,165,-509,0,0,9*6f9777b6
%RAWIMUSA,2124,292777.288;2124,292777.287755000,00000077,-63947,269,-365,17,0,7*ad29378f
%RAWIMUSA,2124,292777.298;2124,292777.297755000,00000077,-63994,185,-454,4,4,8*77374776
%RAWIMUSA,2124,292777.308;2124,292777.307755000,00000077,-63900,171,-434,-7,21,12*293297d2
%RAWIMUSA,2124,292777.318;2124,292777.317755000,00000077,-64027,309,-524,7,-3,-5*3b7d5570
%RAWIMUSA,2124,292777.328;2124,292777.327755000,00000077,-63909,140,-485,13,3,19*2ca5b212
%RAWIMUSA,2124,292777.338;2124,292777.337755000,00000077,-63947,148,-438,-9,-1,-2*dbed0946
%RAWIMUSA,2124,292777.348;2124,292777.347755000,00000077,-64018,228,-533,6,10,-3*020d8e8f
%RAWIMUSA,2124,292777.358;2124,292777.357755000,00000077,-63955,114,-525,24,-2,0*40d3aee8
%RAWIMUSA,2124,292777.368;2124,292777.367755000,00000077,-63936,236,-359,8,-2,3*f45bb053
%RAWIMUSA,2124,292777.378;2124,292777.377755000,00000077,-63942,308,-449,-4,9,-1*44573768
%RAWIMUSA,2124,292777.388;2124,292777.387755000,00000077,-63950,158,-470,11,-5,3*f877ece4
%RAWIMUSA,2124,292777.398;2124,292777.397755000,00000077,-63851,203,-435,5,1,9*201e4fe8
%RAWIMUSA,2124,292777.408;2124,292777.407755000,00000077,-63936,127,-421,20,0,15*1c6b9da9
%RAWIMUSA,2124,292777.418;2124,292777.417755000,00000077,-63957,223,-453,-3,11,-10*a025b852
%RAWIMUSA,2124,292777.428;2124,292777.427755000,00000077,-63911,213,-577,6,10,19*d7c3d782
%RAWIMUSA,2124,292777.438;2124,292777.437755000,00000077,-63895,229,-502,-2,7,19*72b34a03
%RAWIMUSA,2124,292777.448;2124,292777.447755000,00000077,-63941,168,-522,4,3,17*4704ca51
%RAWIMUSA,2124,292777.458;2124,292777.457755000,00000077,-63998,267,-456,0,1,-11*be6bb0d5
%RAWIMUSA,2124,292777.468;2124,292777.467755000,00000077,-63902,239,-449,-5,-4,18*b54e3439
%RAWIMUSA,2124,292777.478;2124,292777.477755000,00000077,-63900,124,-574,9,-4,3*2e8b4172
%RAWIMUSA,2124,292777.488;2124,292777.487755000,00000077,-63891,131,-442,-4,4,8*cd78ab8b
%RAWIMUSA,2124,292777.498;2124,292777.497755000,00000077,-64016,167,-549,-3,-7,14*0d2c4a1e
%RAWIMUSA,2124,292777.508;2124,292777.507755000,00000077,-63961,113,-540,0,0,6*8d00ece9
%RAWIMUSA,2124,292777.518;2124,292777.517755000,00000077,-63911,238,-463,-3,15,13*bc51c3d8
%RAWIMUSA,2124,292777.528;2124,292777.527755000,00000077,-63917,178,-493,-2,9,-2*3c38365b
%RAWIMUSA,2124,292777.538;2124,292777.537755000,00000077,-64045,215,-455,-12,5,3*f006159c
%RAWIMUSA,2124,292777.548;2124,292777.547755000,00000077,-63920,163,-494,-4,3,8*76c8e18c
%RAWIMUSA,2124,292777.558;2124,292777.557755000,00000077,-63928,233,-483,-14,5,13*b84b7dad
%RAWIMUSA,2124,292777.568;2124,292777.567755000,00000077,-63930,126,-401,-6,9,-2*6cdb9709
%RAWIMUSA,2124,292777.578;2124,292777.577755000,00000077,-64001,153,-533,17,12,6*fc8cd5c8
%RAWIMUSA,2124,292777.588;2124,292777.587755000,00000077,-63927,238,-404,0,20,12*0df10e56
%RAWIMUSA,2124,292777.598;2124,292777.597755000,00000077,-63907,207,-535,11,4,11*23571192
%RAWIMUSA,2124,292777.608;2124,292777.607755000,00000077,-63997,189,-524,-4,9,0*58f1e885
%RAWIMUSA,2124,292777.618;2124,292777.617755000,00000077,-63967,210,-526,-3,15,2*1454aa62
%RAWIMUSA,2124,292777.628;2124,292777.627755000,00000077,-63833,305,-476,-20,10,-5*cca4fd34
%RAWIMUSA,2124,292777.638;2124,292777.637755000,00000077,-63947,238,-515,22,6,-10*cffde361
%RAWIMUSA,2124,292777.648;2124,292777.647755000,00000077,-63895,165,-531,8,-7,4*4584c3d8
%RAWIMUSA,2124,292777.658;2124,292777.657755000,00000077,-63956,258,-403,-7,4,-4*554e12f4
%RAWIMUSA,2124,292777.668;2124,292777.667755000,00000077,-64020,272,-431,-8,-14,15*01a1ae18
%RAWIMUSA,2124,292777.678;2124,292777.677755000,00000077,-63947,241,-547,0,-1,-2*5914de79
%RAWIMUSA,2124,292777.688;2124,292777.687755000,00000077,-63972,198,-512,12,8,8*689fd133
%RAWIMUSA,2124,292777.698;2124,292777.697755000,00000077,-63917,209,-478,-9,19,4*0f6eba8c
%RAWIMUSA,2124,292777.708;2124,292777.707755000,00000077,-63814,211,-571,1,0,7*748e5001
%RAWIMUSA,2124,292777.718;2124,292777.717755000,00000077,-63971,231,-464,0,1,2*8f460d7e
%RAWIMUSA,2124,292777.728;2124,292777.727755000,00000077,-63896,242,-432,4,-12,15*064aaa7c
%RAWIMUSA,2124,292777.738;2124,292777.737755000,00000077,-63962,306,-465,0,5,0*e310a5ce
%RAWIMUSA,2124,292777.748;2124,292777.747755000,00000077,-63929,193,-416,-3,19,3*45c18bb8
%RAWIMUSA,2124,292777.758;2124,292777.757755000,00000077,-63929,204,-578,-15,4,6*71a00853
%RAWIMUSA,2124,292777.768;2124,292777.767755000,00000077,-63930,237,-456,-11,-1,18*5760c833
%RAWIMUSA,2124,292777.778;2124,292777.777755000,00000077,-63983,342,-492,-5,12,-4*9e0ceba1
%RAWIMUSA,2124,292777.788;2124,292777.787755000,00000077,-63871,179,-556,-1,8,-8*c6814175
%RAWIMUSA,2124,292777.798;2124,292777.797755000,00000077,-63909,189,-367,8,8,26*10238696
%RAWIMUSA,2124,292777.808;2124,292777.807755000,00000077,-63847,258,-524,-6,4,14*27a6c5b5
%RAWIMUSA,2124,292777.818;2124,292777.817755000,00000077,-63904,181,-519,2,12,-2*51ae3001
%RAWIMUSA,2124,292777.828;2124,292777.827755000,00000077,-63876,210,-510,5,14,-3*48488ff5
%RAWIMUSA,2124,292777.838;2124,292777.837755000,00000077,-63870,157,-439,-17,-15,-4*09055406
%RAWIMUSA,2124,292777.848;2124,292777.847755000,00000077,-63900,182,-417,-3,9,4*8ac3fc63
%RAWIMUSA,2124,292777.858;2124,292777.857755000,00000077,-63877,217,-493,4,3,13*062c8da1
%RAWIMUSA,2124,292777.868;2124,292777.867755000,00000077,-63922,250,-503,-3,2,9*2d354ff4
%RAWIMUSA,2124,292777.878;2124,292777.877755000,00000077,-63922,249,-388,-8,-5,20*14abaea6
%RAWIMUSA,2124,292777.888;2124,292777.887755000,00000077,-63942,290,-472,3,-4,12*2dab000f
%RAWIMUSA,2124,292777.898;2124,292777.897755000,00000077,-63894,212,-511,0,9,16*f3c3fcdd
%RAWIMUSA,2124,292777.908;2124,292777.907755000,00000077,-63910,198,-410,-2,5,3*3472cffa
%RAWIMUSA,2124,292777.918;2124,292777.917755000,00000077,-63906,211,-540,11,0,14*19796675
%RAWIMUSA,2124,292777.928;2124,292777.927755000,00000077,-63860,292,-409,2,-11,3*8cac8787
%RAWIMUSA,2124,292777.938;2124,292777.937755000,00000077,-63989,277,-498,18,-3,-6*85e50d13
%RAWIMUSA,2124,292777.948;2124,292777.947755000,00000077,-63873,252,-506,-7,7,10*36018283
%RAWIMUSA,2124,292777.958;2124,292777.957755000,00000077,-63980,175,-461,-4,5,24*466df0be
%RAWIMUSA,2124,292777.968;2124,292777.967755000,00000077,-63995,305,-483,1,9,5*16b2f574
%RAWIMUSA,2124,292777.978;2124,292777.977755000,00000077,-63914,240,-460,1,8,16*9d07ef66
%RAWIMUSA,2124,292777.988;2124,292777.987755000,00000077,-63881,208,-486,2,0,8*afd66a11
%RAWIMUSA,2124,292777.998;2124,292777.997755000,00000077,-63963,264,-495,-2,1,12*9e0135a1
%RAWIMUSA,2124,292778.008;2124,292778.007755000,00000077,-64054,265,-504,10,15,8*7f00b9e7
%RAWIMUSA,2124,292778.018;2124,292778.017755000,00000077,-63835,285,-576,4,-6,-5*da9014fd
%RAWIMUSA,2124,292778.028;2124,292778.027755000,00000077,-63970,188,-422,9,5,3*6eb84418
%RAWIMUSA,2124,292778.038;2124,292778.037755000,00000077,-63985,179,-428,9,-4,-1*5b68735a
%RAWIMUSA,2124,292778.048;2124,292778.047755000,00000077,-63901,265,-558,18,9,5*3f02ad73
%RAWIMUSA,2124,292778.058;2124,292778.057755000,00000077,-63920,273,-489,1,0,4*574985a1
%RAWIMUSA,2124,292778.068;2124,292778.067755000,00000077,-63966,205,-497,2,5,5*faf85297
%RAWIMUSA,2124,292778.078;2124,292778.077755000,00000077,-64006,204,-467,7,4,4*7fdb4592
%RAWIMUSA,2124,292778.088;2124,292778.087755000,00000077,-63989,154,-535,-11,10,11*31c6d8b6
%RAWIMUSA,2124,292778.098;2124,292778.097755000,00000077,-63928,115,-518,-3,0,-5*f13b7853
%RAWIMUSA,2124,292778.108;2124,292778.107755000,00000077,-63927,97,-568,-2,-2,10*80b59a11
%RAWIMUSA,2124,292778.118;2124,292778.117755000,00000077,-63943,207,-534,1,7,12*d199cea4
%RAWIMUSA,2124,292778.128;2124,292778.127755000,00000077,-63950,179,-533,3,0,17*45b40f1d
%RAWIMUSA,2124,292778.138;2124,292778.137755000,00000077,-63911,189,-444,-2,-2,13*af655beb
%RAWIMUSA,2124,292778.148;2124,292778.147755000,00000077,-64012,151,-502,-12,-5,2*6bbbc154
%RAWIMUSA,2124,292778.158;2124,292778.157755000,00000077,-63867,226,-466,-5,4,9*e98d9ac6
%RAWIMUSA,2124,292778.168;2124,292778.167755000,00000077,-63820,232,-423,13,11,0*175e9e5f
%RAWIMUSA,2124,292778.178;2124,292778.177755000,00000077,-63893,195,-578,-9,19,13*433872ad
%RAWIMUSA,2124,292778.188;2124,292778.187755000,00000077,-63848,115,-450,0,2,5*7d4ccd6d
%RAWIMUSA,2124,292778.198;2124,292778.197755000,00000077,-63909,227,-453,-5,-2,29*9a489648
%RAWIMUSA,2124,292778.208;2124,292778.207755000,00000077,-63934,135,-507,9,6,-10*7093655f
%RAWIMUSA,2124,292778.218;2124,292778.217755000,00000077,-63933,170,-516,3,8,27*d1fdfac5
%RAWIMUSA,2124,292778.228;2124,292778.227755000,00000077,-63981,87,-488,9,10,-29*42c3e8dd
%RAWIMUSA,2124,292778.238;2124,292778.237755000,00000077,-63949,279,-522,-1,11,33*e8abe4c8
%RAWIMUSA,2124,292778.248;2124,292778.247755000,00000077,-63872,298,-506,-9,-2,-8*836242a5
%RAWIMUSA,2124,292778.258;2124,292778.257755000,00000077,-63948,317,-522,1,13,38*964e4259
%RAWIMUSA,2124,292778.268;2124,292778.267755000,00000077,-63961,165,-417,-11,9,-24*cd138751
%RAWIMUSA,2124,292778.278;2124,292778.277755000,00000077,-63999,303,-483,-3,1,36*928318be
%RAWIMUSA,2124,292778.288;2124,292778.287755000,00000077,-63915,157,-491,12,4,-24*6a821b3e
%RAWIMUSA,2124,292778.298;2124,292778.297755000,00000077,-63934,190,-436,0,-6,38*364d9f71
%RAWIMUSA,2124,292778.308;2124,292778.307755000,00000077,-63963,238,-495,-2,10,-11*2a7dff11
%RAWIMUSA,2124,292778.318;2124,292778.317755000,00000077,-63889,247,-538,-5,7,29*79f1fd92
%RAWIMUSA,2124,292778.328;2124,292778.327755000,00000077,-63992,259,-420,9,-9,-20*0f2b673a
%RAWIMUSA,2124,292778.338;2124,292778.337755000,00000077,-63946,150,-453,-5,11,12*cb01ac51
%RAWIMUSA,2124,292778.348;2124,292778.347755000,00000077,-63916,333,-520,-6,-3,-5*977ad720
%RAWIMUSA,2124,292778.358;2124,292778.357755000,00000077,-63928,196,-446,-3,-11,-8*db7727cd
%RAWIMUSA,2124,292778.368;2124,292778.367755000,00000077,-63915,308,-399,6,-8,2*59d612d4
%RAWIMUSA,2124,292778.378;2124,292778.377755000,00000077,-63896,157,-505,-4,-12,10*5b2a6b48
%RAWIMUSA,2124,292778.388;2124,292778.387755000,00000077,-63869,283,-515,6,-7,4*1ae3b979
%RAWIMUSA,2124,292778.398;2124,292778.397755000,00000077,-63850,83,-472,-15,13,23*4dbd5df4
%RAWIMUSA,2124,292778.408;2124,292778.407755000,00000077,-63974,272,-364,4,5,-7*7e44777f
%RAWIMUSA,2124,292778.418;2124,292778.417755000,00000077,-63904,60,-538,1,3,27*51dfbbbb
%RAWIMUSA,2124,292778.428;2124,292778.427755000,00000077,-63891,274,-489,-1,8,2*08efd0b3
%RAWIMUSA,2124,292778.438;2124,292778.437755000,00000077,-64001,146,-545,3,10,37*18344d2c
%RAWIMUSA,2124,292778.448;2124,292778.447755000,00000077,-63889,227,-467,-5,6,-16*42107080
%RAWIMUSA,2124,292778.458;2124,292778.457755000,00000077,-63898,199,-556,-12,14,49*f05a6aff
%RAWIMUSA,2124,292778.468;2124,292778.467755000,00000077,-63955,263,-501,5,-13,-11*3e9c25e8
%RAWIMUSA,2124,292778.478;2124,292778.477755000,00000077,-63954,95,-546,0,1,44*816957ec
%RAWIMUSA,2124,292778.488;2124,292778.487755000,00000077,-63915,282,-486,-4,0,-11*2344423f
%RAWIMUSA,2124,292778.498;2124,292778.497755000,00000077,-63971,124,-511,-12,3,42*0124bb72
%RAWIMUSA,2124,292778.508;2124,292778.507755000,00000077,-63904,283,-484,-2,0,-23*965344c7
%RAWIMUSA,2124,292778.518;2124,292778.517755000,00000077,-63926,180,-477,5,13,42*3a367428
%RAWIMUSA,2124,292778.528;2124,292778.527755000,00000077,-64006,257,-512,0,14,-20*5cc4e6e4
%RAWIMUSA,2124,292778.538;2124,292778.537755000,00000077,-63926,270,-559,-1,-1,54*2e0f8758
%RAWIMUSA,2124,292778.548;2124,292778.547755000,00000077,-64012,233,-385,15,-1,-12*449b8bf8
%RAWIMUSA,2124,292778.558;2124,292778.557755000,00000077,-63869,332,-492,-2,-7,36*97aad87d
%RAWIMUSA,2124,292778.568;2124,292778.567755000,00000077,-63893,147,-439,-9,12,-12*a17a2057
%RAWIMUSA,2124,292778.578;2124,292778.577755000,00000077,-63877,323,-458,9,-5,45*5ea848a2
%RAWIMUSA,2124,292778.588;2124,292778.587755000,00000077,-63898,218,-465,9,5,-26*3360f7e4
%RAWIMUSA,2124,292778.598;2124,292778.597755000,00000077,-63986,290,-412,6,-4,20*c9cca46f
%RAWIMUSA,2124,292778.608;2124,292778.607755000,00000077,-63875,200,-505,8,5,-17*e785b8cb
%RAWIMUSA,2124,292778.618;2124,292778.617755000,00000077,-63934,391,-473,7,3,19*6fce1b8f
%RAWIMUSA,2124,292778.628;2124,292778.627755000,00000077,-64016,-11,-496,2,14,-7*352fa7fa
%RAWIMUSA,2124,292778.638;2124,292778.637755000,00000077,-63833,321,-488,0,12,6*25e00d53
%RAWIMUSA,2124,292778.648;2124,292778.647755000,00000077,-63910,115,-488,8,13,17*446d1cc5
%RAWIMUSA,2124,292778.658;2124,292778.657755000,00000077,-63935,264,-481,-1,23,-1*52700f04
%RAWIMUSA,2124,292778.668;2124,292778.667755000,00000077,-63918,106,-543,7,4,8*26b29ac5
%RAWIMUSA,2124,292778.678;2124,292778.677755000,00000077,-63955,310,-516,5,10,-10*dcdf682c
%RAWIMUSA,2124,292778.688;2124,292778.687755000,00000077,-64045,105,-526,10,7,36*8745cdbe
%RAWIMUSA,2124,292778.698;2124,292778.697755000,00000077,-63911,292,-474,-7,-1,-23*f1e5bd75
%RAWIMUSA,2124,292778.708;2124,292778.707755000,00000077,-63940,271,-503,2,-1,53*6ff41f3d
%RAWIMUSA,2124,292778.718;2124,292778.717755000,00000077,-64016,176,-389,2,2,-24*8c89ff32
%RAWIMUSA,2124,292778.728;2124,292778.727755000,00000077,-63939,243,-485,-1,0,40*9d829476
%RAWIMUSA,2124,292778.738;2124,292778.737755000,00000077,-63913,302,-468,-6,-7,-41*ca04da11
%RAWIMUSA,2124,292778.748;2124,292778.747755000,00000077,-63831,294,-574,5,2,20*4e6d9f58
%RAWIMUSA,2124,292778.758;2124,292778.757755000,00000077,-63902,199,-444,-1,5,-21*2237d2ce
%RAWIMUSA,2124,292778.768;2124,292778.767755000,00000077,-63970,300,-536,-11,0,54*6f75ed23
%RAWIMUSA,2124,292778.778;2124,292778.777755000,00000077,-63884,120,-425,-5,5,-1*052a401c
%RAWIMUSA,2124,292778.788;2124,292778.787755000,00000077,-63935,298,-504,-2,14,-3*b5388581
%RAWIMUSA,2124,292778.798;2124,292778.797755000,00000077,-64004,89,-573,1,0,10*d6221e1a
%RAWIMUSA,2124,292778.808;2124,292778.807755000,00000077,-63910,296,-468,7,9,2*2f939442
%RAWIMUSA,2124,292778.818;2124,292778.817755000,00000077,-63966,105,-491,0,-1,0*8a396df9
%RAWIMUSA,2124,292778.828;2124,292778.827755000,00000077,-63928,296,-505,11,10,-7*2b9b2574
%RAWIMUSA,2124,292778.838;2124,292778.837755000,00000077,-63969,125,-472,20,2,31*31f0efff
%RAWIMUSA,2124,292778.848;2124,292778.847755000,00000077,-63921,371,-337,-4,1,-16*5d124c52
%RAWIMUSA,2124,292778.858;2124,292778.857755000,00000077,-64035,276,-522,2,-2,31*c43924c8
%RAWIMUSA,2124,292778.868;2124,292778.867755000,00000077,-63972,147,-457,1,9,-35*490c92ba
%RAWIMUSA,2124,292778.878;2124,292778.877755000,00000077,-63940,306,-542,10,-3,48*464ac819
%RAWIMUSA,2124,292778.888;2124,292778.887755000,00000077,-63983,124,-556,4,8,-10*e6999354
%RAWIMUSA,2124,292778.898;2124,292778.897755000,00000077,-63959,301,-484,-6,11,17*777ff6d4
%RAWIMUSA,2124,292778.908;2124,292778.907755000,00000077,-63916,93,-538,1,2,-18*c5726cd5
%RAWIMUSA,2124,292778.918;2124,292778.917755000,00000077,-63963,357,-510,14,-8,4*e935a5ec
%RAWIMUSA,2124,292778.928;2124,292778.927755000,00000077,-63952,100,-420,8,14,16*51e589de
%RAWIMUSA,2124,292778.938;2124,292778.937755000,00000077,-63952,335,-473,-6,3,-24*74ae46e7
%RAWIMUSA,2124,292778.948;2124,292778.947755000,00000077,-63875,185,-519,-4,8,29*9163db64
%RAWIMUSA,2124,292778.958;2124,292778.957755000,00000077,-64008,232,-449,-5,13,-31*ce0a795a
%RAWIMUSA,2124,292778.968;2124,292778.967755000,00000077,-63975,179,-575,-6,-12,38*904a1a21
%RAWIMUSA,2124,292778.978;2124,292778.977755000,00000077,-63834,134,-503,-2,16,-20*dc7617ae
%RAWIMUSA,2124,292778.988;2124,292778.987755000,00000077,-63949,370,-578,-7,22,27*59954316
%RAWIMUSA,2124,292778.998;2124,292778.997755000,00000077,-63916,127,-428,-2,2,16*560ff83c
%RAWIMUSA,2124,292779.008;2124,292779.007755000,00000077,-63918,427,-531,1,0,24*38375b72
%RAWIMUSA,2124,292779.018;2124,292779.017755000,00000077,-63902,162,-447,2,11,4*d3c7249e
%RAWIMUSA,2124,292779.028;2124,292779.027755000,00000077,-63918,245,-519,8,-2,-9*c4833638
%RAWIMUSA,2124,292779.038;2124,292779.037755000,00000077,-63997,125,-513,-6,2,42*f3e5ec3a
%RAWIMUSA,2124,292779.048;2124,292779.047755000,00000077,-64011,164,-499,-8,-1,-28*e203d308
%RAWIMUSA,2124,292779.058;2124,292779.057755000,00000077,-63922,216,-430,0,0,45*befdd3e3
%RAWIMUSA,2124,292779.068;2124,292779.067755000,00000077,-63951,158,-501,-7,16,-25*1b761135
%RAWIMUSA,2124,292779.078;2124,292779.077755000,00000077,-63913,194,-453,-1,0,25*7157d30b
%RAWIMUSA,2124,292779.088;2124,292779.087755000,00000077,-64097,81,-488,-5,3,8*610a2100
%RAWIMUSA,2124,292779.098;2124,292779.097755000,00000077,-63942,333,-445,7,2,5*11b554db
%RAWIMUSA,2124,292779.108;2124,292779.107755000,00000077,-63941,96,-530,-13,0,15*0cfe1353
%RAWIMUSA,2124,292779.118;2124,292779.117755000,00000077,-63845,209,-473,15,6,-15*dad99a24
%RAWIMUSA,2124,292779.128;2124,292779.127755000,00000077,-63993,207,-440,1,12,30*a6086894
%RAWIMUSA,2124,292779.138;2124,292779.137755000,00000077,-63962,277,-502,3,8,-14*993acd00
%RAWIMUSA,2124,292779.148;2124,292779.147755000,00000077,-63920,298,-537,2,15,14*56d424d1
%RAWIMUSA,2124,292779.158;2124,292779.157755000,00000077,-63946,162,-437,3,20,1*312f152b
%RAWIMUSA,2124,292779.168;2124,292779.167755000,00000077,-63857,373,-459,12,19,-19*be9cf6dc
%RAWIMUSA,2124,292779.178;2124,292779.177755000,00000077,-64029,207,-516,0,0,9*7bed74ed
%RAWIMUSA,2124,292779.188;2124,292779.187755000,00000077,-63888,115,-434,6,2,10*6264baed
%RAWIMUSA,2124,292779.198;2124,292779.197755000,00000077,-63950,232,-468,-2,7,-13*d83c4dfe
%RAWIMUSA,2124,292779.208;2124,292779.207755000,00000077,-63986,238,-553,-3,7,4*5af8ff5e
%RAWIMUSA,2124,292779.218;2124,292779.217755000,00000077,-63997,235,-598,1,2,-4*53a5139f
%RAWIMUSA,2124,292779.228;2124,292779.227755000,00000077,-63970,243,-523,11,6,-4*223a6f7b
%RAWIMUSA,2124,292779.238;2124,292779.237755000,00000077,-63919,226,-402,-9,-5,10*42c02a0a
%RAWIMUSA,2124,292779.248;2124,292779.247755000,00000077,-63876,203,-472,0,-1,5*dd4834e4
%RAWIMUSA,2124,292779.258;2124,292779.257755000,00000077,-63951,318,-521,14,0,16*8683d79c
%RAWIMUSA,2124,292779.268;2124,292779.267755000,00000077,-63877,213,-427,-13,0,6*e2c222e3
%RAWIMUSA,2124,292779.278;2124,292779.277755000,00000077,-63943,163,-463,0,4,2*968bec4e
%RAWIMUSA,2124,292779.288;2124,292779.287755000,00000077,-63955,232,-481,9,17,-9*4cdf1aa0
%RAWIMUSA,2124,292779.298;2124,292779.297755000,00000077,-63991,256,-516,7,13,19*0c85ec79
%RAWIMUSA,2124,292779.308;2124,292779.307755000,00000077,-63957,232,-501,2,5,-2*318fedca
%RAWIMUSA,2124,292779.318;2124,292779.317755000,00000077,-63951,296,-431,4,-1,-9*d3f54657
%RAWIMUSA,2124,292779.328;2124,292779.327755000,00000077,-63901,231,-514,-7,3,16*d0111d35
%RAWIMUSA,2124,292779.338;2124,292779.337755000,00000077,-63985,286,-496,9,-17,2*e0a861d5
%RAWIMUSA,2124,292779.348;2124,292779.347755000,00000077,-63917,296,-475,17,8,3*4813481c
%RAWIMUSA,2124,292779.358;2124,292779.357755000,00000077,-63910,106,-432,-7,19,19*2cb56b34
%RAWIMUSA,2124,292779.368;2124,292779.367755000,00000077,-63923,211,-507,0,0,6*27f28a61
%RAWIMUSA,2124,292779.378;2124,292779.377755000,00000077,-63957,232,-450,-8,0,13*1e2c8b80
%RAWIMUSA,2124,292779.388;2124,292779.387755000,00000077,-63908,259,-512,12,5,11*d3329707
%RAWIMUSA,2124,292779.398;2124,292779.397755000,00000077,-64010,246,-420,13,4,11*eaa707a1
%RAWIMUSA,2124,292779.408;2124,292779.407755000,00000077,-63876,130,-575,-2,11,21*e301957c
%RAWIMUSA,2124,292779.418;2124,292779.417755000,00000077,-63900,290,-482,8,6,7*b8eeb3fe
%RAWIMUSA,2124,292779.428;2124,292779.427755000,00000077,-63902,161,-507,9,10,3*5156fe52
%RAWIMUSA,2124,292779.438;2124,292779.437755000,00000077,-63911,213,-432,3,7,17*bcc13061
%RAWIMUSA,2124,292779.448;2124,292779.447755000,00000077,-63956,179,-487,-10,-4,5*07bc1803
%RAWIMUSA,2124,292779.458;2124,292779.457755000,00000077,-63873,165,-462,1,7,12*0a049a36
%RAWIMUSA,2124,292779.468;2124,292779.467755000,00000077,-63877,191,-455,1,2,-4*e8a0daee
%RAWIMUSA,2124,292779.478;2124,292779.477755000,00000077,-63909,220,-425,1,-14,17*1553a0a1
%RAWIMUSA,2124,292779.488;2124,292779.487755000,00000077,-63957,257,-504,2,-1,4*c5d319f3
%RAWIMUSA,2124,292779.498;2124,292779.497755000,00000077,-63871,154,-439,-5,-14,26*81198011
%RAWIMUSA,2124,292779.508;2124,292779.507755000,00000077,-63917,92,-482,-14,-5,17*65f74434
%RAWIMUSA,2124,292779.518;2124,292779.517755000,00000077,-63870,201,-502,0,-2,5*3960c582
%RAWIMUSA,2124,292779.528;2124,292779.527755000,00000077,-63927,312,-518,0,1,0*ba4da752
%RAWIMUSA,2124,292779.538;2124,292779.537755000,00000077,-63918,250,-452,-5,6,2*b7359495
%RAWIMUSA,2124,292779.548;2124,292779.547755000,00000077,-63892,215,-475,15,-11,-8*4a1876ff
%RAWIMUSA,2124,292779.558;2124,292779.557755000,00000077,-63913,233,-526,-9,12,-1*1fa48cba
%RAWIMUSA,2124,292779.568;2124,292779.567755000,00000077,-63820,287,-422,-1,8,15*a8d7659f
%RAWIMUSA,2124,292779.578;2124,292779.577755000,00000077,-63950,250,-538,-10,-3,-4*6d734de7
%RAWIMUSA,2124,292779.588;2124,292779.587755000,00000077,-63935,144,-441,-5,6,22*b252b31d
%RAWIMUSA,2124,292779.598;2124,292779.597755000,00000077,-64013,171,-496,8,0,8*752e3799
%RAWIMUSA,2124,292779.608;2124,292779.607755000,00000077,-64026,183,-486,2,6,18*25b10173
%RAWIMUSA,2124,292779.618;2124,292779.617755000,00000077,-63956,266,-532,11,10,13*3f0b5cef
%RAWIMUSA,2124,292779.628;2124,292779.627755000,00000077,-64058,293,-420,-1,22,1*9d44360c
%RAWIMUSA,2124,292779.638;2124,292779.637755000,00000077,-63890,124,-362,2,-1,10*6d521637
%RAWIMUSA,2124,292779.648;2124,292779.647755000,00000077,-63892,134,-452,-9,12,0*bbe97a9d
%RAWIMUSA,2124,292779.658;2124,292779.657755000,00000077,-63943,199,-376,9,-4,-1*e40dc1e5
%RAWIMUSA,2124,292779.668;2124,292779.667755000,00000077,-63889,226,-465,4,6,11*36f9c1e4
%RAWIMUSA,2124,292779.678;2124,292779.677755000,00000077,-63811,245,-488,10,5,-4*ddb36bc3
%RAWIMUSA,2124,292779.688;2124,292779.687755000,00000077,-63849,148,-459,0,4,6*199085d5
%RAWIMUSA,2124,292779.698;2124,292779.697755000,00000077,-63920,107,-516,4,9,-1*3898ac95
%RAWIMUSA,2124,292779.708;2124,292779.707755000,00000077,-63955,223,-493,13,6,-16*665a944e
%RAWIMUSA,2124,292779.718;2124,292779.717755000,00000077,-63948,332,-448,0,7,17*bbdfd45b
%RAWIMUSA,2124,292779.728;2124,292779.727755000,00000077,-63949,199,-444,15,-10,11*0266882b
%RAWIMUSA,2124,292779.738;2124,292779.737755000,00000077,-63940,182,-449,-7,0,5*e337242a
%RAWIMUSA,2124,292779.748;2124,292779.747755000,00000077,-63909,208,-515,-3,8,13*04eea6f0
%RAWIMUSA,2124,292779.758;2124,292779.757755000,00000077,-63984,185,-474,9,-1,15*4c134e2d
%RAWIMUSA,2124,292779.768;2124,292779.767755000,00000077,-63908,123,-503,2,1,12*05332e71
%RAWIMUSA,2124,292779.778;2124,292779.777755000,00000077,-63974,245,-509,-11,-3,5*e24ff88d
%RAWIMUSA,2124,292779.788;2124,292779.787755000,00000077,-63890,111,-408,11,1,-4*d23b030a
%RAWIMUSA,2124,292779.798;2124,292779.797755000,00000077,-64037,171,-376,4,9,1*09e7ff69
%RAWIMUSA,2124,292779.808;2124,292779.807755000,00000077,-63962,200,-594,-1,-4,0*b502a20e
%RAWIMUSA,2124,292779.818;2124,292779.817755000,00000077,-63934,240,-468,-6,0,8*6315f65e
%RAWIMUSA,2124,292779.828;2124,292779.827755000,00000077,-63822,221,-350,16,-2,-14*ac31b257
%RAWIMUSA,2124,292779.838;2124,292779.837755000,00000077,-63907,217,-474,1,-11,1*4cb643ba
%RAWIMUSA,2124,292779.848;2124,292779.847755000,00000077,-63939,194,-442,5,8,12*ac8c8cae
%RAWIMUSA,2124,292779.858;2124,292779.857755000,00000077,-63918,251,-507,0,5,0*2ee5a56d
%RAWIMUSA,2124,292779.868;2124,292779.867755000,00000077,-63980,181,-483,-5,-1,16*ab60b4f2
%RAWIMUSA,2124,292779.878;2124,292779.877755000,00000077,-63954,130,-441,0,11,0*0815430c
%RAWIMUSA,2124,292779.888;2124,292779.887755000,00000077,-64038,184,-447,5,0,7*ff12c36e
%RAWIMUSA,2124,292779.898;2124,292779.897755000,00000077,-63926,255,-543,9,-6,4*d54e5ae6
%RAWIMUSA,2124,292779.908;2124,292779.907755000,00000077,-63895,129,-471,7,1,14*cc2ec46f
%RAWIMUSA,2124,292779.918;2124,292779.917755000,00000077,-64020,220,-481,2,2,0*59cca22b
%RAWIMUSA,2124,292779.928;2124,292779.927755000,00000077,-63949,145,-506,-8,-4,1*486802c9
%RAWIMUSA,2124,292779.938;2124,292779.937755000,00000077,-63821,102,-553,6,22,13*3d538696
%RAWIMUSA,2124,292779.948;2124,292779.947755000,00000077,-63973,174,-492,0,12,-5*59a54552
%RAWIMUSA,2124,292779.958;2124,292779.957755000,00000077,-63992,250,-489,2,3,11*5a8d06ed
%RAWIMUSA,2124,292779.968;2124,292779.967755000,00000077,-63979,137,-535,-10,3,5*0f7d5135
%RAWIMUSA,2124,292779.978;2124,292779.977755000,00000077,-64027,218,-526,-1,8,-4*4ba45ed0
%RAWIMUSA,2124,292779.988;2124,292779.987755000,00000077,-63996,281,-556,1,0,11*92ba592d
%RAWIMUSA,2124,292779.998;2124,292779.997755000,00000077,-63890,219,-457,5,-4,1*533bfbe0
%RAWIMUSA,2124,292780.008;2124,292780.007755000,00000077,-63900,187,-469,4,9,9*22985d50
%RAWIMUSA,2124,292780.018;2124,292780.017755000,00000077,-63884,205,-449,3,-6,5*b4645cc1
%RAWIMUSA,2124,292780.028;2124,292780.027755000,00000077,-63921,208,-478,10,3,1*6a679751
%RAWIMUSA,2124,292780.038;2124,292780.037755000,00000077,-63947,252,-454,2,6,-9*aac1ca26
%RAWIMUSA,2124,292780.048;2124,292780.047755000,00000077,-63977,271,-462,-10,-5,27*eab3fd6b
%RAWIMUSA,2124,292780.058;2124,292780.057755000,00000077,-63935,183,-562,2,0,-4*b73fe7dd
%RAWIMUSA,2124,292780.068;2124,292780.067755000,00000077,-63867,229,-588,4,6,8*509bdb96
%RAWIMUSA,2124,292780.078;2124,292780.077755000,00000077,-63976,303,-470,4,6,6*f7e556cf
%RAWIMUSA,2124,292780.088;2124,292780.087755000,00000077,-63984,314,-437,18,13,10*022ef98c
%RAWIMUSA,2124,292780.098;2124,292780.097755000,00000077,-63948,164,-469,-14,11,-9*131b08b7
%RAWIMUSA,2124,292780.108;2124,292780.107755000,00000077,-63936,289,-428,-15,-2,20*c11af58f
%RAWIMUSA,2124,292780.118;2124,292780.117755000,00000077,-63895,274,-448,-5,1,15*afbc757f
%RAWIMUSA,2124,292780.128;2124,292780.127755000,00000077,-63845,246,-576,-2,-5,21*4b31a8cb
%RAWIMUSA,2124,292780.138;2124,292780.137755000,00000077,-63911,268,-445,2,6,10*1bf6ecd5
%RAWIMUSA,2124,292780.148;2124,292780.147755000,00000077,-63971,266,-598,-2,-13,-13*dc2e7b98
%RAWIMUSA,2124,292780.158;2124,292780.157755000,00000077,-63959,160,-560,3,11,1*e6fd0ed2
%RAWIMUSA,2124,292780.168;2124,292780.167755000,00000077,-63882,170,-425,-1,13,0*e809abea
%RAWIMUSA,2124,292780.178;2124,292780.177755000,00000077,-63998,254,-491,6,1,14*593101bc
%RAWIMUSA,2124,292780.188;2124,292780.187755000,00000077,-63832,179,-425,9,-10,11*4c477214
%RAWIMUSA,2124,292780.198;2124,292780.197755000,00000077,-63983,210,-493,8,3,10*816b3af0
%RAWIMUSA,2124,292780.208;2124,292780.207755000,00000077,-63903,97,-508,7,7,9*40510742
%RAWIMUSA,2124,292780.218;2124,292780.217755000,00000077,-63884,110,-556,-8,9,9*2841b41d
%RAWIMUSA,2124,292780.228;2124,292780.227755000,00000077,-63974,208,-499,1,14,7*af1f048c
%RAWIMUSA,2124,292780.238;2124,292780.237755000,00000077,-64012,210,-412,-12,-9,25*704c40da
%RAWIMUSA,2124,292780.248;2124,292780.247755000,00000077,-63963,238,-459,-7,-2,-5*c31de1a3
%RAWIMUSA,2124,292780.258;2124,292780.257755000,00000077,-63920,184,-468,-2,-5,6*1c5ef236
%RAWIMUSA,2124,292780.268;2124,292780.267755000,00000077,-64021,70,-453,7,-2,-9*78db1582
%RAWIMUSA,2124,292780.278;2124,292780.277755000,00000077,-63982,178,-451,10,8,16*01975a1d
%RAWIMUSA,2124,292780.288;2124,292780.287755000,00000077,-63873,196,-448,23,-1,19*da3ecece
%RAWIMUSA,2124,292780.298;2124,292780.297755000,00000077,-63937,241,-524,-11,-12,-5*7fc55e2f
%RAWIMUSA,2124,292780.308;2124,292780.307755000,00000077,-63883,172,-466,5,1,10*40a529d0
%RAWIMUSA,2124,292780.318;2124,292780.317755000,00000077,-64017,211,-455,3,0,9*6a64c153
%RAWIMUSA,2124,292780.328;2124,292780.327755000,00000077,-63924,179,-511,10,-11,4*7c1a7474
%RAWIMUSA,2124,292780.338;2124,292780.337755000,00000077,-63927,236,-546,-18,1,6*ef3879e9
%RAWIMUSA,2124,292780.348;2124,292780.347755000,00000077,-63903,282,-445,3,-1,-2*998c007b
%RAWIMUSA,2124,292780.358;2124,292780.357755000,00000077,-63937,263,-516,-9,10,10*73bf3b26
%RAWIMUSA,2124,292780.368;2124,292780.367755000,00000077,-63881,250,-406,0,13,3*4e199ab8
%RAWIMUSA,2124,292780.378;2124,292780.377755000,00000077,-63908,203,-510,11,1,11*fb92eb1a
%RAWIMUSA,2124,292780.388;2124,292780.387755000,00000077,-63941,182,-410,-14,16,7*1fb61170
%RAWIMUSA,2124,292780.398;2124,292780.397755000,00000077,-63871,283,-485,-8,24,17*cff077ba
%RAWIMUSA,2124,292780.408;2124,292780.407755000,00000077,-63918,187,-480,-1,23,3*1a1ea427
%RAWIMUSA,2124,292780.418;2124,292780.417755000,00000077,-63959,251,-467,-11,11,2*c48329f3
%RAWIMUSA,2124,292780.428;2124,292780.427755000,00000077,-63916,294,-427,11,11,21*5f65e937
%RAWIMUSA,2124,292780.438;2124,292780.437755000,00000077,-63911,187,-464,4,8,12*581e9e50
%RAWIMUSA,2124,292780.448;2124,292780.447755000,00000077,-63948,141,-509,-6,-2,1*69fd995c
%RAWIMUSA,2124,292780.458;2124,292780.457755000,00000077,-63984,207,-458,12,0,2*ba847086
%RAWIMUSA,2124,292780.468;2124,292780.467755000,00000077,-63906,224,-507,-6,3,-9*555ec7a6
%RAWIMUSA,2124,292780.478;2124,292780.477755000,00000077,-63951,162,-558,11,14,4*7a4c2db2
%RAWIMUSA,2124,292780.488;2124,292780.487755000,00000077,-63982,328,-499,11,6,12*7ba11b95
%RAWIMUSA,2124,292780.498;2124,292780.497755000,00000077,-63976,118,-536,1,-1,-1*3c62dbf1
%RAWIMUSA,2124,292780.508;2124,292780.507755000,00000077,-63955,202,-543,-7,6,9*bd67836a
%RAWIMUSA,2124,292780.518;2124,292780.517755000,00000077,-63985,232,-462,0,2,-6*0d4936e0
%RAWIMUSA,2124,292780.528;2124,292780.527755000,00000077,-64032,167,-425,1,5,13*fc462ba6
%RAWIMUSA,2124,292780.538;2124,292780.537755000,00000077,-63928,245,-473,8,8,5*8b928072
%RAWIMUSA,2124,292780.548;2124,292780.547755000,00000077,-63961,266,-601,-7,1,1*452d27a1
%RAWIMUSA,2124,292780.558;2124,292780.557755000,00000077,-63865,172,-630,3,1,14*fd9d3eee
%RAWIMUSA,2124,292780.568;2124,292780.567755000,00000077,-63989,181,-422,-1,-5,-1*37613885
%RAWIMUSA,2124,292780.578;2124,292780.577755000,00000077,-63958,173,-394,9,0,-14*3ea70365
%RAWIMUSA,2124,292780.588;2124,292780.587755000,00000077,-64006,214,-496,0,2,6*cfef287d
%RAWIMUSA,2124,292780.598;2124,292780.597755000,00000077,-63926,228,-488,-3,4,7*b5c83503
%RAWIMUSA,2124,292780.608;2124,292780.607755000,00000077,-63861,231,-523,6,4,0*9481c632
%RAWIMUSA,2124,292780.618;2124,292780.617755000,00000077,-63865,287,-513,8,-5,20*6728cc8f
%RAWIMUSA,2124,292780.628;2124,292780.627755000,00000077,-63967,207,-418,3,5,9*88adbbd2
%RAWIMUSA,2124,292780.638;2124,292780.637755000,00000077,-63961,291,-516,17,17,1*c5fc3ca1
%RAWIMUSA,2124,292780.648;2124,292780.647755000,00000077,-63938,202,-521,10,-12,17*1be1fc03
%RAWIMUSA,2124,292780.658;2124,292780.657755000,00000077,-63855,270,-428,-2,-1,13*aeebe52d
%RAWIMUSA,2124,292780.668;2124,292780.667755000,00000077,-63911,193,-468,-9,4,13*84e5bb94
%RAWIMUSA,2124,292780.678;2124,292780.677755000,00000077,-64058,224,-493,7,1,-8*c71bea0e
%RAWIMUSA,2124,292780.688;2124,292780.687755000,00000077,-63951,237,-524,-9,5,-3*ec4ecd6e
%RAWIMUSA,2124,292780.698;2124,292780.697755000,00000077,-63965,180,-461,2,5,2*0f303dfb
%RAWIMUSA,2124,292780.708;2124,292780.707755000,00000077,-63941,213,-460,-2,4,14*b6b78603
%RAWIMUSA,2124,292780.718;2124,292780.717755000,00000077,-63933,212,-516,0,13,8*784aea08
%RAWIMUSA,2124,292780.728;2124,292780.727755000,00000077,-63858,233,-442,-3,10,8*5bdbb6a5
%RAWIMUSA,2124,292780.738;2124,292780.737755000,00000077,-63855,205,-388,2,10,-8*58a666bd
%RAWIMUSA,2124,292780.748;2124,292780.747755000,00000077,-63994,132,-417,-9,-3,10*8687f5a2
%RAWIMUSA,2124,292780.758;2124,292780.757755000,00000077,-63975,174,-500,2,3,16*0222a985
%RAWIMUSA,2124,292780.768;2124,292780.767755000,00000077,-64009,228,-518,0,-4,11*23d9bef3
%RAWIMUSA,2124,292780.778;2124,292780.777755000,00000077,-63991,248,-504,8,14,16*a8ba49d4
%RAWIMUSA,2124,292780.788;2124,292780.787755000,00000077,-63947,161,-592,5,-3,22*1225b099
%RAWIMUSA,2124,292780.798;2124,292780.797755000,00000077,-63849,144,-512,1,2,9*417a791b
%RAWIMUSA,2124,292780.808;2124,292780.807755000,00000077,-63837,159,-464,-6,2,6*cf7108e4
%RAWIMUSA,2124,292780.818;2124,292780.817755000,00000077,-63921,121,-501,0,12,15*e07534f7
%RAWIMUSA,2124,292780.828;2124,292780.827755000,00000077,-63731,172,-450,3,4,7*700d69a8
%RAWIMUSA,2124,292780.838;2124,292780.837755000,00000077,-63876,176,-486,-13,5,8*61a2facb
%RAWIMUSA,2124,292780.848;2124,292780.847755000,00000077,-63844,146,-433,-12,0,-1*5f897502
%RAWIMUSA,2124,292780.858;2124,292780.857755000,00000077,-63869,201,-518,16,5,7*6b263cb4
%RAWIMUSA,2124,292780.868;2124,292780.867755000,00000077,-63821,137,-433,-14,-2,-4*6cc4b334
%RAWIMUSA,2124,292780.878;2124,292780.877755000,00000077,-64008,159,-475,-5,8,12*2e1ac92a
%RAWIMUSA,2124,292780.888;2124,292780.887755000,00000077,-63922,221,-472,2,3,-10*0d4614af
%RAWIMUSA,2124,292780.898;2124,292780.897755000,00000077,-63934,108,-479,-3,3,0*9a09bbe7
%RAWIMUSA,2124,292780.908;2124,292780.907755000,00000077,-63928,163,-503,0,12,15*46d16cea
%RAWIMUSA,2124,292780.918;2124,292780.917755000,00000077,-63963,123,-416,18,-5,-3*21a94d42
%RAWIMUSA,2124,292780.928;2124,292780.927755000,00000077,-63903,230,-494,7,14,25*018c1e4e
%RAWIMUSA,2124,292780.938;2124,292780.937755000,00000077,-63962,251,-573,1,5,7*1e0a68e2
%RAWIMUSA,2124,292780.948;2124,292780.947755000,00000077,-63990,322,-521,-3,-8,-4*c4c75619
%RAWIMUSA,2124,292780.958;2124,292780.957755000,00000077,-63958,297,-411,4,9,22*75e15212
%RAWIMUSA,2124,292780.968;2124,292780.967755000,00000077,-63896,187,-480,-13,-3,3*e0304a4f
%RAWIMUSA,2124,292780.978;2124,292780.977755000,00000077,-63980,191,-570,6,17,-17*c34519c2
%RAWIMUSA,2124,292780.988;2124,292780.987755000,00000077,-63967,336,-481,-7,7,0*bfd10053
%RAWIMUSA,2124,292780.998;2124,292780.997755000,00000077,-63862,149,-508,10,-1,15*98449ade
%RAWIMUSA,2124,292781.008;2124,292781.007755000,00000077,-64005,118,-564,-3,-1,-3*b2f5902d
%RAWIMUSA,2124,292781.018;2124,292781.017755000,00000077,-63944,256,-465,8,3,22*90853546
%RAWIMUSA,2124,292781.028;2124,292781.027755000,00000077,-63998,155,-423,-10,12,1*70c67784
%RAWIMUSA,2124,292781.038;2124,292781.037755000,00000077,-64012,197,-418,-8,8,-3*12706a0b
%RAWIMUSA,2124,292781.048;2124,292781.047755000,00000077,-63959,289,-436,12,22,-2*6c23cbd2
%RAWIMUSA,2124,292781.058;2124,292781.057755000,00000077,-63899,193,-423,-10,13,-10*294320a4
%RAWIMUSA,2124,292781.068;2124,292781.067755000,00000077,-63954,183,-476,4,7,0*13113d57
%RAWIMUSA,2124,292781.078;2124,292781.077755000,00000077,-63870,116,-501,-3,2,2*ad85da6a
%RAWIMUSA,2124,292781.088;2124,292781.087755000,00000077,-63960,179,-511,0,1,0*debab2a5
%RAWIMUSA,2124,292781.098;2124,292781.097755000,00000077,-64000,196,-527,9,3,-6*8b113ebf
%RAWIMUSA,2124,292781.108;2124,292781.107755000,00000077,-63997,116,-458,-8,2,2*d479fa0c
%RAWIMUSA,2124,292781.118;2124,292781.117755000,00000077,-64003,106,-562,14,15,6*7606c840
%RAWIMUSA,2124,292781.128;2124,292781.127755000,00000077,-63984,236,-423,5,4,9*850c1896
%RAWIMUSA,2124,292781.138;2124,292781.137755000,00000077,-63981,156,-452,0,-8,13*5d76617d
%RAWIMUSA,2124,292781.148;2124,292781.147755000,00000077,-63976,309,-558,-18,24,11*f924d290
%RAWIMUSA,2124,292781.158;2124,292781.157755000,00000077,-63849,176,-468,10,3,14*f16c1247
%RAWIMUSA,2124,292781.168;2124,292781.167755000,00000077,-64002,214,-444,-12,5,10*75991ead
%RAWIMUSA,2124,292781.178;2124,292781.177755000,00000077,-63948,153,-520,2,4,9*6273a0cb
%RAWIMUSA,2124,292781.188;2124,292781.187755000,00000077,-63968,183,-517,12,1,-1*3e75b5a4
%RAWIMUSA,2124,292781.198;2124,292781.197755000,00000077,-63923,220,-483,6,9,12*6d12ddd5
%RAWIMUSA,2124,292781.208;2124,292781.207755000,00000077,-63809,129,-519,-1,5,27*d68b630d
%RAWIMUSA,2124,292781.218;2124,292781.217755000,00000077,-63975,252,-505,1,-5,4*22d3abff
%RAWIMUSA,2124,292781.228;2124,292781.227755000,00000077,-63911,244,-473,-4,3,2*525425de
%RAWIMUSA,2124,292781.238;2124,292781.237755000,00000077,-63939,179,-553,-2,0,0*8b4dc6e2
%RAWIMUSA,2124,292781.248;2124,292781.247755000,00000077,-63934,279,-583,9,-1,-5*59fdc57f
%RAWIMUSA,2124,292781.258;2124,292781.257755000,00000077,-63928,165,-534,13,11,5*b5f6c01a
%RAWIMUSA,2124,292781.268;2124,292781.267755000,00000077,-63966,198,-494,1,5,-10*1de2eac8
%RAWIMUSA,2124,292781.278;2124,292781.277755000,00000077,-63899,274,-492,16,-12,13*a141d1fe
%RAWIMUSA,2124,292781.288;2124,292781.287755000,00000077,-63958,250,-545,-10,3,3*dacf6dd9
%RAWIMUSA,2124,292781.298;2124,292781.297755000,00000077,-63965,194,-594,4,-1,6*19f4c856
%RAWIMUSA,2124,292781.308;2124,292781.307755000,00000077,-63867,225,-486,5,15,-6*91cf4139
%RAWIMUSA,2124,292781.318;2124,292781.317755000,00000077,-63987,186,-491,14,5,9*c7a5b925
%RAWIMUSA,2124,292781.328;2124,292781.327755000,00000077,-63965,103,-480,-3,-3,6*64ec3ec0
%RAWIMUSA,2124,292781.338;2124,292781.337755000,00000077,-63934,230,-454,7,1,15*46d9ef43
%RAWIMUSA,2124,292781.348;2124,292781.347755000,00000077,-63923,114,-428,0,0,12*1b76d321
%RAWIMUSA,2124,292781.358;2124,292781.357755000,00000077,-63890,121,-508,1,0,-10*77c36066
%RAWIMUSA,2124,292781.368;2124,292781.367755000,00000077,-63916,219,-405,6,-5,17*0b824938
%RAWIMUSA,2124,292781.378;2124,292781.377755000,00000077,-63997,172,-475,-7,10,-8*92c06c30
%RAWIMUSA,2124,292781.388;2124,292781.387755000,00000077,-64010,185,-439,18,8,11*3152459c
%RAWIMUSA,2124,292781.398;2124,292781.397755000,00000077,-64021,218,-560,-4,17,13*c3a78abe
%RAWIMUSA,2124,292781.408;2124,292781.407755000,00000077,-64076,135,-485,11,2,-3*345d6456
%RAWIMUSA,2124,292781.418;2124,292781.417755000,00000077,-63896,194,-536,4,9,20*9298cb1a
%RAWIMUSA,2124,292781.428;2124,292781.427755000,00000077,-63903,194,-456,-6,0,3*e83666ca
%RAWIMUSA,2124,292781.438;2124,292781.437755000,00000077,-63944,279,-511,-11,13,16*309cc35b
%RAWIMUSA,2124,292781.448;2124,292781.447755000,00000077,-63916,230,-514,0,-8,15*8fb012e4
%RAWIMUSA,2124,292781.458;2124,292781.457755000,00000077,-63842,303,-470,2,4,-5*220f9550
%RAWIMUSA,2124,292781.468;2124,292781.467755000,00000077,-63944,218,-440,0,-10,4*8f2ed42d
%RAWIMUSA,2124,292781.478;2124,292781.477755000,00000077,-63944,194,-404,-16,-4,1*01b5da7d
%RAWIMUSA,2124,292781.488;2124,292781.487755000,00000077,-63936,166,-472,7,-8,-6*80e3b904
%RAWIMUSA,2124,292781.498;2124,292781.497755000,00000077,-63934,255,-462,3,6,18*b289f808
%RAWIMUSA,2124,292781.508;2124,292781.507755000,00000077,-63964,234,-403,0,-11,8*e41947e3
%RAWIMUSA,2124,292781.518;2124,292781.517755000,00000077,-64041,232,-526,12,12,-1*ba7ff916
%RAWIMUSA,2124,292781.528;2124,292781.527755000,00000077,-63893,176,-505,0,-13,4*e3b848f7
%RAWIMUSA,2124,292781.538;2124,292781.537755000,00000077,-63899,277,-389,-5,5,0*c26ab647
%RAWIMUSA,2124,292781.548;2124,292781.547755000,00000077,-63859,269,-534,15,3,-2*97c6a40b
%RAWIMUSA,2124,292781.558;2124,292781.557755000,00000077,-64010,178,-496,-6,17,2*f2c17b87
%RAWIMUSA,2124,292781.568;2124,292781.567755000,00000077,-63955,208,-466,-5,14,1*faa7c008
%RAWIMUSA,2124,292781.578;2124,292781.577755000,00000077,-63986,196,-505,13,-15,0*1b250b2b
%RAWIMUSA,2124,292781.588;2124,292781.587755000,00000077,-63964,136,-462,1,-1,6*86901716
%RAWIMUSA,2124,292781.598;2124,292781.597755000,00000077,-63832,204,-496,-4,8,2*625a7da3
%RAWIMUSA,2124,292781.608;2124,292781.607755000,00000077,-63950,241,-477,-7,10,8*58bdea59
%RAWIMUSA,2124,292781.618;2124,292781.617755000,00000077,-63905,205,-578,-7,-1,8*e49a3cb8
%RAWIMUSA,2124,292781.628;2124,292781.627755000,00000077,-63920,291,-511,6,2,10*b0140522
%RAWIMUSA,2124,292781.638;2124,292781.637755000,00000077,-63896,243,-575,-3,0,6*97663376
%RAWIMUSA,2124,292781.648;2124,292781.647755000,00000077,-63931,188,-458,-8,0,5*b0ecf0ad
%RAWIMUSA,2124,292781.658;2124,292781.657755000,00000077,-63947,238,-531,16,13,20*2159b614
%RAWIMUSA,2124,292781.668;2124,292781.667755000,00000077,-63987,173,-484,7,-6,2*5618562c
%RAWIMUSA,2124,292781.678;2124,292781.677755000,00000077,-63958,255,-555,-1,0,14*37940f1e
%RAWIMUSA,2124,292781.688;2124,292781.687755000,00000077,-64004,232,-416,-14,-11,7*2795cc68
%RAWIMUSA,2124,292781.698;2124,292781.697755000,00000077,-63901,202,-462,-1,0,-2*40a9f411
%RAWIMUSA,2124,292781.708;2124,292781.707755000,00000077,-64078,204,-514,4,-1,1*e1289fed
%RAWIMUSA,2124,292781.718;2124,292781.717755000,00000077,-63894,188,-508,1,14,-3*0e4c23c6
%RAWIMUSA,2124,292781.728;2124,292781.727755000,00000077,-63948,212,-578,-18,1,6*1f1a5dd7
%RAWIMUSA,2124,292781.738;2124,292781.737755000,00000077,-63879,156,-511,1,8,19*ed493661
%RAWIMUSA,2124,292781.748;2124,292781.747755000,00000077,-63929,139,-543,3,-6,0*1e8977a5
%RAWIMUSA,2124,292781.758;2124,292781.757755000,00000077,-63821,260,-573,0,-11,0*03683853
%RAWIMUSA,2124,292781.768;2124,292781.767755000,00000077,-63915,225,-386,-3,8,10*06c23b7e
%RAWIMUSA,2124,292781.778;2124,292781.777755000,00000077,-63968,308,-476,2,-12,13*61f09c18
%RAWIMUSA,2124,292781.788;2124,292781.787755000,00000077,-63924,318,-479,13,15,5*a2153377
%RAWIMUSA,2124,292781.798;2124,292781.797755000,00000077,-63826,211,-359,-3,0,-10*6b61f982
%RAWIMUSA,2124,292781.808;2124,292781.807755000,00000077,-64012,240,-518,4,15,1*188b85bc
%RAWIMUSA,2124,292781.818;2124,292781.817755000,00000077,-63939,163,-446,-3,-2,-3*9690b8b2
%RAWIMUSA,2124,292781.828;2124,292781.827755000,00000077,-63952,145,-533,1,-5,23*c8e96229
%RAWIMUSA,2124,292781.838;2124,292781.837755000,00000077,-63986,142,-460,6,26,13*61bf27a4
%RAWIMUSA,2124,292781.848;2124,292781.847755000,00000077,-63946,193,-470,3,0,6*bc933e5d
%RAWIMUSA,2124,292781.858;2124,292781.857755000,00000077,-63941,314,-594,-10,12,1*ac9e1faf
%RAWIMUSA,2124,292781.868;2124,292781.867755000,00000077,-63910,193,-433,-9,-7,22*147cc1da
%RAWIMUSA,2124,292781.878;2124,292781.877755000,00000077,-63969,244,-533,3,-7,13*b0be0d58
%RAWIMUSA,2124,292781.888;2124,292781.887755000,00000077,-63845,269,-562,17,1,-3*05c756dc
%RAWIMUSA,2124,292781.898;2124,292781.897755000,00000077,-63985,41,-543,-13,11,29*a35fabc3
%RAWIMUSA,2124,292781.908;2124,292781.907755000,00000077,-63951,201,-566,6,-7,2*f7589528
%RAWIMUSA,2124,292781.918;2124,292781.917755000,00000077,-63980,178,-527,14,9,19*9c3c5fd5
%RAWIMUSA,2124,292781.928;2124,292781.927755000,00000077,-63868,168,-511,4,-1,20*868f410f
%RAWIMUSA,2124,292781.938;2124,292781.937755000,00000077,-63928,160,-476,1,13,-2*1fe01b0b
%RAWIMUSA,2124,292781.948;2124,292781.947755000,00000077,-63850,300,-510,7,-1,1*91724a3e
%RAWIMUSA,2124,292781.958;2124,292781.957755000,00000077,-64016,179,-590,8,-2,14*460c72d6
%RAWIMUSA,2124,292781.968;2124,292781.967755000,00000077,-63994,227,-439,-10,15,-1*14ce9d73
%RAWIMUSA,2124,292781.978;2124,292781.977755000,00000077,-63981,272,-521,15,4,9*7cd68955
%RAWIMUSA,2124,292781.988;2124,292781.987755000,00000077,-63997,141,-614,-12,10,17*01ac18ba
%RAWIMUSA,2124,292781.998;2124,292781.997755000,00000077,-63885,216,-457,0,0,3*842f76d3
%RAWIMUSA,2124,292782.008;2124,292782.007755000,00000077,-63931,201,-602,-7,10,7*2f3e2415
%RAWIMUSA,2124,292782.018;2124,292782.017755000,00000077,-63922,282,-589,-2,-3,6*662c9dc5
%RAWIMUSA,2124,292782.028;2124,292782.027755000,00000077,-63934,239,-502,-10,5,12*e8cc4f96
%RAWIMUSA,2124,292782.038;2124,292782.037755000,00000077,-63920,150,-557,4,-9,19*014fe1b2
%RAWIMUSA,2124,292782.048;2124,292782.047755000,00000077,-63833,240,-533,19,20,7*c1860636
%RAWIMUSA,2124,292782.058;2124,292782.057755000,00000077,-63832,297,-533,6,1,-2*1c48d9d4
%RAWIMUSA,2124,292782.068;2124,292782.067755000,00000077,-63957,233,-510,0,-7,4*a311c1c3
%RAWIMUSA,2124,292782.078;2124,292782.077755000,00000077,-63956,194,-479,8,0,3*19b9d196
%RAWIMUSA,2124,292782.088;2124,292782.087755000,00000077,-64034,199,-505,0,-1,27*b0d4d43c
%RAWIMUSA,2124,292782.098;2124,292782.097755000,00000077,-63936,268,-451,-1,4,1*e680a597
%RAWIMUSA,2124,292782.108;2124,292782.107755000,00000077,-63913,181,-499,-9,14,-8*f5ba68d1
%RAWIMUSA,2124,292782.118;2124,292782.117755000,00000077,-63927,196,-514,-9,3,13*af90f772
%RAWIMUSA,2124,292782.128;2124,292782.127755000,00000077,-63958,209,-419,7,7,10*4f9bec6f
%RAWIMUSA,2124,292782.138;2124,292782.137755000,00000077,-63910,131,-592,3,-14,-2*ff5e4350
%RAWIMUSA,2124,292782.148;2124,292782.147755000,00000077,-63877,200,-553,0,5,1*5a989e40
%RAWIMUSA,2124,292782.158;2124,292782.157755000,00000077,-64010,165,-509,-4,5,12*d032013e
%RAWIMUSA,2124,292782.168;2124,292782.167755000,00000077,-63960,229,-511,-8,2,25*43e697ef
%RAWIMUSA,2124,292782.178;2124,292782.177755000,00000077,-63943,239,-482,3,4,6*55922f54
%RAWIMUSA,2124,292782.188;2124,292782.187755000,00000077,-63928,233,-405,-2,0,12*bd5a767c
%RAWIMUSA,2124,292782.198;2124,292782.197755000,00000077,-63922,123,-475,-10,4,8*194a1295
%RAWIMUSA,2124,292782.208;2124,292782.207755000,00000077,-63969,111,-449,5,3,18*06489d62
%RAWIMUSA,2124,292782.218;2124,292782.217755000,00000077,-63945,185,-494,11,7,0*caaf8623
%RAWIMUSA,2124,292782.228;2124,292782.227755000,00000077,-63947,116,-558,1,24,3*ecac1082
%RAWIMUSA,2124,292782.238;2124,292782.237755000,00000077,-63915,137,-480,-12,-9,12*b2c03d40
%RAWIMUSA,2124,292782.248;2124,292782.247755000,00000077,-63924,160,-488,-2,3,1*82abbb13
%RAWIMUSA,2124,292782.258;2124,292782.257755000,00000077,-63919,255,-569,2,5,-1*5dfb5cc4
%RAWIMUSA,2124,292782.268;2124,292782.267755000,00000077,-63895,258,-508,2,9,10*27695529
%RAWIMUSA,2124,292782.278;2124,292782.277755000,00000077,-63876,234,-451,-2,15,1*5d4172cf
%RAWIMUSA,2124,292782.288;2124,292782.287755000,00000077,-63912,335,-485,0,5,9*865bad93
%RAWIMUSA,2124,292782.298;2124,292782.297755000,00000077,-63934,277,-429,0,-9,5*957d86fd
%RAWIMUSA,2124,292782.308;2124,292782.307755000,00000077,-63993,255,-488,7,8,18*4a99fee2
%RAWIMUSA,2124,292782.318;2124,292782.317755000,00000077,-63872,208,-524,7,-7,22*1d80f0d6
%RAWIMUSA,2124,292782.328;2124,292782.327755000,00000077,-63900,172,-416,19,4,-6*4c232dab
%RAWIMUSA,2124,292782.338;2124,292782.337755000,00000077,-63879,206,-493,-10,3,11*59c649d0
%RAWIMUSA,2124,292782.348;2124,292782.347755000,00000077,-63873,191,-528,3,-1,5*ca2bd5eb
%RAWIMUSA,2124,292782.358;2124,292782.357755000,00000077,-63905,231,-518,10,-5,14*285ccf91
%RAWIMUSA,2124,292782.368;2124,292782.367755000,00000077,-63916,253,-505,-7,0,2*be182e1a
%RAWIMUSA,2124,292782.378;2124,292782.377755000,00000077,-64002,170,-513,-11,10,6*f3d80083
%RAWIMUSA,2124,292782.388;2124,292782.387755000,00000077,-63919,316,-514,7,-5,16*b10905af
%RAWIMUSA,2124,292782.398;2124,292782.397755000,00000077,-63847,253,-446,3,14,6*86f188fd
%RAWIMUSA,2124,292782.408;2124,292782.407755000,00000077,-63951,228,-470,-8,-1,12*15e07916
%RAWIMUSA,2124,292782.418;2124,292782.417755000,00000077,-63876,136,-546,-14,10,10*44cee5fc
%RAWIMUSA,2124,292782.428;2124,292782.427755000,00000077,-63965,164,-460,1,1,11*62816c48
%RAWIMUSA,2124,292782.438;2124,292782.437755000,00000077,-63939,186,-551,-7,3,0*4ed60036
%RAWIMUSA,2124,292782.448;2124,292782.447755000,00000077,-63902,290,-469,7,6,-5*66e348b6
%RAWIMUSA,2124,292782.458;2124,292782.457755000,00000077,-63918,138,-466,0,14,-3*6bbae476
%RAWIMUSA,2124,292782.468;2124,292782.467755000,00000077,-63948,38,-445,22,3,11*19dccaca
%RAWIMUSA,2124,292782.478;2124,292782.477755000,00000077,-63973,164,-436,-1,7,15*f27113dc
%RAWIMUSA,2124,292782.488;2124,292782.487755000,00000077,-63903,141,-496,-3,10,2*c950436a
%RAWIMUSA,2124,292782.498;2124,292782.497755000,00000077,-63900,247,-529,14,4,0*8a8eb9b7
%RAWIMUSA,2124,292782.508;2124,292782.507755000,00000077,-64016,208,-640,6,-5,10*9aacb9bb
%RAWIMUSA,2124,292782.518;2124,292782.517755000,00000077,-63972,326,-497,4,3,12*3638255d
%RAWIMUSA,2124,292782.528;2124,292782.527755000,00000077,-63843,234,-495,0,6,1*5426cdc9
%RAWIMUSA,2124,292782.538;2124,292782.537755000,00000077,-63932,241,-581,7,0,-12*f2088188
%RAWIMUSA,2124,292782.548;2124,292782.547755000,00000077,-63979,223,-487,-1,5,3*0b564330
%RAWIMUSA,2124,292782.558;2124,292782.557755000,00000077,-63936,184,-443,8,3,14*19048bb5
%RAWIMUSA,2124,292782.568;2124,292782.567755000,00000077,-63906,233,-480,0,18,10*bab649ad
%RAWIMUSA,2124,292782.578;2124,292782.577755000,00000077,-63872,208,-471,7,5,21*44d8420c
%RAWIMUSA,2124,292782.588;2124,292782.587755000,00000077,-63944,206,-521,-2,14,0*93c5e76b
%RAWIMUSA,2124,292782.598;2124,292782.597755000,00000077,-63875,237,-457,10,18,21*6c9a16ba
%RAWIMUSA,2124,292782.608;2124,292782.607755000,00000077,-63906,270,-418,13,3,-19*a4f93af0
%RAWIMUSA,2124,292782.618;2124,292782.617755000,00000077,-63917,220,-461,15,12,19*fae1c50d
%RAWIMUSA,2124,292782.628;2124,292782.627755000,00000077,-63832,257,-516,11,0,5*0124700b
%RAWIMUSA,2124,292782.638;2124,292782.637755000,00000077,-63920,166,-487,-4,12,2*5205c69a
%RAWIMUSA,2124,292782.648;2124,292782.647755000,00000077,-63984,221,-330,0,8,3*69e4463f
%RAWIMUSA,2124,292782.658;2124,292782.657755000,00000077,-63885,141,-561,1,3,5*dd0b3cce
%RAWIMUSA,2124,292782.668;2124,292782.667755000,00000077,-63969,322,-515,0,-3,0*f749e1d0
%RAWIMUSA,2124,292782.678;2124,292782.677755000,00000077,-63919,118,-500,-2,-4,8*b32b69b9
%RAWIMUSA,2124,292782.688;2124,292782.687755000,00000077,-63877,274,-517,-8,16,17*556a7cfd
%RAWIMUSA,2124,292782.698;2124,292782.697755000,00000077,-64003,76,-521,23,0,-7*98996c2d
%RAWIMUSA,2124,292782.708;2124,292782.707755000,00000077,-63867,388,-484,-6,0,33*df389266
%RAWIMUSA,2124,292782.718;2124,292782.717755000,00000077,-63808,87,-447,-6,-5,4*25506097
%RAWIMUSA,2124,292782.728;2124,292782.727755000,00000077,-63902,318,-535,-8,7,15*dd9df97a
%RAWIMUSA,2124,292782.738;2124,292782.737755000,00000077,-64014,69,-550,-9,1,0*40206cfe
%RAWIMUSA,2124,292782.748;2124,292782.747755000,00000077,-63992,412,-619,8,0,21*5b3774a0
%RAWIMUSA,2124,292782.758;2124,292782.757755000,00000077,-63960,151,-458,5,-5,-2*466d1303
%RAWIMUSA,2124,292782.768;2124,292782.767755000,00000077,-63973,336,-552,5,7,28*729c6cb0
%RAWIMUSA,2124,292782.778;2124,292782.777755000,00000077,-63883,80,-506,7,9,5*630707c1
%RAWIMUSA,2124,292782.788;2124,292782.787755000,00000077,-63846,229,-545,3,10,13*0bbbfc79
%RAWIMUSA,2124,292782.798;2124,292782.797755000,00000077,-63937,81,-386,6,-1,-2*97679f12
%RAWIMUSA,2124,292782.808;2124,292782.807755000,00000077,-63901,281,-487,6,-1,3*3a864134
%RAWIMUSA,2124,292782.818;2124,292782.817755000,00000077,-63882,5,-562,10,6,0*3f139577
%RAWIMUSA,2124,292782.828;2124,292782.827755000,00000077,-63923,279,-539,0,-4,14*bb14ed7c
%RAWIMUSA,2124,292782.838;2124,292782.837755000,00000077,-64008,138,-568,-2,-1,18*38f0e69d
