%RAWIMUSA,2124,293085.488;2124,293085.487755000,00000077,64445,208,492,2,-9,-4*fe3ca226
%RAWIMUSA,2124,293085.498;2124,293085.497755000,00000077,64463,236,437,1,6,9*b15d3782
%RAWIMUSA,2124,293085.508;2124,293085.507755000,00000077,64468,179,428,15,-1,8*bea1a7c7
%RAWIMUSA,2124,293085.518;2124,293085.517755000,00000077,64290,210,402,4,1,12*07efdb8e
%RAWIMUSA,2124,293085.528;2124,293085.527755000,00000077,64423,182,387,2,-13,-1*0db8c6d2
%RAWIMUSA,2124,293085.538;2124,293085.537755000,00000077,64466,135,472,0,-3,-4*b150fd12
%RAWIMUSA,2124,293085.548;2124,293085.547755000,00000077,64430,165,372,4,2,4*c57dabb3
%RAWIMUSA,2124,293085.558;2124,293085.557755000,00000077,64470,227,444,13,8,-5*f4eab03c
%RAWIMUSA,2124,293085.568;2124,293085.567755000,00000077,64487,203,488,5,-4,2*dd36e5e0
%RAWIMUSA,2124,293085.578;2124,293085.577755000,00000077,64436,241,370,-1,0,8*a06efa49
%RAWIMUSA,2124,293085.588;2124,293085.587755000,00000077,64473,232,442,21,7,-9*aed9b2ea
%RAWIMUSA,2124,293085.598;2124,293085.597755000,00000077,64541,261,426,3,-6,1*dc2ffb9b
%RAWIMUSA,2124,293085.608;2124,293085.607755000,00000077,64414,261,437,10,-2,2*92c07b7a
%RAWIMUSA,2124,293085.618;2124,293085.617755000,00000077,64511,183,443,-10,-2,3*374f0d41
%RAWIMUSA,2124,293085.628;2124,293085.627755000,00000077,64461,130,422,16,3,-3*ad73531c
%RAWIMUSA,2124,293085.638;2124,293085.637755000,00000077,64498,173,400,0,5,-4*feec9dc4
%RAWIMUSA,2124,293085.648;2124,293085.647755000,00000077,64447,261,433,9,5,1*2a79f711
%RAWIMUSA,2124,293085.658;2124,293085.657755000,00000077,64455,186,383,-1,-5,-3*3f66de5e
%RAWIMUSA,2124,293085.668;2124,293085.667755000,00000077,64460,242,443,10,7,10*6b4215a1
%RAWIMUSA,2124,293085.678;2124,293085.677755000,00000077,64408,217,407,3,4,18*c6d28e57
%RAWIMUSA,2124,293085.688;2124,293085.687755000,00000077,64455,135,395,-6,-4,15*a1b3c12b
%RAWIMUSA,2124,293085.698;2124,293085.697755000,00000077,64348,191,393,3,4,9*0ddc258d
%RAWIMUSA,2124,293085.708;2124,293085.707755000,00000077,64476,188,407,10,13,-4*dabaa807
%RAWIMUSA,2124,293085.718;2124,293085.717755000,00000077,64369,266,455,11,11,9*efa962a4
%RAWIMUSA,2124,293085.728;2124,293085.727755000,00000077,64426,235,408,2,-9,7*49d9bd9b
%RAWIMUSA,2124,293085.738;2124,293085.737755000,00000077,64506,185,348,2,4,14*8b9b5bcc
%RAWIMUSA,2124,293085.748;2124,293085.747755000,00000077,64374,200,403,-6,-6,5*71cd7965
%RAWIMUSA,2124,293085.758;2124,293085.757755000,00000077,64534,207,392,11,7,5*782b0d11
%RAWIMUSA,2124,293085.768;2124,293085.767755000,00000077,64496,216,450,-3,14,6*1d363478
%RAWIMUSA,2124,293085.778;2124,293085.777755000,00000077,64471,231,418,-5,0,7*ade590ce
%RAWIMUSA,2124,293085.788;2124,293085.787755000,00000077,64427,288,415,13,0,2*c8ed5082
%RAWIMUSA,2124,293085.798;2124,293085.797755000,00000077,64474,145,353,9,-4,10*8963f97e
%RAWIMUSA,2124,293085.808;2124,293085.807755000,00000077,64508,192,459,4,0,-2*2c400072
%RAWIMUSA,2124,293085.818;2124,293085.817755000,00000077,64509,216,516,-4,-2,8*4b1caa59
%RAWIMUSA,2124,293085.828;2124,293085.827755000,00000077,64542,249,457,-8,-8,19*8d37e878
%RAWIMUSA,2124,293085.838;2124,293085.837755000,00000077,64496,142,483,16,4,0*6ff1f1ab
%RAWIMUSA,2124,293085.848;2124,293085.847755000,00000077,64431,166,433,18,3,0*e974cfa4
%RAWIMUSA,2124,293085.858;2124,293085.857755000,00000077,64509,241,428,3,10,7*6ecfac21
%RAWIMUSA,2124,293085.868;2124,293085.867755000,00000077,64358,206,492,-6,2,1*89df84d9
%RAWIMUSA,2124,293085.878;2124,293085.877755000,00000077,64424,202,434,6,8,9*a2f728ac
%RAWIMUSA,2124,293085.888;2124,293085.887755000,00000077,64492,235,458,-1,-14,3*5291e10e
%RAWIMUSA,2124,293085.898;2124,293085.897755000,00000077,64439,179,442,6,5,-1*2afb3fdc
%RAWIMUSA,2124,293085.908;2124,293085.907755000,00000077,64523,147,342,24,-10,16*d59b4352
%RAWIMUSA,2124,293085.918;2124,293085.917755000,00000077,64285,144,429,12,4,30*bf3779f6
%RAWIMUSA,2124,293085.928;2124,293085.927755000,00000077,64556,254,425,-5,2,10*20c72c5e
%RAWIMUSA,2124,293085.938;2124,293085.937755000,00000077,64533,263,520,-1,-10,8*350333df
%RAWIMUSA,2124,293085.948;2124,293085.947755000,00000077,64516,169,374,-2,0,0*b8ea114b
%RAWIMUSA,2124,293085.958;2124,293085.957755000,00000077,64494,248,481,1,4,24*b041aa91
%RAWIMUSA,2124,293085.968;2124,293085.967755000,00000077,64438,291,480,-5,-1,-2*6de64367
%RAWIMUSA,2124,293085.978;2124,293085.977755000,00000077,64401,196,386,7,15,-11*9dcb0b23
%RAWIMUSA,2124,293085.988;2124,293085.987755000,00000077,64497,195,425,-6,2,29*55a31d6f
%RAWIMUSA,2124,293085.998;2124,293085.997755000,00000077,64460,195,403,12,0,-24*e8eb914c
%RAWIMUSA,2124,293086.008;2124,293086.007755000,00000077,64526,292,433,-11,-9,29*fcd69b7a
%RAWIMUSA,2124,293086.018;2124,293086.017755000,00000077,64454,173,442,7,-1,-20*f6c81c34
%RAWIMUSA,2124,293086.028;2124,293086.027755000,00000077,64517,190,535,6,4,26*d1f76f19
%RAWIMUSA,2124,293086.038;2124,293086.037755000,00000077,64376,183,574,0,0,-37*668384bf
%RAWIMUSA,2124,293086.048;2124,293086.047755000,00000077,64370,221,552,0,15,25*2f2cb938
%RAWIMUSA,2124,293086.058;2124,293086.057755000,00000077,64400,243,524,5,16,0*5c01f6b8
%RAWIMUSA,2124,293086.068;2124,293086.067755000,00000077,64502,73,517,1,4,38*becdef55
%RAWIMUSA,2124,293086.078;2124,293086.077755000,00000077,64411,226,427,12,16,-9*c31f4a87
%RAWIMUSA,2124,293086.088;2124,293086.087755000,00000077,64447,83,443,0,19,6*e1deb8c2
%RAWIMUSA,2124,293086.098;2124,293086.097755000,00000077,64429,217,390,-7,-10,-18*0a663fd9
%RAWIMUSA,2124,293086.108;2124,293086.107755000,00000077,64438,140,380,-5,3,28*b5ce80ee
%RAWIMUSA,2124,293086.118;2124,293086.117755000,00000077,64477,336,427,18,-4,-27*22913b71
%RAWIMUSA,2124,293086.128;2124,293086.127755000,00000077,64497,205,493,5,7,27*88cd730d
%RAWIMUSA,2124,293086.138;2124,293086.137755000,00000077,64515,146,441,-2,3,-8*941f0159
%RAWIMUSA,2124,293086.148;2124,293086.147755000,00000077,64438,192,365,17,7,9*f6534fd5
%RAWIMUSA,2124,293086.158;2124,293086.157755000,00000077,64336,181,392,2,-2,-13*6e624104
%RAWIMUSA,2124,293086.168;2124,293086.167755000,00000077,64455,178,384,-9,-9,16*6dcf5c40
%RAWIMUSA,2124,293086.178;2124,293086.177755000,00000077,64527,167,438,14,-18,10*33a1349d
%RAWIMUSA,2124,293086.188;2124,293086.187755000,00000077,64505,237,380,-4,-1,-15*a092a7c0
%RAWIMUSA,2124,293086.198;2124,293086.197755000,00000077,64490,150,408,-3,-12,11*efd92dd7
%RAWIMUSA,2124,293086.208;2124,293086.207755000,00000077,64445,184,414,15,-5,5*816c341c
%RAWIMUSA,2124,293086.218;2124,293086.217755000,00000077,64523,189,359,14,-2,-6*a0d26210
%RAWIMUSA,2124,293086.228;2124,293086.227755000,00000077,64334,159,345,3,11,19*88a49405
%RAWIMUSA,2124,293086.238;2124,293086.237755000,00000077,64405,129,386,0,-13,17*8324fc60
%RAWIMUSA,2124,293086.248;2124,293086.247755000,00000077,64425,215,478,13,-6,0*cba90a18
%RAWIMUSA,2124,293086.258;2124,293086.257755000,00000077,64470,152,447,2,8,14*043eaf76
%RAWIMUSA,2124,293086.268;2124,293086.267755000,00000077,64391,195,493,-5,-8,-10*c770b8c8
%RAWIMUSA,2124,293086.278;2124,293086.277755000,00000077,64470,227,484,-6,0,-2*d104e831
%RAWIMUSA,2124,293086.288;2124,293086.287755000,00000077,64486,205,472,-9,-14,-3*300c32f6
%RAWIMUSA,2124,293086.298;2124,293086.297755000,00000077,64410,73,400,1,21,-16*46fa238f
%RAWIMUSA,2124,293086.308;2124,293086.307755000,00000077,64457,217,451,9,-1,12*0b28328b
%RAWIMUSA,2124,293086.318;2124,293086.317755000,00000077,64469,219,436,-4,5,16*96e2fc2d
%RAWIMUSA,2124,293086.328;2124,293086.327755000,00000077,64482,288,402,3,1,12*a0f76be1
%RAWIMUSA,2124,293086.338;2124,293086.337755000,00000077,64434,199,473,0,1,7*9e10e3ea
%RAWIMUSA,2124,293086.348;2124,293086.347755000,00000077,64509,280,473,3,-3,14*0e73fc54
%RAWIMUSA,2124,293086.358;2124,293086.357755000,00000077,64451,169,447,24,-8,-4*95a76ffa
%RAWIMUSA,2124,293086.368;2124,293086.367755000,00000077,64432,282,442,-14,10,21*d9e80499
%RAWIMUSA,2124,293086.378;2124,293086.377755000,00000077,64469,247,461,4,6,-7*69774e3d
%RAWIMUSA,2124,293086.388;2124,293086.387755000,00000077,64444,147,476,0,2,-1*8022c25e
%RAWIMUSA,2124,293086.398;2124,293086.397755000,00000077,64466,145,355,-4,8,7*4544fb5f
%RAWIMUSA,2124,293086.408;2124,293086.407755000,00000077,64462,150,431,-6,-7,-2*6ed8088a
%RAWIMUSA,2124,293086.418;2124,293086.417755000,00000077,64343,167,436,-3,1,9*a5e0a2fe
%RAWIMUSA,2124,293086.428;2124,293086.427755000,00000077,64455,157,457,2,0,3*050bef31
%RAWIMUSA,2124,293086.438;2124,293086.437755000,00000077,64467,205,446,11,-11,3*6210f3b0
%RAWIMUSA,2124,293086.448;2124,293086.447755000,00000077,64568,251,425,-5,-7,1*d3cb712e
%RAWIMUSA,2124,293086.458;2124,293086.457755000,00000077,64429,285,428,4,-4,3*bae95038
%RAWIMUSA,2124,293086.468;2124,293086.467755000,00000077,64377,227,466,18,8,11*dfa4059d
%RAWIMUSA,2124,293086.478;2124,293086.477755000,00000077,64410,183,524,-1,-9,-16*5863b466
%RAWIMUSA,2124,293086.488;2124,293086.487755000,00000077,64354,92,407,-10,10,15*80d80ead
%RAWIMUSA,2124,293086.498;2124,293086.497755000,00000077,64423,215,441,-5,2,-14*1852df2e
%RAWIMUSA,2124,293086.508;2124,293086.507755000,00000077,64405,334,443,8,7,51*94389e53
%RAWIMUSA,2124,293086.518;2124,293086.517755000,00000077,64458,235,371,-5,2,-17*1528152c
%RAWIMUSA,2124,293086.528;2124,293086.527755000,00000077,64491,198,388,-1,13,18*bdd99148
%RAWIMUSA,2124,293086.538;2124,293086.537755000,00000077,64433,193,405,3,7,-12*af0dd861
%RAWIMUSA,2124,293086.548;2124,293086.547755000,00000077,64505,170,415,0,-2,10*34b8f344
%RAWIMUSA,2124,293086.558;2124,293086.557755000,00000077,64449,214,490,6,6,-2*8a2e1eec
%RAWIMUSA,2124,293086.568;2124,293086.567755000,00000077,64453,246,492,-3,-2,9*92551038
%RAWIMUSA,2124,293086.578;2124,293086.577755000,00000077,64491,250,398,-1,9,6*10705f2e
%RAWIMUSA,2124,293086.588;2124,293086.587755000,00000077,64443,289,405,-6,2,18*4c6bfcd5
%RAWIMUSA,2124,293086.598;2124,293086.597755000,00000077,64407,171,491,6,-9,0*dca34fdd
%RAWIMUSA,2124,293086.608;2124,293086.607755000,00000077,64592,111,444,4,1,13*9925a9b1
%RAWIMUSA,2124,293086.618;2124,293086.617755000,00000077,64451,186,364,0,-2,11*2090acdd
%RAWIMUSA,2124,293086.628;2124,293086.627755000,00000077,64465,174,483,3,-11,-14*8b5bd840
%RAWIMUSA,2124,293086.638;2124,293086.637755000,00000077,64468,270,535,0,-17,33*b04f625c
%RAWIMUSA,2124,293086.648;2124,293086.647755000,00000077,64455,161,489,0,8,-22*8d3c16a1
%RAWIMUSA,2124,293086.658;2124,293086.657755000,00000077,64523,223,518,7,-4,33*a5f711a0
%RAWIMUSA,2124,293086.668;2124,293086.667755000,00000077,64472,196,480,-7,1,-22*a205c9d3
%RAWIMUSA,2124,293086.678;2124,293086.677755000,00000077,64518,181,420,-1,-4,40*2e880861
%RAWIMUSA,2124,293086.688;2124,293086.687755000,00000077,64538,190,450,-14,-8,-29*85a889e6
%RAWIMUSA,2124,293086.698;2124,293086.697755000,00000077,64383,140,439,-9,7,27*b62187c2
%RAWIMUSA,2124,293086.708;2124,293086.707755000,00000077,64404,209,449,0,-9,-16*a4d7f82c
%RAWIMUSA,2124,293086.718;2124,293086.717755000,00000077,64409,221,524,-1,-13,23*27099c2c
%RAWIMUSA,2124,293086.728;2124,293086.727755000,00000077,64553,216,444,9,1,-19*39b25967
%RAWIMUSA,2124,293086.738;2124,293086.737755000,00000077,64432,120,450,-6,16,18*119fc70d
%RAWIMUSA,2124,293086.748;2124,293086.747755000,00000077,64492,111,499,-1,17,-8*274d62bf
%RAWIMUSA,2124,293086.758;2124,293086.757755000,00000077,64519,72,424,-3,3,16*98b4c9d9
%RAWIMUSA,2124,293086.768;2124,293086.767755000,00000077,64465,259,490,6,0,-11*99840609
%RAWIMUSA,2124,293086.778;2124,293086.777755000,00000077,64386,111,467,10,-1,38*4228e6a6
%RAWIMUSA,2124,293086.788;2124,293086.787755000,00000077,64478,207,406,-5,5,1*adeae197
%RAWIMUSA,2124,293086.798;2124,293086.797755000,00000077,64379,220,517,12,0,8*f77569ae
%RAWIMUSA,2124,293086.808;2124,293086.807755000,00000077,64436,240,488,8,-9,-2*3d13f523
%RAWIMUSA,2124,293086.818;2124,293086.817755000,00000077,64453,275,462,-4,3,4*34801381
%RAWIMUSA,2124,293086.828;2124,293086.827755000,00000077,64482,236,417,3,0,-14*7f3b73cd
%RAWIMUSA,2124,293086.838;2124,293086.837755000,00000077,64416,164,370,1,-6,15*6bf2e244
%RAWIMUSA,2124,293086.848;2124,293086.847755000,00000077,64456,243,452,8,-5,8*42a42c2c
%RAWIMUSA,2124,293086.858;2124,293086.857755000,00000077,64365,220,418,10,14,15*774d04fa
%RAWIMUSA,2124,293086.868;2124,293086.867755000,00000077,64483,233,442,1,-9,-14*1bde053c
%RAWIMUSA,2124,293086.878;2124,293086.877755000,00000077,64357,106,406,8,-1,33*37e0a2bf
%RAWIMUSA,2124,293086.888;2124,293086.887755000,00000077,64452,210,537,10,8,-16*75675e26
%RAWIMUSA,2124,293086.898;2124,293086.897755000,00000077,64413,241,384,8,3,37*e7a1ae7e
%RAWIMUSA,2124,293086.908;2124,293086.907755000,00000077,64443,281,403,9,7,-14*1995b5bf
%RAWIMUSA,2124,293086.918;2124,293086.917755000,00000077,64460,257,435,-1,8,40*3329c5a6
%RAWIMUSA,2124,293086.928;2124,293086.927755000,00000077,64508,172,424,-2,7,-28*4db525ef
%RAWIMUSA,2124,293086.938;2124,293086.937755000,00000077,64406,142,549,10,6,23*53e114f8
%RAWIMUSA,2124,293086.948;2124,293086.947755000,00000077,64575,142,459,4,-1,-21*484acfd5
%RAWIMUSA,2124,293086.958;2124,293086.957755000,00000077,64488,275,437,12,-13,31*22191304
%RAWIMUSA,2124,293086.968;2124,293086.967755000,00000077,64426,247,437,11,3,6*119d3e8d
%RAWIMUSA,2124,293086.978;2124,293086.977755000,00000077,64522,186,510,5,6,17*b3081448
%RAWIMUSA,2124,293086.988;2124,293086.987755000,00000077,64513,75,388,-7,-11,2*8cd150bf
%RAWIMUSA,2124,293086.998;2124,293086.997755000,00000077,64393,209,487,18,10,-14*42998478
%RAWIMUSA,2124,293087.008;2124,293087.007755000,00000077,64393,225,444,14,0,24*eb8a20da
%RAWIMUSA,2124,293087.018;2124,293087.017755000,00000077,64427,171,469,-2,13,-22*a508520f
%RAWIMUSA,2124,293087.028;2124,293087.027755000,00000077,64498,176,449,-10,-7,49*6052026a
%RAWIMUSA,2124,293087.038;2124,293087.037755000,00000077,64411,231,553,-5,3,-4*74108a29
%RAWIMUSA,2124,293087.048;2124,293087.047755000,00000077,64465,221,392,-7,0,38*c0852805
%RAWIMUSA,2124,293087.058;2124,293087.057755000,00000077,64453,144,388,8,-14,9*1e824a8e
%RAWIMUSA,2124,293087.068;2124,293087.067755000,00000077,64445,302,463,2,21,0*9eecc96e
%RAWIMUSA,2124,293087.078;2124,293087.077755000,00000077,64484,142,463,-6,5,35*f29c7062
%RAWIMUSA,2124,293087.088;2124,293087.087755000,00000077,64371,218,398,0,-1,-22*8578b7f5
%RAWIMUSA,2124,293087.098;2124,293087.097755000,00000077,64474,209,460,10,7,29*7c0c4ed5
%RAWIMUSA,2124,293087.108;2124,293087.107755000,00000077,64467,141,525,8,0,0*ea37efbc
%RAWIMUSA,2124,293087.118;2124,293087.117755000,00000077,64435,213,480,0,9,-10*87b52dc1
%RAWIMUSA,2124,293087.128;2124,293087.127755000,00000077,64535,255,413,11,16,19*b3743790
%RAWIMUSA,2124,293087.138;2124,293087.137755000,00000077,64504,173,472,7,8,-4*f8ce5044
%RAWIMUSA,2124,293087.148;2124,293087.147755000,00000077,64449,242,404,1,-1,1*4beff274
%RAWIMUSA,2124,293087.158;2124,293087.157755000,00000077,64442,158,519,-13,-1,18*cf5c4047
%RAWIMUSA,2124,293087.168;2124,293087.167755000,00000077,64533,93,368,0,3,2*f1a10d65
%RAWIMUSA,2124,293087.178;2124,293087.177755000,00000077,64440,267,505,7,1,-4*b31c513b
%RAWIMUSA,2124,293087.188;2124,293087.187755000,00000077,64468,141,552,-5,-12,15*fbaac5ad
%RAWIMUSA,2124,293087.198;2124,293087.197755000,00000077,64346,161,476,3,1,7*fc69b976
%RAWIMUSA,2124,293087.208;2124,293087.207755000,00000077,64441,316,340,-4,-1,9*88752d17
%RAWIMUSA,2124,293087.218;2124,293087.217755000,00000077,64400,144,497,7,2,16*9bad41a2
%RAWIMUSA,2124,293087.228;2124,293087.227755000,00000077,64431,172,434,9,0,6*9d6b7305
%RAWIMUSA,2124,293087.238;2124,293087.237755000,00000077,64485,180,404,-1,-8,8*a109554a
%RAWIMUSA,2124,293087.248;2124,293087.247755000,00000077,64505,222,442,3,-4,22*d3fa9037
%RAWIMUSA,2124,293087.258;2124,293087.257755000,00000077,64403,241,563,3,6,-2*4a591a18
%RAWIMUSA,2124,293087.268;2124,293087.267755000,00000077,64548,216,407,5,15,2*f3996efe
%RAWIMUSA,2124,293087.278;2124,293087.277755000,00000077,64335,200,477,-5,-27,11*36a838ef
%RAWIMUSA,2124,293087.288;2124,293087.287755000,00000077,64502,166,415,7,2,-10*4517eb02
%RAWIMUSA,2124,293087.298;2124,293087.297755000,00000077,64539,254,485,13,0,6*da840fb5
%RAWIMUSA,2124,293087.308;2124,293087.307755000,00000077,64469,217,357,-4,1,-5*2832296e
%RAWIMUSA,2124,293087.318;2124,293087.317755000,00000077,64428,185,474,-14,-6,7*c9611319
%RAWIMUSA,2124,293087.328;2124,293087.327755000,00000077,64437,155,397,6,9,5*267deec7
%RAWIMUSA,2124,293087.338;2124,293087.337755000,00000077,64421,221,437,-12,11,3*4d81594d
%RAWIMUSA,2124,293087.348;2124,293087.347755000,00000077,64517,198,379,3,2,10*bc616b0e
%RAWIMUSA,2124,293087.358;2124,293087.357755000,00000077,64442,158,415,8,6,-10*79a557d8
%RAWIMUSA,2124,293087.368;2124,293087.367755000,00000077,64472,316,440,11,-5,-5*d8fa866b
%RAWIMUSA,2124,293087.378;2124,293087.377755000,00000077,64515,190,528,6,5,-1*a5823379
%RAWIMUSA,2124,293087.388;2124,293087.387755000,00000077,64450,176,519,-3,-3,9*6c1db1c2
%RAWIMUSA,2124,293087.398;2124,293087.397755000,00000077,64411,280,436,0,4,5*40d20e25
%RAWIMUSA,2124,293087.408;2124,293087.407755000,00000077,64333,203,428,17,6,20*51e9989e
%RAWIMUSA,2124,293087.418;2124,293087.417755000,00000077,64492,190,429,4,-8,0*9dce55c7
%RAWIMUSA,2124,293087.428;2124,293087.427755000,00000077,64477,149,497,3,-2,9*cda15130
%RAWIMUSA,2124,293087.438;2124,293087.437755000,00000077,64386,223,407,8,23,13*718e79d5
%RAWIMUSA,2124,293087.448;2124,293087.447755000,00000077,64395,215,453,0,1,3*30e7eb11
%RAWIMUSA,2124,293087.458;2124,293087.457755000,00000077,64456,223,398,12,0,4*ff0bada4
%RAWIMUSA,2124,293087.468;2124,293087.467755000,00000077,64471,204,419,12,-7,16*13fd4a3c
%RAWIMUSA,2124,293087.478;2124,293087.477755000,00000077,64433,100,460,-4,-2,6*53ff7a74
%RAWIMUSA,2124,293087.488;2124,293087.487755000,00000077,64401,222,448,23,-1,5*5b888933
%RAWIMUSA,2124,293087.498;2124,293087.497755000,00000077,64363,222,442,4,2,9*93757057
%RAWIMUSA,2124,293087.508;2124,293087.507755000,00000077,64454,271,412,15,-9,18*4e8b9837
%RAWIMUSA,2124,293087.518;2124,293087.517755000,00000077,64405,182,472,-13,3,9*155f6dbf
%RAWIMUSA,2124,293087.528;2124,293087.527755000,00000077,64464,139,475,10,4,2*3bea5558
%RAWIMUSA,2124,293087.538;2124,293087.537755000,00000077,64403,255,431,13,6,2*a90608be
%RAWIMUSA,2124,293087.548;2124,293087.547755000,00000077,64418,229,403,-14,17,5*6af929f1
%RAWIMUSA,2124,293087.558;2124,293087.557755000,00000077,64424,234,357,-7,0,-2*d01a208f
%RAWIMUSA,2124,293087.568;2124,293087.567755000,00000077,64361,206,395,2,0,-13*2fa08a3a
%RAWIMUSA,2124,293087.578;2124,293087.577755000,00000077,64405,271,378,6,4,1*84099c38
%RAWIMUSA,2124,293087.588;2124,293087.587755000,00000077,64475,228,507,8,0,-3*7c6e978d
%RAWIMUSA,2124,293087.598;2124,293087.597755000,00000077,64402,152,412,5,12,20*c6060bb4
%RAWIMUSA,2124,293087.608;2124,293087.607755000,00000077,64501,275,398,-3,-4,13*d6838931
%RAWIMUSA,2124,293087.618;2124,293087.617755000,00000077,64392,277,289,-4,2,6*e7dbdc7a
%RAWIMUSA,2124,293087.628;2124,293087.627755000,00000077,64480,228,472,0,-6,28*5b202d96
%RAWIMUSA,2124,293087.638;2124,293087.637755000,00000077,64488,212,427,13,-5,1*6bdf4a17
%RAWIMUSA,2124,293087.648;2124,293087.647755000,00000077,64398,224,420,5,-12,7*67de2b66
%RAWIMUSA,2124,293087.658;2124,293087.657755000,00000077,64493,275,438,-3,17,7*64d5fbfc
%RAWIMUSA,2124,293087.668;2124,293087.667755000,00000077,64478,221,499,-3,12,19*c8015753
%RAWIMUSA,2124,293087.678;2124,293087.677755000,00000077,64481,248,444,18,2,-4*f166849d
%RAWIMUSA,2124,293087.688;2124,293087.687755000,00000077,64391,200,411,-5,11,-9*c068dfc1
%RAWIMUSA,2124,293087.698;2124,293087.697755000,00000077,64398,157,472,2,11,-7*de090ab3
%RAWIMUSA,2124,293087.708;2124,293087.707755000,00000077,64343,261,422,1,16,10*6b3890c0
%RAWIMUSA,2124,293087.718;2124,293087.717755000,00000077,64427,175,373,8,4,-8*ea7006ef
%RAWIMUSA,2124,293087.728;2124,293087.727755000,00000077,64508,204,362,7,8,7*3ceed2c6
%RAWIMUSA,2124,293087.738;2124,293087.737755000,00000077,64472,204,410,1,5,16*bc2ed597
%RAWIMUSA,2124,293087.748;2124,293087.747755000,00000077,64557,197,366,-9,1,3*497c67ca
%RAWIMUSA,2124,293087.758;2124,293087.757755000,00000077,64508,285,419,13,-17,-3*ae67987d
%RAWIMUSA,2124,293087.768;2124,293087.767755000,00000077,64404,196,478,2,7,1*ee969164
%RAWIMUSA,2124,293087.778;2124,293087.777755000,00000077,64470,181,491,-2,2,12*3feb78d1
%RAWIMUSA,2124,293087.788;2124,293087.787755000,00000077,64522,225,404,13,5,9*89d5d0c8
%RAWIMUSA,2124,293087.798;2124,293087.797755000,00000077,64372,229,435,-8,9,10*880358c1
%RAWIMUSA,2124,293087.808;2124,293087.807755000,00000077,64389,290,516,3,4,-8*d9a93c18
%RAWIMUSA,2124,293087.818;2124,293087.817755000,00000077,64365,166,443,14,9,18*ce792043
%RAWIMUSA,2124,293087.828;2124,293087.827755000,00000077,64463,218,444,9,4,0*62249317
%RAWIMUSA,2124,293087.838;2124,293087.837755000,00000077,64403,192,502,4,1,24*887e1ab1
%RAWIMUSA,2124,293087.848;2124,293087.847755000,00000077,64510,213,474,-1,-11,-7*0fb91b31
%RAWIMUSA,2124,293087.858;2124,293087.857755000,00000077,64421,262,457,3,-12,17*92341ed4
%RAWIMUSA,2124,293087.868;2124,293087.867755000,00000077,64450,318,410,0,4,-2*e7a3d326
%RAWIMUSA,2124,293087.878;2124,293087.877755000,00000077,64365,77,367,0,12,15*65a3c054
%RAWIMUSA,2124,293087.888;2124,293087.887755000,00000077,64447,259,332,4,-3,-13*616656f1
%RAWIMUSA,2124,293087.898;2124,293087.897755000,00000077,64446,169,412,1,18,14*1063a0fc
%RAWIMUSA,2124,293087.908;2124,293087.907755000,00000077,64403,211,491,5,-9,3*b6bb5610
%RAWIMUSA,2124,293087.918;2124,293087.917755000,00000077,64358,256,429,8,12,3*3a58dd78
%RAWIMUSA,2124,293087.928;2124,293087.927755000,00000077,64447,198,452,6,3,20*602ef69d
%RAWIMUSA,2124,293087.938;2124,293087.937755000,00000077,64356,88,485,9,1,-3*12bc8b45
%RAWIMUSA,2124,293087.948;2124,293087.947755000,00000077,64473,243,428,-6,3,15*e5ec4f58
%RAWIMUSA,2124,293087.958;2124,293087.957755000,00000077,64363,205,355,4,4,-1*742d1a90
%RAWIMUSA,2124,293087.968;2124,293087.967755000,00000077,64407,210,389,23,10,26*afaba9da
%RAWIMUSA,2124,293087.978;2124,293087.977755000,00000077,64310,198,399,3,0,-9*f6209b9b
%RAWIMUSA,2124,293087.988;2124,293087.987755000,00000077,64463,120,480,6,12,17*408b1735
%RAWIMUSA,2124,293087.998;2124,293087.997755000,00000077,64394,34,503,17,15,-14*213aa9ad
%RAWIMUSA,2124,293088.008;2124,293088.007755000,00000077,64388,298,370,11,-4,36*6af0726a
%RAWIMUSA,2124,293088.018;2124,293088.017755000,00000077,64380,165,476,0,-5,-2*5df702d6
%RAWIMUSA,2124,293088.028;2124,293088.027755000,00000077,64565,152,488,2,9,18*f58a9e19
%RAWIMUSA,2124,293088.038;2124,293088.037755000,00000077,64508,210,491,3,-10,-16*9de3ddcc
%RAWIMUSA,2124,293088.048;2124,293088.047755000,00000077,64402,144,504,3,12,36*3a2ab93c
%RAWIMUSA,2124,293088.058;2124,293088.057755000,00000077,64401,206,472,-16,5,-33*bdb6cabb
%RAWIMUSA,2124,293088.068;2124,293088.067755000,00000077,64432,258,484,0,5,41*8ce5ed35
%RAWIMUSA,2124,293088.078;2124,293088.077755000,00000077,64389,270,321,19,-3,-15*1ce7b733
%RAWIMUSA,2124,293088.088;2124,293088.087755000,00000077,64485,208,501,-5,13,17*13dfd83e
%RAWIMUSA,2124,293088.098;2124,293088.097755000,00000077,64430,194,499,6,2,-1*1c087cd1
%RAWIMUSA,2124,293088.108;2124,293088.107755000,00000077,64449,213,434,6,3,5*71560c5e
%RAWIMUSA,2124,293088.118;2124,293088.117755000,00000077,64462,244,463,-2,-3,-5*0d99c2fd
%RAWIMUSA,2124,293088.128;2124,293088.127755000,00000077,64511,85,522,21,23,1*6418ca41
%RAWIMUSA,2124,293088.138;2124,293088.137755000,00000077,64409,230,446,6,7,16*a59e3d48
%RAWIMUSA,2124,293088.148;2124,293088.147755000,00000077,64387,130,463,-10,7,-14*78d461aa
%RAWIMUSA,2124,293088.158;2124,293088.157755000,00000077,64476,313,370,-2,2,-5*ab814d02
%RAWIMUSA,2124,293088.168;2124,293088.167755000,00000077,64450,195,386,0,-4,-17*fef17d50
%RAWIMUSA,2124,293088.178;2124,293088.177755000,00000077,64504,209,466,-1,2,13*b2acf7c2
%RAWIMUSA,2124,293088.188;2124,293088.187755000,00000077,64442,217,460,16,12,-6*a20836a3
%RAWIMUSA,2124,293088.198;2124,293088.197755000,00000077,64432,251,452,20,2,10*e1bd785a
%RAWIMUSA,2124,293088.208;2124,293088.207755000,00000077,64391,156,452,-4,-4,3*4281d2af
%RAWIMUSA,2124,293088.218;2124,293088.217755000,00000077,64445,238,457,-1,-8,23*b198611d
%RAWIMUSA,2124,293088.228;2124,293088.227755000,00000077,64539,225,393,6,0,-8*a2ba598e
%RAWIMUSA,2124,293088.238;2124,293088.237755000,00000077,64574,220,417,4,12,33*42cea564
%RAWIMUSA,2124,293088.248;2124,293088.247755000,00000077,64487,149,421,9,8,-27*d9bfa262
%RAWIMUSA,2124,293088.258;2124,293088.257755000,00000077,64387,164,380,1,-11,27*474a6f93
%RAWIMUSA,2124,293088.268;2124,293088.267755000,00000077,64496,299,322,0,2,-18*bad58ef6
%RAWIMUSA,2124,293088.278;2124,293088.277755000,00000077,64440,267,407,20,16,11*da21b84b
%RAWIMUSA,2124,293088.288;2124,293088.287755000,00000077,64487,157,336,6,0,-17*4a3719d4
%RAWIMUSA,2124,293088.298;2124,293088.297755000,00000077,64325,151,384,5,2,49*a6389616
%RAWIMUSA,2124,293088.308;2124,293088.307755000,00000077,64435,245,349,14,4,-20*6d8255cb
%RAWIMUSA,2124,293088.318;2124,293088.317755000,00000077,64491,225,391,2,15,28*377c517f
%RAWIMUSA,2124,293088.328;2124,293088.327755000,00000077,64417,254,370,17,-7,-7*6acf8477
%RAWIMUSA,2124,293088.338;2124,293088.337755000,00000077,64405,138,377,7,-2,11*fbe13b9d
%RAWIMUSA,2124,293088.348;2124,293088.347755000,00000077,64422,252,400,14,5,-14*08d9adf1
%RAWIMUSA,2124,293088.358;2124,293088.357755000,00000077,64473,187,392,5,13,23*7eb3b622
%RAWIMUSA,2124,293088.368;2124,293088.367755000,00000077,64392,218,398,-4,15,11*3bdcb920
%RAWIMUSA,2124,293088.378;2124,293088.377755000,00000077,64425,155,472,0,5,17*a004f08f
%RAWIMUSA,2124,293088.388;2124,293088.387755000,00000077,64435,310,480,8,10,0*bc238ad2
%RAWIMUSA,2124,293088.398;2124,293088.397755000,00000077,64484,150,426,0,14,9*cbfce43a
%RAWIMUSA,2124,293088.408;2124,293088.407755000,00000077,64473,209,332,10,2,16*e584ff93
%RAWIMUSA,2124,293088.418;2124,293088.417755000,00000077,64418,48,400,-4,4,3*730e0157
%RAWIMUSA,2124,293088.428;2124,293088.427755000,00000077,64400,170,410,-3,0,28*3e4eca33
%RAWIMUSA,2124,293088.438;2124,293088.437755000,00000077,64439,162,359,-3,1,-10*ebaad892
%RAWIMUSA,2124,293088.448;2124,293088.447755000,00000077,64470,360,429,5,0,16*7edfc1bb
%RAWIMUSA,2124,293088.458;2124,293088.457755000,00000077,64501,154,349,-2,8,-31*e4aa074d
%RAWIMUSA,2124,293088.468;2124,293088.467755000,00000077,64474,247,390,0,-7,38*a29572b8
%RAWIMUSA,2124,293088.478;2124,293088.477755000,00000077,64467,155,437,4,19,-21*bdfc6712
%RAWIMUSA,2124,293088.488;2124,293088.487755000,00000077,64463,269,417,-9,16,36*a0466b85
%RAWIMUSA,2124,293088.498;2124,293088.497755000,00000077,64473,236,441,7,-11,-28*155b387b
%RAWIMUSA,2124,293088.508;2124,293088.507755000,00000077,64436,309,390,0,1,29*7e83affd
%RAWIMUSA,2124,293088.518;2124,293088.517755000,00000077,64468,164,470,6,1,-20*9b3babbf
%RAWIMUSA,2124,293088.528;2124,293088.527755000,00000077,64491,195,571,-5,16,41*0187b712
%RAWIMUSA,2124,293088.538;2124,293088.537755000,00000077,64453,176,436,4,7,-25*f2358e7e
%RAWIMUSA,2124,293088.548;2124,293088.547755000,00000077,64462,254,478,4,2,29*6d6a3148
%RAWIMUSA,2124,293088.558;2124,293088.557755000,00000077,64417,189,396,-5,11,-20*6a4feb73
%RAWIMUSA,2124,293088.568;2124,293088.567755000,00000077,64482,165,421,-4,-6,31*686a22eb
%RAWIMUSA,2124,293088.578;2124,293088.577755000,00000077,64436,79,474,10,10,-25*fe4ed8cf
%RAWIMUSA,2124,293088.588;2124,293088.587755000,00000077,64399,77,383,14,-3,27*3a747847
%RAWIMUSA,2124,293088.598;2124,293088.597755000,00000077,64462,163,418,5,-9,-42*1052a554
%RAWIMUSA,2124,293088.608;2124,293088.607755000,00000077,64372,218,404,-2,-3,44*c853c42c
%RAWIMUSA,2124,293088.618;2124,293088.617755000,00000077,64397,203,339,-1,-1,-13*71254cd0
%RAWIMUSA,2124,293088.628;2124,293088.627755000,00000077,64497,149,488,6,9,38*ee17f686
%RAWIMUSA,2124,293088.638;2124,293088.637755000,00000077,64424,232,385,-14,-4,-20*be6c241e
%RAWIMUSA,2124,293088.648;2124,293088.647755000,00000077,64400,177,435,1,-5,19*07a9358c
%RAWIMUSA,2124,293088.658;2124,293088.657755000,00000077,64500,204,432,1,1,0*e67b9b58
%RAWIMUSA,2124,293088.668;2124,293088.667755000,00000077,64515,89,461,10,11,16*516f1c82
%RAWIMUSA,2124,293088.678;2124,293088.677755000,00000077,64443,184,407,11,-2,0*4316263f
%RAWIMUSA,2124,293088.688;2124,293088.687755000,00000077,64517,170,389,-9,21,22*55c44f97
%RAWIMUSA,2124,293088.698;2124,293088.697755000,00000077,64525,198,409,7,2,-11*b4d7a056
%RAWIMUSA,2124,293088.708;2124,293088.707755000,00000077,64391,83,434,7,6,14*0f78c627
%RAWIMUSA,2124,293088.718;2124,293088.717755000,00000077,64428,134,484,4,7,7*4d7e8d62
%RAWIMUSA,2124,293088.728;2124,293088.727755000,00000077,64400,175,481,0,-9,8*67c84423
%RAWIMUSA,2124,293088.738;2124,293088.737755000,00000077,64516,271,412,5,5,5*4aadeb4b
%RAWIMUSA,2124,293088.748;2124,293088.747755000,00000077,64484,221,411,3,-6,15*319f95cb
%RAWIMUSA,2124,293088.758;2124,293088.757755000,00000077,64504,198,411,16,-1,4*5749fd09
%RAWIMUSA,2124,293088.768;2124,293088.767755000,00000077,64493,134,438,6,8,9*52f73100
%RAWIMUSA,2124,293088.778;2124,293088.777755000,00000077,64416,254,423,4,4,8*74ccb042
%RAWIMUSA,2124,293088.788;2124,293088.787755000,00000077,64426,84,387,4,0,0*a328f287
%RAWIMUSA,2124,293088.798;2124,293088.797755000,00000077,64492,280,497,14,-1,20*0f769eae
%RAWIMUSA,2124,293088.808;2124,293088.807755000,00000077,64428,89,426,14,-3,-1*916757c6
%RAWIMUSA,2124,293088.818;2124,293088.817755000,00000077,64420,341,437,9,-2,20*2f4dea1e
%RAWIMUSA,2124,293088.828;2124,293088.827755000,00000077,64519,143,461,12,0,-15*dfdc017d
%RAWIMUSA,2124,293088.838;2124,293088.837755000,00000077,64469,241,396,21,13,7*c31a0f86
%RAWIMUSA,2124,293088.848;2124,293088.847755000,00000077,64469,122,442,0,9,5*6ecf761e
%RAWIMUSA,2124,293088.858;2124,293088.857755000,00000077,64440,243,424,18,-8,0*165edf86
%RAWIMUSA,2124,293088.868;2124,293088.867755000,00000077,64479,154,470,-2,2,0*fb34877a
%RAWIMUSA,2124,293088.878;2124,293088.877755000,00000077,64433,216,359,2,8,23*daff0eb1
%RAWIMUSA,2124,293088.888;2124,293088.887755000,00000077,64373,226,389,6,1,-12*6e02fb3b
%RAWIMUSA,2124,293088.898;2124,293088.897755000,00000077,64470,235,396,-3,-10,28*13a40528
%RAWIMUSA,2124,293088.908;2124,293088.907755000,00000077,64413,91,491,-13,0,-24*f005066e
%RAWIMUSA,2124,293088.918;2124,293088.917755000,00000077,64427,203,443,12,7,33*42aa28fd
%RAWIMUSA,2124,293088.928;2124,293088.927755000,00000077,64463,282,440,-4,-1,-18*eca5cc00
%RAWIMUSA,2124,293088.938;2124,293088.937755000,00000077,64473,228,545,1,-3,22*5dbc1e38
%RAWIMUSA,2124,293088.948;2124,293088.947755000,00000077,64389,144,466,-2,5,-16*90ea0145
%RAWIMUSA,2124,293088.958;2124,293088.957755000,00000077,64466,249,464,0,0,34*db451a72
%RAWIMUSA,2124,293088.968;2124,293088.967755000,00000077,64463,191,429,3,-3,-34*b60fa4e1
%RAWIMUSA,2124,293088.978;2124,293088.977755000,00000077,64445,190,494,22,-1,32*90d32f8c
%RAWIMUSA,2124,293088.988;2124,293088.987755000,00000077,64406,158,418,12,6,-13*065cc831
%RAWIMUSA,2124,293088.998;2124,293088.997755000,00000077,64468,316,435,-10,-7,25*e430b812
%RAWIMUSA,2124,293089.008;2124,293089.007755000,00000077,64458,139,538,10,19,-21*f6963c00
%RAWIMUSA,2124,293089.018;2124,293089.017755000,00000077,64449,260,473,-7,-8,16*d0fb43a6
%RAWIMUSA,2124,293089.028;2124,293089.027755000,00000077,64481,87,462,-3,7,-9*35c828d0
%RAWIMUSA,2124,293089.038;2124,293089.037755000,00000077,64456,201,440,-3,5,35*435a4c2d
%RAWIMUSA,2124,293089.048;2124,293089.047755000,00000077,64458,45,443,8,11,-20*e768a541
%RAWIMUSA,2124,293089.058;2124,293089.057755000,00000077,64562,184,391,0,-3,20*cc3e10c1
%RAWIMUSA,2124,293089.068;2124,293089.067755000,00000077,64434,83,506,8,-6,-12*d66c3a03
%RAWIMUSA,2124,293089.078;2124,293089.077755000,00000077,64512,242,469,15,4,3*5ae017db
%RAWIMUSA,2124,293089.088;2124,293089.087755000,00000077,64439,163,450,-4,-3,9*d193d576
%RAWIMUSA,2124,293089.098;2124,293089.097755000,00000077,64456,202,478,-10,-5,0*1452bb68
%RAWIMUSA,2124,293089.108;2124,293089.107755000,00000077,64418,30,496,-4,14,11*12327af7
%RAWIMUSA,2124,293089.118;2124,293089.117755000,00000077,64482,234,367,6,-7,-3*bdce69ff
%RAWIMUSA,2124,293089.128;2124,293089.127755000,00000077,64454,136,442,2,4,4*78bac44d
%RAWIMUSA,2124,293089.138;2124,293089.137755000,00000077,64434,211,406,4,12,14*8c6589b4
%RAWIMUSA,2124,293089.148;2124,293089.147755000,00000077,64473,230,458,0,-11,3*5f943a8b
%RAWIMUSA,2124,293089.158;2124,293089.157755000,00000077,64438,215,432,5,14,-4*ba3afd9e
%RAWIMUSA,2124,293089.168;2124,293089.167755000,00000077,64467,77,410,14,-2,18*0f0f31af
%RAWIMUSA,2124,293089.178;2124,293089.177755000,00000077,64435,260,426,4,-3,4*e6fc9946
%RAWIMUSA,2124,293089.188;2124,293089.187755000,00000077,64577,164,396,4,10,14*72250087
%RAWIMUSA,2124,293089.198;2124,293089.197755000,00000077,64452,161,351,-12,-10,11*42b2682e
%RAWIMUSA,2124,293089.208;2124,293089.207755000,00000077,64459,96,407,4,0,9*37eba1c4
%RAWIMUSA,2124,293089.218;2124,293089.217755000,00000077,64470,314,544,8,-3,-9*215ee54b
%RAWIMUSA,2124,293089.228;2124,293089.227755000,00000077,64396,176,425,-1,12,24*be05b3c3
%RAWIMUSA,2124,293089.238;2124,293089.237755000,00000077,64453,328,434,-9,8,-12*f5e60fad
%RAWIMUSA,2124,293089.248;2124,293089.247755000,00000077,64469,132,382,-11,7,28*0ccd9071
%RAWIMUSA,2124,293089.258;2124,293089.257755000,00000077,64416,257,443,9,-17,-22*d3f56b6f
%RAWIMUSA,2124,293089.268;2124,293089.267755000,00000077,64503,141,414,2,16,18*29afd9c2
%RAWIMUSA,2124,293089.278;2124,293089.277755000,00000077,64467,161,458,2,8,-22*198ce8ca
%RAWIMUSA,2124,293089.288;2124,293089.287755000,00000077,64451,205,440,8,7,34*977ff899
%RAWIMUSA,2124,293089.298;2124,293089.297755000,00000077,64419,273,504,6,9,-32*26f6a393
%RAWIMUSA,2124,293089.308;2124,293089.307755000,00000077,64408,143,518,-10,0,52*546812c0
%RAWIMUSA,2124,293089.318;2124,293089.317755000,00000077,64467,234,339,-1,12,-42*fd4d6144
%RAWIMUSA,2124,293089.328;2124,293089.327755000,00000077,64511,266,470,0,0,7*0338f4f9
%RAWIMUSA,2124,293089.338;2124,293089.337755000,00000077,64482,139,486,2,-8,-16*05eea460
%RAWIMUSA,2124,293089.348;2124,293089.347755000,00000077,64509,259,467,1,0,-3*b89b75b7
%RAWIMUSA,2124,293089.358;2124,293089.357755000,00000077,64450,122,422,9,1,14*bb418043
%RAWIMUSA,2124,293089.368;2124,293089.367755000,00000077,64440,274,380,13,2,-4*d7e4b8bd
%RAWIMUSA,2124,293089.378;2124,293089.377755000,00000077,64388,174,441,2,-3,5*1877d02a
%RAWIMUSA,2124,293089.388;2124,293089.387755000,00000077,64404,229,405,6,-7,-7*dad90c3a
%RAWIMUSA,2124,293089.398;2124,293089.397755000,00000077,64461,191,406,9,-7,23*4d35e0d8
%RAWIMUSA,2124,293089.408;2124,293089.407755000,00000077,64433,282,386,4,6,-11*575215da
%RAWIMUSA,2124,293089.418;2124,293089.417755000,00000077,64455,167,541,16,3,17*f94f64b2
%RAWIMUSA,2124,293089.428;2124,293089.427755000,00000077,64365,179,452,-6,18,-15*bd6eabfe
%RAWIMUSA,2124,293089.438;2124,293089.437755000,00000077,64535,168,426,0,15,28*74f65692
%RAWIMUSA,2124,293089.448;2124,293089.447755000,00000077,64497,232,307,12,-13,-23*d794a5a7
%RAWIMUSA,2124,293089.458;2124,293089.457755000,00000077,64385,148,476,0,13,22*664a0213
%RAWIMUSA,2124,293089.468;2124,293089.467755000,00000077,64498,224,450,20,12,-5*2327892f
%RAWIMUSA,2124,293089.478;2124,293089.477755000,00000077,64429,168,428,17,-1,-9*92c59092
%RAWIMUSA,2124,293089.488;2124,293089.487755000,00000077,64397,155,397,0,6,34*2c61e068
%RAWIMUSA,2124,293089.498;2124,293089.497755000,00000077,64407,260,455,7,10,-29*5db1ce96
%RAWIMUSA,2124,293089.508;2124,293089.507755000,00000077,64403,78,407,-1,-7,25*0a489771
%RAWIMUSA,2124,293089.518;2124,293089.517755000,00000077,64480,250,417,-4,-5,-9*09f28cb3
%RAWIMUSA,2124,293089.528;2124,293089.527755000,00000077,64522,215,484,4,-13,36*beeee166
%RAWIMUSA,2124,293089.538;2124,293089.537755000,00000077,64481,216,400,-5,-2,-15*1b3d4015
%RAWIMUSA,2124,293089.548;2124,293089.547755000,00000077,64452,220,500,2,-2,20*a6df21a3
%RAWIMUSA,2124,293089.558;2124,293089.557755000,00000077,64525,148,419,-4,13,3*e6acffcd
%RAWIMUSA,2124,293089.568;2124,293089.567755000,00000077,64463,200,416,0,2,0*3e7b000d
%RAWIMUSA,2124,293089.578;2124,293089.577755000,00000077,64399,189,548,10,3,29*bf1d9857
%RAWIMUSA,2124,293089.588;2124,293089.587755000,00000077,64424,188,459,-4,-6,-20*b22ba61b
%RAWIMUSA,2124,293089.598;2124,293089.597755000,00000077,64514,217,387,11,-19,4*44c84a33
%RAWIMUSA,2124,293089.608;2124,293089.607755000,00000077,64533,261,428,-12,0,17*d08de232
%RAWIMUSA,2124,293089.618;2124,293089.617755000,00000077,64445,138,456,5,7,-21*cbf5cd28
%RAWIMUSA,2124,293089.628;2124,293089.627755000,00000077,64389,157,397,23,1,-5*0feae69f
%RAWIMUSA,2124,293089.638;2124,293089.637755000,00000077,64527,258,462,0,-10,11*7a30d853
%RAWIMUSA,2124,293089.648;2124,293089.647755000,00000077,64528,192,424,6,-8,-17*1c457cd2
%RAWIMUSA,2124,293089.658;2124,293089.657755000,00000077,64488,153,481,6,-2,7*b90ece66
%RAWIMUSA,2124,293089.668;2124,293089.667755000,00000077,64464,239,356,11,12,3*a3e240c0
%RAWIMUSA,2124,293089.678;2124,293089.677755000,00000077,64469,147,506,8,0,5*e7e21d37
%RAWIMUSA,2124,293089.688;2124,293089.687755000,00000077,64458,318,416,11,19,18*3821cf90
%RAWIMUSA,2124,293089.698;2124,293089.697755000,00000077,64466,139,457,14,6,10*eb57454c
%RAWIMUSA,2124,293089.708;2124,293089.707755000,00000077,64396,190,506,0,3,-3*9f2f5d33
%RAWIMUSA,2124,293089.718;2124,293089.717755000,00000077,64503,237,410,4,-2,13*b6a636b1
%RAWIMUSA,2124,293089.728;2124,293089.727755000,00000077,64387,188,411,7,-3,18*8a744938
%RAWIMUSA,2124,293089.738;2124,293089.737755000,00000077,64458,188,472,6,-4,12*760f1065
%RAWIMUSA,2124,293089.748;2124,293089.747755000,00000077,64377,200,462,10,-10,12*daaae07c
%RAWIMUSA,2124,293089.758;2124,293089.757755000,00000077,64519,327,353,-1,-3,19*da219e97
%RAWIMUSA,2124,293089.768;2124,293089.767755000,00000077,64457,253,435,3,-12,11*49e5e436
%RAWIMUSA,2124,293089.778;2124,293089.777755000,00000077,64394,201,431,-1,3,-8*35d8f0f3
%RAWIMUSA,2124,293089.788;2124,293089.787755000,00000077,64441,174,457,2,5,2*eda017a1
%RAWIMUSA,2124,293089.798;2124,293089.797755000,00000077,64413,167,356,7,6,5*55c434e1
%RAWIMUSA,2124,293089.808;2124,293089.807755000,00000077,64452,185,427,3,17,9*bcd054fd
%RAWIMUSA,2124,293089.818;2124,293089.817755000,00000077,64455,256,479,10,-9,-11*1794f1f2
%RAWIMUSA,2124,293089.828;2124,293089.827755000,00000077,64396,218,427,6,0,-4*250f0dc0
%RAWIMUSA,2124,293089.838;2124,293089.837755000,00000077,64414,290,338,6,12,1*9e41add9
%RAWIMUSA,2124,293089.848;2124,293089.847755000,00000077,64509,278,403,14,5,-1*40b6ad3d
%RAWIMUSA,2124,293089.858;2124,293089.857755000,00000077,64461,106,396,6,-6,3*3d22ca56
%RAWIMUSA,2124,293089.868;2124,293089.867755000,00000077,64426,260,475,10,0,1*81d7477f
%RAWIMUSA,2124,293089.878;2124,293089.877755000,00000077,64487,160,417,-2,1,9*dd2d754a
%RAWIMUSA,2124,293089.888;2124,293089.887755000,00000077,64450,227,395,4,4,7*b46d34b8
%RAWIMUSA,2124,293089.898;2124,293089.897755000,00000077,64430,200,393,7,9,12*d6cfbce0
%RAWIMUSA,2124,293089.908;2124,293089.907755000,00000077,64506,205,413,-6,5,3*d69c60dd
%RAWIMUSA,2124,293089.918;2124,293089.917755000,00000077,64449,192,442,0,1,15*73c30102
%RAWIMUSA,2124,293089.928;2124,293089.927755000,00000077,64477,265,338,2,-12,-5*78dfbf1f
%RAWIMUSA,2124,293089.938;2124,293089.937755000,00000077,64378,149,469,11,2,19*d8fbdb6c
%RAWIMUSA,2124,293089.948;2124,293089.947755000,00000077,64460,177,490,3,16,1*1584f75b
%RAWIMUSA,2124,293089.958;2124,293089.957755000,00000077,64567,189,410,15,5,-8*2f05ebf7
%RAWIMUSA,2124,293089.968;2124,293089.967755000,00000077,64428,249,414,-3,9,17*ac0f063c
%RAWIMUSA,2124,293089.978;2124,293089.977755000,00000077,64398,315,521,2,12,-4*e3b9efee
%RAWIMUSA,2124,293089.988;2124,293089.987755000,00000077,64447,261,409,1,-13,1*08b72497
%RAWIMUSA,2124,293089.998;2124,293089.997755000,00000077,64388,175,305,13,-6,9*aa8361b4
%RAWIMUSA,2124,293090.008;2124,293090.007755000,00000077,64462,126,360,-10,-8,10*866da224
%RAWIMUSA,2124,293090.018;2124,293090.017755000,00000077,64462,333,370,-15,25,4*57d28ff0
%RAWIMUSA,2124,293090.028;2124,293090.027755000,00000077,64430,175,462,4,0,14*78dee611
%RAWIMUSA,2124,293090.038;2124,293090.037755000,00000077,64512,167,457,5,2,0*d91a5b31
%RAWIMUSA,2124,293090.048;2124,293090.047755000,00000077,64429,129,511,2,0,13*e93a5fce
%RAWIMUSA,2124,293090.058;2124,293090.057755000,00000077,64436,159,421,11,0,11*3072ed81
%RAWIMUSA,2124,293090.068;2124,293090.067755000,00000077,64402,192,449,7,-13,11*b4dd75f7
%RAWIMUSA,2124,293090.078;2124,293090.077755000,00000077,64461,186,351,6,0,4*903fad0e
%RAWIMUSA,2124,293090.088;2124,293090.087755000,00000077,64500,149,444,-20,-7,0*c9064977
%RAWIMUSA,2124,293090.098;2124,293090.097755000,00000077,64380,267,396,2,2,9*53fd4337
%RAWIMUSA,2124,293090.108;2124,293090.107755000,00000077,64484,189,506,2,7,-5*56d29a49
%RAWIMUSA,2124,293090.118;2124,293090.117755000,00000077,64544,164,365,11,-11,17*3facf019
%RAWIMUSA,2124,293090.128;2124,293090.127755000,00000077,64401,259,535,7,4,3*aa417f2d
%RAWIMUSA,2124,293090.138;2124,293090.137755000,00000077,64480,142,379,-5,0,14*2d875f89
%RAWIMUSA,2124,293090.148;2124,293090.147755000,00000077,64393,253,456,12,-10,5*33a6ba79
%RAWIMUSA,2124,293090.158;2124,293090.157755000,00000077,64505,131,449,6,10,5*18e56a3c
%RAWIMUSA,2124,293090.168;2124,293090.167755000,00000077,64451,223,291,6,0,11*afd7fd7b
%RAWIMUSA,2124,293090.178;2124,293090.177755000,00000077,64437,222,485,-3,0,-9*00bdea21
%RAWIMUSA,2124,293090.188;2124,293090.187755000,00000077,64415,340,461,-3,0,2*564bfa3c
%RAWIMUSA,2124,293090.198;2124,293090.197755000,00000077,64477,194,512,11,-14,4*a569e5b8
%RAWIMUSA,2124,293090.208;2124,293090.207755000,00000077,64486,257,464,2,6,-1*d7bd56ef
%RAWIMUSA,2124,293090.218;2124,293090.217755000,00000077,64425,191,414,9,1,10*4b9398a8
%RAWIMUSA,2124,293090.228;2124,293090.227755000,00000077,64354,254,408,0,20,4*8d6a63a0
%RAWIMUSA,2124,293090.238;2124,293090.237755000,00000077,64483,154,403,5,11,8*6429473b
%RAWIMUSA,2124,293090.248;2124,293090.247755000,00000077,64481,187,483,9,17,5*773d1394
%RAWIMUSA,2124,293090.258;2124,293090.257755000,00000077,64503,266,459,2,-2,6*e7958ef2
%RAWIMUSA,2124,293090.268;2124,293090.267755000,00000077,64385,96,418,16,12,4*e428d001
%RAWIMUSA,2124,293090.278;2124,293090.277755000,00000077,64462,270,439,14,-3,6*6717b1a3
%RAWIMUSA,2124,293090.288;2124,293090.287755000,00000077,64382,165,429,6,-10,4*a52d3ffd
%RAWIMUSA,2124,293090.298;2124,293090.297755000,00000077,64349,235,468,-4,18,-2*01edafc4
%RAWIMUSA,2124,293090.308;2124,293090.307755000,00000077,64437,250,473,0,-4,8*71d195b0
%RAWIMUSA,2124,293090.318;2124,293090.317755000,00000077,64423,144,387,-8,5,-6*114a35ce
%RAWIMUSA,2124,293090.328;2124,293090.327755000,00000077,64397,266,450,5,16,12*ef763c37
%RAWIMUSA,2124,293090.338;2124,293090.337755000,00000077,64474,242,474,13,6,7*5d14cf5f
%RAWIMUSA,2124,293090.348;2124,293090.347755000,00000077,64472,381,468,11,-8,13*e83688fe
%RAWIMUSA,2124,293090.358;2124,293090.357755000,00000077,64484,163,461,12,0,12*45d24a4a
%RAWIMUSA,2124,293090.368;2124,293090.367755000,00000077,64350,202,450,-9,21,-3*304160c1
%RAWIMUSA,2124,293090.378;2124,293090.377755000,00000077,64522,188,488,2,-9,3*1c0c9f26
%RAWIMUSA,2124,293090.388;2124,293090.387755000,00000077,64480,200,477,-5,-1,22*ac6172f2
%RAWIMUSA,2124,293090.398;2124,293090.397755000,00000077,64451,179,380,-1,7,1*6575f28a
%RAWIMUSA,2124,293090.408;2124,293090.407755000,00000077,64515,261,416,3,-13,-6*f642a986
%RAWIMUSA,2124,293090.418;2124,293090.417755000,00000077,64457,201,447,-2,0,-1*0762759c
%RAWIMUSA,2124,293090.428;2124,293090.427755000,00000077,64464,230,445,4,0,2*a53cc320
%RAWIMUSA,2124,293090.438;2124,293090.437755000,00000077,64488,172,568,2,-3,16*c76a55e7
%RAWIMUSA,2124,293090.448;2124,293090.447755000,00000077,64371,318,432,0,-14,6*ce04961a
%RAWIMUSA,2124,293090.458;2124,293090.457755000,00000077,64421,195,451,2,-20,10*8f9df33b
%RAWIMUSA,2124,293090.468;2124,293090.467755000,00000077,64431,178,364,8,5,-9*800dca0f
%RAWIMUSA,2124,293090.478;2124,293090.477755000,00000077,64472,197,405,0,0,16*2ebbce59
%RAWIMUSA,2124,293090.488;2124,293090.487755000,00000077,64532,188,453,-8,-1,7*649e98d8
%RAWIMUSA,2124,293090.498;2124,293090.497755000,00000077,64525,120,475,-4,3,12*64f302ed
%RAWIMUSA,2124,293090.508;2124,293090.507755000,00000077,64440,275,355,7,1,12*e408d32f
%RAWIMUSA,2124,293090.518;2124,293090.517755000,00000077,64487,207,485,-4,0,-2*9d679e95
%RAWIMUSA,2124,293090.528;2124,293090.527755000,00000077,64449,219,483,8,19,15*26dea556
%RAWIMUSA,2124,293090.538;2124,293090.537755000,00000077,64504,285,443,3,-3,1*079c5469
%RAWIMUSA,2124,293090.548;2124,293090.547755000,00000077,64437,243,527,11,-9,20*71a49d02
%RAWIMUSA,2124,293090.558;2124,293090.557755000,00000077,64502,165,366,5,-4,-1*d702889b
%RAWIMUSA,2124,293090.568;2124,293090.567755000,00000077,64402,332,519,-2,0,17*e102f18a
%RAWIMUSA,2124,293090.578;2124,293090.577755000,00000077,64449,218,419,0,15,-3*e18f882c
%RAWIMUSA,2124,293090.588;2124,293090.587755000,00000077,64382,203,394,4,18,0*99db075f
%RAWIMUSA,2124,293090.598;2124,293090.597755000,00000077,64496,164,394,0,6,2*775a4c0a
%RAWIMUSA,2124,293090.608;2124,293090.607755000,00000077,64468,224,453,0,11,13*a031fdbd
%RAWIMUSA,2124,293090.618;2124,293090.617755000,00000077,64414,125,334,-7,-8,-8*34a9108e
%RAWIMUSA,2124,293090.628;2124,293090.627755000,00000077,64514,189,508,13,0,0*4d220479
%RAWIMUSA,2124,293090.638;2124,293090.637755000,00000077,64417,221,470,6,-12,11*476180e1
%RAWIMUSA,2124,293090.648;2124,293090.647755000,00000077,64408,264,405,0,-8,16*e3fb59ce
%RAWIMUSA,2124,293090.658;2124,293090.657755000,00000077,64391,200,468,-7,0,-1*770f86cb
%RAWIMUSA,2124,293090.668;2124,293090.667755000,00000077,64484,260,431,-4,3,2*66b2f379
%RAWIMUSA,2124,293090.678;2124,293090.677755000,00000077,64417,227,461,1,3,1*6da0d370
%RAWIMUSA,2124,293090.688;2124,293090.687755000,00000077,64449,158,520,13,-9,7*3085dc79
%RAWIMUSA,2124,293090.698;2124,293090.697755000,00000077,64518,174,438,19,-5,-6*7539b19a
%RAWIMUSA,2124,293090.708;2124,293090.707755000,00000077,64424,236,369,2,-7,7*426a65a8
%RAWIMUSA,2124,293090.718;2124,293090.717755000,00000077,64442,140,437,-4,16,11*269879b3
%RAWIMUSA,2124,293090.728;2124,293090.727755000,00000077,64577,212,384,0,0,21*41029d9b
%RAWIMUSA,2124,293090.738;2124,293090.737755000,00000077,64474,214,380,-9,10,16*593e1d91
%RAWIMUSA,2124,293090.748;2124,293090.747755000,00000077,64486,219,457,6,6,0*575e58f3
%RAWIMUSA,2124,293090.758;2124,293090.757755000,00000077,64467,241,388,10,2,3*5ebca433
%RAWIMUSA,2124,293090.768;2124,293090.767755000,00000077,64415,285,430,12,-3,9*7fdbbd14
%RAWIMUSA,2124,293090.778;2124,293090.777755000,00000077,64422,134,422,-1,10,0*dc1d05e3
%RAWIMUSA,2124,293090.788;2124,293090.787755000,00000077,64340,155,446,-9,10,12*c0168eea
%RAWIMUSA,2124,293090.798;2124,293090.797755000,00000077,64391,288,433,9,5,4*87308a37
%RAWIMUSA,2124,293090.808;2124,293090.807755000,00000077,64352,205,502,9,-5,15*e6d472b5
%RAWIMUSA,2124,293090.818;2124,293090.817755000,00000077,64498,182,395,-7,8,0*0a10cab5
%RAWIMUSA,2124,293090.828;2124,293090.827755000,00000077,64479,201,424,7,-4,3*ca57b0a6
%RAWIMUSA,2124,293090.838;2124,293090.837755000,00000077,64473,195,539,-3,6,-7*0bf392ae
%RAWIMUSA,2124,293090.848;2124,293090.847755000,00000077,64446,247,413,0,-3,10*d9b5f818
%RAWIMUSA,2124,293090.858;2124,293090.857755000,00000077,64384,247,415,1,-21,-9*4f0d7355
%RAWIMUSA,2124,293090.868;2124,293090.867755000,00000077,64500,168,413,-5,4,14*29b76990
%RAWIMUSA,2124,293090.878;2124,293090.877755000,00000077,64447,192,479,11,-1,0*b71fe6aa
%RAWIMUSA,2124,293090.888;2124,293090.887755000,00000077,64468,281,481,5,1,9*048e3de5
%RAWIMUSA,2124,293090.898;2124,293090.897755000,00000077,64425,249,508,9,-4,-9*922e344f
%RAWIMUSA,2124,293090.908;2124,293090.907755000,00000077,64410,272,351,17,2,-4*85396e08
%RAWIMUSA,2124,293090.918;2124,293090.917755000,00000077,64422,101,505,0,10,15*216c68f7
%RAWIMUSA,2124,293090.928;2124,293090.927755000,00000077,64466,206,509,-1,12,-11*3857a206
%RAWIMUSA,2124,293090.938;2124,293090.937755000,00000077,64491,227,390,-8,-5,-7*86d09d3d
%RAWIMUSA,2124,293090.948;2124,293090.947755000,00000077,64346,306,412,6,14,5*2a0b68b3
%RAWIMUSA,2124,293090.958;2124,293090.957755000,00000077,64450,241,429,3,15,21*7ccd720f
%RAWIMUSA,2124,293090.968;2124,293090.967755000,00000077,64470,241,460,5,4,-1*ba667389
%RAWIMUSA,2124,293090.978;2124,293090.977755000,00000077,64450,222,491,10,1,17*953f9cb1
%RAWIMUSA,2124,293090.988;2124,293090.987755000,00000077,64424,220,393,11,-7,21*ec43ef14
%RAWIMUSA,2124,293090.998;2124,293090.997755000,00000077,64438,228,323,0,-12,-5*dcf760a7
%RAWIMUSA,2124,293091.008;2124,293091.007755000,00000077,64537,190,460,13,0,-5*913b6648
%RAWIMUSA,2124,293091.018;2124,293091.017755000,00000077,64486,235,377,12,-1,16*414b020f
%RAWIMUSA,2124,293091.028;2124,293091.027755000,00000077,64466,273,321,7,-1,-1*bff6c0f3
%RAWIMUSA,2124,293091.038;2124,293091.037755000,00000077,64503,236,475,3,10,-14*64ea7ae2
%RAWIMUSA,2124,293091.048;2124,293091.047755000,00000077,64444,162,506,1,-1,7*d3745e52
%RAWIMUSA,2124,293091.058;2124,293091.057755000,00000077,64428,206,497,8,4,7*6d652f00
%RAWIMUSA,2124,293091.068;2124,293091.067755000,00000077,64458,320,381,6,13,17*4cc509f4
%RAWIMUSA,2124,293091.078;2124,293091.077755000,00000077,64404,239,441,1,10,4*c5495167
%RAWIMUSA,2124,293091.088;2124,293091.087755000,00000077,64472,268,424,-7,-7,-6*fdc3e44c
%RAWIMUSA,2124,293091.098;2124,293091.097755000,00000077,64360,235,517,13,7,18*eaf5b2dc
%RAWIMUSA,2124,293091.108;2124,293091.107755000,00000077,64373,363,262,10,2,4*44310223
%RAWIMUSA,2124,293091.118;2124,293091.117755000,00000077,64388,315,442,-6,12,8*7c07332c
%RAWIMUSA,2124,293091.128;2124,293091.127755000,00000077,64340,263,510,7,7,15*ce5d48f7
%RAWIMUSA,2124,293091.138;2124,293091.137755000,00000077,64404,188,413,4,1,4*de555e14
%RAWIMUSA,2124,293091.148;2124,293091.147755000,00000077,64391,221,430,4,0,2*30af849b
%RAWIMUSA,2124,293091.158;2124,293091.157755000,00000077,64423,179,480,0,-5,8*0b852600
%RAWIMUSA,2124,293091.168;2124,293091.167755000,00000077,64362,223,402,3,0,-3*b3903691
%RAWIMUSA,2124,293091.178;2124,293091.177755000,00000077,64479,195,402,9,13,7*6750e2d1
%RAWIMUSA,2124,293091.188;2124,293091.187755000,00000077,64424,129,415,-2,0,3*2d6a2918
%RAWIMUSA,2124,293091.198;2124,293091.197755000,00000077,64539,159,358,0,3,18*8cdf8ba4
%RAWIMUSA,2124,293091.208;2124,293091.207755000,00000077,64551,213,416,9,3,11*79809f5d
%RAWIMUSA,2124,293091.218;2124,293091.217755000,00000077,64469,268,493,10,-10,6*cff5b838
%RAWIMUSA,2124,293091.228;2124,293091.227755000,00000077,64488,221,471,1,-5,-1*9e728801
%RAWIMUSA,2124,293091.238;2124,293091.237755000,00000077,64423,168,372,3,0,22*1ae0ef5c
%RAWIMUSA,2124,293091.248;2124,293091.247755000,00000077,64411,182,400,0,7,0*7279a906
%RAWIMUSA,2124,293091.258;2124,293091.257755000,00000077,64427,282,429,5,0,0*20bbd9cd
%RAWIMUSA,2124,293091.268;2124,293091.267755000,00000077,64373,300,415,-10,-1,6*960c5fc9
%RAWIMUSA,2124,293091.278;2124,293091.277755000,00000077,64443,187,522,3,-10,13*da3b37c3
%RAWIMUSA,2124,293091.288;2124,293091.287755000,00000077,64451,169,463,-2,-16,-3*35ff0cd5
%RAWIMUSA,2124,293091.298;2124,293091.297755000,00000077,64473,312,424,7,-18,19*b550088d
%RAWIMUSA,2124,293091.308;2124,293091.307755000,00000077,64449,174,343,-6,-8,15*ba721e45
%RAWIMUSA,2124,293091.318;2124,293091.317755000,00000077,64385,16,381,-9,-1,-4*1e0cd3cf
%RAWIMUSA,2124,293091.328;2124,293091.327755000,00000077,64433,219,414,-5,8,-15*4091b39f
%RAWIMUSA,2124,293091.338;2124,293091.337755000,00000077,64527,300,417,12,0,28*3f2f0474
%RAWIMUSA,2124,293091.348;2124,293091.347755000,00000077,64436,179,424,3,14,-2*504713b9
%RAWIMUSA,2124,293091.358;2124,293091.357755000,00000077,64490,171,396,1,10,-3*43a87af0
%RAWIMUSA,2124,293091.368;2124,293091.367755000,00000077,64462,239,325,16,-8,6*addb4547
%RAWIMUSA,2124,293091.378;2124,293091.377755000,00000077,64513,271,568,1,11,11*79500563
%RAWIMUSA,2124,293091.388;2124,293091.387755000,00000077,64378,141,331,16,0,-8*83004a67
%RAWIMUSA,2124,293091.398;2124,293091.397755000,00000077,64490,240,362,5,5,10*baa13d2f
%RAWIMUSA,2124,293091.408;2124,293091.407755000,00000077,64454,171,455,0,16,4*aca8747d
%RAWIMUSA,2124,293091.418;2124,293091.417755000,00000077,64347,223,533,0,-1,12*730bfbcf
%RAWIMUSA,2124,293091.428;2124,293091.427755000,00000077,64408,153,373,7,3,7*762e4289
%RAWIMUSA,2124,293091.438;2124,293091.437755000,00000077,64482,241,475,-5,21,-1*06f6bc0a
%RAWIMUSA,2124,293091.448;2124,293091.447755000,00000077,64459,157,453,8,3,8*589e0e06
%RAWIMUSA,2124,293091.458;2124,293091.457755000,00000077,64405,254,543,3,3,4*1885be82
%RAWIMUSA,2124,293091.468;2124,293091.467755000,00000077,64435,128,433,10,1,11*91d37c0d
%RAWIMUSA,2124,293091.478;2124,293091.477755000,00000077,64467,232,446,4,5,9*4e65a652
%RAWIMUSA,2124,293091.488;2124,293091.487755000,00000077,64465,373,434,4,-5,-10*321268a1
%RAWIMUSA,2124,293091.498;2124,293091.497755000,00000077,64409,182,506,4,13,-5*9d375f90
%RAWIMUSA,2124,293091.508;2124,293091.507755000,00000077,64500,109,503,3,-4,-6*dde162a2
%RAWIMUSA,2124,293091.518;2124,293091.517755000,00000077,64514,212,453,-4,6,-7*5927ddd5
%RAWIMUSA,2124,293091.528;2124,293091.527755000,00000077,64540,214,465,1,3,16*a3e0d263
%RAWIMUSA,2124,293091.538;2124,293091.537755000,00000077,64507,142,501,-1,-2,8*e8bc9a53
%RAWIMUSA,2124,293091.548;2124,293091.547755000,00000077,64481,186,512,-10,0,-7*20738c1c
%RAWIMUSA,2124,293091.558;2124,293091.557755000,00000077,64491,221,380,1,1,-15*c116d489
%RAWIMUSA,2124,293091.568;2124,293091.567755000,00000077,64414,194,413,5,9,9*410e78af
%RAWIMUSA,2124,293091.578;2124,293091.577755000,00000077,64495,275,529,-15,-8,-1*3f28f790
%RAWIMUSA,2124,293091.588;2124,293091.587755000,00000077,64338,224,357,11,11,8*b267592d
%RAWIMUSA,2124,293091.598;2124,293091.597755000,00000077,64449,268,380,5,6,6*d8f1ddb3
%RAWIMUSA,2124,293091.608;2124,293091.607755000,00000077,64423,239,460,0,25,-3*d3c103c8
%RAWIMUSA,2124,293091.618;2124,293091.617755000,00000077,64405,162,422,14,3,16*6df5001e
%RAWIMUSA,2124,293091.628;2124,293091.627755000,00000077,64431,180,436,-4,-5,12*d05a5ca9
%RAWIMUSA,2124,293091.638;2124,293091.637755000,00000077,64412,307,349,10,-12,-3*7d4e8e2b
%RAWIMUSA,2124,293091.648;2124,293091.647755000,00000077,64436,145,467,0,5,6*f6e0c6bc
%RAWIMUSA,2124,293091.658;2124,293091.657755000,00000077,64358,176,542,-3,0,3*013c3bca
%RAWIMUSA,2124,293091.668;2124,293091.667755000,00000077,64395,124,388,5,-4,4*757283d7
%RAWIMUSA,2124,293091.678;2124,293091.677755000,00000077,64474,194,361,-9,10,6*08a6ad1e
%RAWIMUSA,2124,293091.688;2124,293091.687755000,00000077,64483,214,431,-4,4,0*da83411b
%RAWIMUSA,2124,293091.698;2124,293091.697755000,00000077,64414,190,446,-1,-5,-4*1720b9ad
%RAWIMUSA,2124,293091.708;2124,293091.707755000,00000077,64475,170,430,15,0,6*2d6033eb
%RAWIMUSA,2124,293091.718;2124,293091.717755000,00000077,64524,137,375,10,-9,10*9557b3b7
%RAWIMUSA,2124,293091.728;2124,293091.727755000,00000077,64414,301,436,0,16,4*c89c880c
%RAWIMUSA,2124,293091.738;2124,293091.737755000,00000077,64381,166,474,10,8,16*314cef3b
%RAWIMUSA,2124,293091.748;2124,293091.747755000,00000077,64478,233,376,1,-3,11*bf521a5b
%RAWIMUSA,2124,293091.758;2124,293091.757755000,00000077,64439,226,450,6,3,-8*46384659
%RAWIMUSA,2124,293091.768;2124,293091.767755000,00000077,64397,279,485,-7,11,15*8ae1c50f
%RAWIMUSA,2124,293091.778;2124,293091.777755000,00000077,64472,199,516,5,2,-2*ef402eab
%RAWIMUSA,2124,293091.788;2124,293091.787755000,00000077,64439,235,503,1,10,16*416a2097
%RAWIMUSA,2124,293091.798;2124,293091.797755000,00000077,64365,218,417,-3,-1,8*a709b04f
%RAWIMUSA,2124,293091.808;2124,293091.807755000,00000077,64397,215,423,2,-4,-3*1fdd5d71
%RAWIMUSA,2124,293091.818;2124,293091.817755000,00000077,64457,168,403,3,2,8*387bbf16
%RAWIMUSA,2124,293091.828;2124,293091.827755000,00000077,64453,207,473,17,9,-8*f85ca6d4
%RAWIMUSA,2124,293091.838;2124,293091.837755000,00000077,64383,254,426,11,6,-4*3f186905
%RAWIMUSA,2124,293091.848;2124,293091.847755000,00000077,64506,168,438,-3,4,-1*7a8c20b8
%RAWIMUSA,2124,293091.858;2124,293091.857755000,00000077,64530,211,423,5,12,0*743b7805
%RAWIMUSA,2124,293091.868;2124,293091.867755000,00000077,64385,210,521,2,-16,17*8ad219c0
%RAWIMUSA,2124,293091.878;2124,293091.877755000,00000077,64412,237,412,10,5,-4*49e26479
%RAWIMUSA,2124,293091.888;2124,293091.887755000,00000077,64426,193,534,4,6,14*a40e078c
%RAWIMUSA,2124,293091.898;2124,293091.897755000,00000077,64410,186,341,-1,13,5*174d95e2
%RAWIMUSA,2124,293091.908;2124,293091.907755000,00000077,64515,119,430,-13,3,0*5dfe4207
%RAWIMUSA,2124,293091.918;2124,293091.917755000,00000077,64357,255,513,1,1,20*5dbe9d76
%RAWIMUSA,2124,293091.928;2124,293091.927755000,00000077,64481,207,400,3,-5,17*49bb6a61
%RAWIMUSA,2124,293091.938;2124,293091.937755000,00000077,64464,196,343,-5,-5,8*7483e22f
%RAWIMUSA,2124,293091.948;2124,293091.947755000,00000077,64442,205,386,-8,-7,9*90f0b8da
%RAWIMUSA,2124,293091.958;2124,293091.957755000,00000077,64389,200,458,8,-4,11*4a0b7a74
%RAWIMUSA,2124,293091.968;2124,293091.967755000,00000077,64400,208,361,4,6,1*69d53736
%RAWIMUSA,2124,293091.978;2124,293091.977755000,00000077,64452,232,458,17,-15,10*d933f332
%RAWIMUSA,2124,293091.988;2124,293091.987755000,00000077,64419,334,442,9,7,8*731eb482
%RAWIMUSA,2124,293091.998;2124,293091.997755000,00000077,64515,231,433,5,0,-5*e1ecec01
%RAWIMUSA,2124,293092.008;2124,293092.007755000,00000077,64381,276,429,1,0,1*e9eaad41
%RAWIMUSA,2124,293092.018;2124,293092.017755000,00000077,64480,190,513,-1,0,-1*e060a19e
%RAWIMUSA,2124,293092.028;2124,293092.027755000,00000077,64427,302,491,-3,1,-1*08bf5bd7
%RAWIMUSA,2124,293092.038;2124,293092.037755000,00000077,64476,278,517,-5,-5,22*b979e442
%RAWIMUSA,2124,293092.048;2124,293092.047755000,00000077,64498,330,484,0,1,0*d2b5e0ae
%RAWIMUSA,2124,293092.058;2124,293092.057755000,00000077,64567,250,400,13,15,-6*f8626674
%RAWIMUSA,2124,293092.068;2124,293092.067755000,00000077,64387,100,437,-5,3,-5*ee80f3a0
%RAWIMUSA,2124,293092.078;2124,293092.077755000,00000077,64425,171,535,2,0,0*98d83dbe
%RAWIMUSA,2124,293092.088;2124,293092.087755000,00000077,64504,220,490,0,-5,12*94f612bd
%RAWIMUSA,2124,293092.098;2124,293092.097755000,00000077,64528,212,414,3,-5,6*1b89975e
%RAWIMUSA,2124,293092.108;2124,293092.107755000,00000077,64450,107,406,20,2,9*d2bbc457
%RAWIMUSA,2124,293092.118;2124,293092.117755000,00000077,64425,287,529,0,-5,7*88b81193
%RAWIMUSA,2124,293092.128;2124,293092.127755000,00000077,64465,187,346,-10,-8,8*9b20b676
%RAWIMUSA,2124,293092.138;2124,293092.137755000,00000077,64475,195,445,1,2,5*50f4c2f1
%RAWIMUSA,2124,293092.148;2124,293092.147755000,00000077,64370,193,386,9,-8,4*635599df
%RAWIMUSA,2124,293092.158;2124,293092.157755000,00000077,64381,146,565,8,-13,3*9fb6110f
%RAWIMUSA,2124,293092.168;2124,293092.167755000,00000077,64464,164,415,10,2,0*7adaf2a9
%RAWIMUSA,2124,293092.178;2124,293092.177755000,00000077,64422,239,399,4,-8,6*8eb17f68
%RAWIMUSA,2124,293092.188;2124,293092.187755000,00000077,64481,180,498,6,23,2*5bc474ff
%RAWIMUSA,2124,293092.198;2124,293092.197755000,00000077,64434,194,446,1,5,14*a3c8db5d
%RAWIMUSA,2124,293092.208;2124,293092.207755000,00000077,64478,217,387,28,20,13*3b4adbe3
%RAWIMUSA,2124,293092.218;2124,293092.217755000,00000077,64489,178,377,2,1,8*974ee341
