%RAWIMUSA,2124,294032.788;2124,294032.787755000,00000077,-324,-128,64130,2,-5,8*e08614de
%RAWIMUSA,2124,294032.798;2124,294032.797755000,00000077,-280,-90,64131,-6,27,15*0b51434b
%RAWIMUSA,2124,294032.808;2124,294032.807755000,00000077,-259,-86,64106,-12,11,6*54a76c59
%RAWIMUSA,2124,294032.818;2124,294032.817755000,00000077,-214,-122,64125,-11,12,4*c2b6c7f5
%RAWIMUSA,2124,294032.828;2124,294032.827755000,00000077,-259,-60,64128,-3,14,22*fc83edb4
%RAWIMUSA,2124,294032.838;2124,294032.837755000,00000077,-212,-60,64064,-9,27,-4*c8a9ce0a
%RAWIMUSA,2124,294032.848;2124,294032.847755000,00000077,-113,-182,64113,5,-6,-1*9a5f385d
%RAWIMUSA,2124,294032.858;2124,294032.857755000,00000077,-228,-115,64141,-19,-1,5*193d6b43
%RAWIMUSA,2124,294032.868;2124,294032.867755000,00000077,-239,-67,64134,-22,7,-9*17046b4b
%RAWIMUSA,2124,294032.878;2124,294032.877755000,00000077,-270,-47,64066,-1,-11,3*cac88770
%RAWIMUSA,2124,294032.888;2124,294032.887755000,00000077,-155,-37,64135,-6,9,1*95b1143a
%RAWIMUSA,2124,294032.898;2124,294032.897755000,00000077,-218,15,64101,0,-3,12*bf301e84
%RAWIMUSA,2124,294032.908;2124,294032.907755000,00000077,-202,-64,64056,-16,14,-7*73e7570c
%RAWIMUSA,2124,294032.918;2124,294032.917755000,00000077,-123,-91,64137,-14,-15,6*d63846a3
%RAWIMUSA,2124,294032.928;2124,294032.927755000,00000077,-256,-102,64136,5,4,12*e413f1a8
%RAWIMUSA,2124,294032.938;2124,294032.937755000,00000077,-127,-122,64146,1,0,17*b3042986
%RAWIMUSA,2124,294032.948;2124,294032.947755000,00000077,-300,-16,64155,-9,9,12*fd2a08e6
%RAWIMUSA,2124,294032.958;2124,294032.957755000,00000077,-179,-53,64103,-6,12,15*6ca41737
%RAWIMUSA,2124,294032.968;2124,294032.967755000,00000077,-151,-53,64152,-11,11,11*7a371725
%RAWIMUSA,2124,294032.978;2124,294032.977755000,00000077,-341,-168,64156,-7,-3,-4*a541d61f
%RAWIMUSA,2124,294032.988;2124,294032.987755000,00000077,-94,-62,64107,-21,22,2*f0806af8
%RAWIMUSA,2124,294032.998;2124,294032.997755000,00000077,-199,-24,64166,0,-15,16*1b37cbd8
%RAWIMUSA,2124,294033.008;2124,294033.007755000,00000077,-233,-25,64064,-5,0,-9*800e5754
%RAWIMUSA,2124,294033.018;2124,294033.017755000,00000077,-149,-53,64157,-7,3,24*f531e187
%RAWIMUSA,2124,294033.028;2124,294033.027755000,00000077,-137,-68,64168,-4,15,12*6d091cb1
%RAWIMUSA,2124,294033.038;2124,294033.037755000,00000077,-148,-58,64203,-5,8,1*8d2c3190
%RAWIMUSA,2124,294033.048;2124,294033.047755000,00000077,-278,-39,64147,1,-2,-12*58a0f3fd
%RAWIMUSA,2124,294033.058;2124,294033.057755000,00000077,-236,-72,64131,0,8,-3*ca0fe441
%RAWIMUSA,2124,294033.068;2124,294033.067755000,00000077,-245,-98,64173,-8,-4,5*141c608e
%RAWIMUSA,2124,294033.078;2124,294033.077755000,00000077,-215,-48,64166,-7,-7,11*93dcda08
%RAWIMUSA,2124,294033.088;2124,294033.087755000,00000077,-201,-13,64103,0,20,12*e2aea20d
%RAWIMUSA,2124,294033.098;2124,294033.097755000,00000077,-227,-39,64048,-27,10,-5*26d387e0
%RAWIMUSA,2124,294033.108;2124,294033.107755000,00000077,-143,-42,64140,1,0,16*5d21cb1d
%RAWIMUSA,2124,294033.118;2124,294033.117755000,00000077,-316,-123,64168,9,3,-7*e9cab732
%RAWIMUSA,2124,294033.128;2124,294033.127755000,00000077,-335,30,64072,-15,0,7*20fd2f21
%RAWIMUSA,2124,294033.138;2124,294033.137755000,00000077,-177,-104,64210,-10,19,3*3e2f1109
%RAWIMUSA,2124,294033.148;2124,294033.147755000,00000077,-171,-65,64148,-8,17,9*6d15cf5c
%RAWIMUSA,2124,294033.158;2124,294033.157755000,00000077,-180,-48,64143,-15,7,-1*c8a84508
%RAWIMUSA,2124,294033.168;2124,294033.167755000,00000077,-243,8,64088,-7,8,-3*a766bec9
%RAWIMUSA,2124,294033.178;2124,294033.177755000,00000077,-154,-55,64100,-20,7,-2*39b138c6
%RAWIMUSA,2124,294033.188;2124,294033.187755000,00000077,-191,-51,64141,5,2,15*1cc8dc61
%RAWIMUSA,2124,294033.198;2124,294033.197755000,00000077,-113,35,64139,-4,8,-5*8e0b1245
%RAWIMUSA,2124,294033.208;2124,294033.207755000,00000077,-259,5,64137,-26,-2,-3*7ff3abcf
%RAWIMUSA,2124,294033.218;2124,294033.217755000,00000077,-101,10,64234,-7,16,0*dd5f70d7
%RAWIMUSA,2124,294033.228;2124,294033.227755000,00000077,-191,-122,64188,7,5,16*c782c7ca
%RAWIMUSA,2124,294033.238;2124,294033.237755000,00000077,-195,-34,64059,-19,8,4*5fe19b1e
%RAWIMUSA,2124,294033.248;2124,294033.247755000,00000077,-293,-142,64113,-10,0,-6*6a1b1b49
%RAWIMUSA,2124,294033.258;2124,294033.257755000,00000077,-166,-83,64181,-11,15,2*9405ab73
%RAWIMUSA,2124,294033.268;2124,294033.267755000,00000077,-192,-41,64040,-8,-6,4*b1e90588
%RAWIMUSA,2124,294033.278;2124,294033.277755000,00000077,-204,-91,64243,-2,0,-11*2f61b9ef
%RAWIMUSA,2124,294033.288;2124,294033.287755000,00000077,-262,-116,64202,-6,5,-4*72463747
%RAWIMUSA,2124,294033.298;2124,294033.297755000,00000077,-287,-95,64219,-8,16,0*21656978
%RAWIMUSA,2124,294033.308;2124,294033.307755000,00000077,-146,-150,64290,13,11,-12*6ab42b64
%RAWIMUSA,2124,294033.318;2124,294033.317755000,00000077,-191,-84,64200,-21,6,-1*460174fb
%RAWIMUSA,2124,294033.328;2124,294033.327755000,00000077,-142,-14,64118,-7,9,-4*a2f6fd98
%RAWIMUSA,2124,294033.338;2124,294033.337755000,00000077,-222,-80,64076,0,-3,0*57aab539
%RAWIMUSA,2124,294033.348;2124,294033.347755000,00000077,-154,-165,64134,-4,1,12*e331fe46
%RAWIMUSA,2124,294033.358;2124,294033.357755000,00000077,-205,-24,64170,-16,0,8*76bc1d5b
%RAWIMUSA,2124,294033.368;2124,294033.367755000,00000077,-264,41,64152,7,0,9*5ad2375a
%RAWIMUSA,2124,294033.378;2124,294033.377755000,00000077,-73,-60,64202,1,0,19*573cda10
%RAWIMUSA,2124,294033.388;2124,294033.387755000,00000077,-104,-175,64178,-15,-9,-2*92c990f8
%RAWIMUSA,2124,294033.398;2124,294033.397755000,00000077,-201,-91,64180,1,-5,-1*6761474e
%RAWIMUSA,2124,294033.408;2124,294033.407755000,00000077,-170,20,64176,-10,10,10*fffdb5fa
%RAWIMUSA,2124,294033.418;2124,294033.417755000,00000077,-172,-1,64145,2,23,-1*03a8a8ff
%RAWIMUSA,2124,294033.428;2124,294033.427755000,00000077,-136,-76,64215,-3,12,-4*4a6d89f5
%RAWIMUSA,2124,294033.438;2124,294033.437755000,00000077,-160,-11,64086,-10,15,3*689a96ad
%RAWIMUSA,2124,294033.448;2124,294033.447755000,00000077,-75,-110,64143,-9,14,7*feb78d65
%RAWIMUSA,2124,294033.458;2124,294033.457755000,00000077,-184,37,64205,-7,9,-4*6bc69fda
%RAWIMUSA,2124,294033.468;2124,294033.467755000,00000077,-214,-131,64137,-11,4,13*d90dbdb4
%RAWIMUSA,2124,294033.478;2124,294033.477755000,00000077,-152,-69,64095,-4,3,21*1bcc1794
%RAWIMUSA,2124,294033.488;2124,294033.487755000,00000077,-193,-46,64149,-1,6,-7*6153b6a2
%RAWIMUSA,2124,294033.498;2124,294033.497755000,00000077,-143,-96,64108,5,17,-7*b9bc3045
%RAWIMUSA,2124,294033.508;2124,294033.507755000,00000077,-137,-103,64096,-1,16,6*eb6a4598
%RAWIMUSA,2124,294033.518;2124,294033.517755000,00000077,-140,-32,64121,2,-9,1*064bb183
%RAWIMUSA,2124,294033.528;2124,294033.527755000,00000077,-190,-51,64102,0,7,-3*e589113d
%RAWIMUSA,2124,294033.538;2124,294033.537755000,00000077,-70,12,64020,-21,-4,-3*346e06af
%RAWIMUSA,2124,294033.548;2124,294033.547755000,00000077,-281,-104,64093,-15,15,0*5869be9e
%RAWIMUSA,2124,294033.558;2124,294033.557755000,00000077,-203,-89,64087,-14,8,12*2df6c584
%RAWIMUSA,2124,294033.568;2124,294033.567755000,00000077,-89,-14,64072,-14,12,-3*165052e9
%RAWIMUSA,2124,294033.578;2124,294033.577755000,00000077,-204,-129,64144,-4,11,0*fecce7e9
%RAWIMUSA,2124,294033.588;2124,294033.587755000,00000077,-183,-69,64122,-19,16,4*45d7bf2f
%RAWIMUSA,2124,294033.598;2124,294033.597755000,00000077,-168,-64,64288,7,13,16*0cec84cb
%RAWIMUSA,2124,294033.608;2124,294033.607755000,00000077,-150,-74,64035,-10,0,0*f13c902c
%RAWIMUSA,2124,294033.618;2124,294033.617755000,00000077,-101,-80,64125,0,4,4*52505692
%RAWIMUSA,2124,294033.628;2124,294033.627755000,00000077,-210,-86,64181,-3,2,-1*1bcdff80
%RAWIMUSA,2124,294033.638;2124,294033.637755000,00000077,-170,-80,64133,-1,15,-1*ed5bdebd
%RAWIMUSA,2124,294033.648;2124,294033.647755000,00000077,-233,-46,64089,-3,9,0*f4a7ef77
%RAWIMUSA,2124,294033.658;2124,294033.657755000,00000077,-144,-41,64129,-7,-12,11*ce5c8d7d
%RAWIMUSA,2124,294033.668;2124,294033.667755000,00000077,-98,0,64132,-5,10,-2*7bbb666f
%RAWIMUSA,2124,294033.678;2124,294033.677755000,00000077,-147,20,64117,-1,10,22*8c4e246b
%RAWIMUSA,2124,294033.688;2124,294033.687755000,00000077,-227,-97,64108,-6,0,0*ad817bfb
%RAWIMUSA,2124,294033.698;2124,294033.697755000,00000077,-195,-105,64157,-20,9,7*0cece20b
%RAWIMUSA,2124,294033.708;2124,294033.707755000,00000077,-204,16,64081,-3,21,16*e9beaa44
%RAWIMUSA,2124,294033.718;2124,294033.717755000,00000077,-251,-71,64114,-2,12,0*7c58a7f6
%RAWIMUSA,2124,294033.728;2124,294033.727755000,00000077,-263,-86,64103,-12,-13,5*7fc8d5ec
%RAWIMUSA,2124,294033.738;2124,294033.737755000,00000077,-236,-192,64204,3,-5,15*d23f3ea1
%RAWIMUSA,2124,294033.748;2124,294033.747755000,00000077,-115,-137,64141,0,9,-7*2d1cef5a
%RAWIMUSA,2124,294033.758;2124,294033.757755000,00000077,-176,-91,64128,-6,5,7*f8dc2dd4
%RAWIMUSA,2124,294033.768;2124,294033.767755000,00000077,-230,-76,64143,-1,-16,24*d37883a6
%RAWIMUSA,2124,294033.778;2124,294033.777755000,00000077,-143,123,64151,0,-4,125*7228ae28
%RAWIMUSA,2124,294033.788;2124,294033.787755000,00000077,-78,220,64020,-6,-5,321*12f2cec3
%RAWIMUSA,2124,294033.798;2124,294033.797755000,00000077,-148,11,64083,-3,8,469*c48a8b7b
%RAWIMUSA,2124,294033.808;2124,294033.807755000,00000077,-100,71,64121,-6,5,584*60d08908
%RAWIMUSA,2124,294033.818;2124,294033.817755000,00000077,-143,-42,64208,-11,7,691*dcdcb6e5
%RAWIMUSA,2124,294033.828;2124,294033.827755000,00000077,-155,-86,64202,-6,-10,749*0b217dae
%RAWIMUSA,2124,294033.838;2124,294033.837755000,00000077,-62,69,64160,-34,-13,815*93ba2ed2
%RAWIMUSA,2124,294033.848;2124,294033.847755000,00000077,-161,2,64128,-16,6,900*ab2be004
%RAWIMUSA,2124,294033.858;2124,294033.857755000,00000077,-134,15,64090,-21,2,949*a5803e3d
%RAWIMUSA,2124,294033.868;2124,294033.867755000,00000077,-124,22,64093,-5,-5,1053*7404b102
%RAWIMUSA,2124,294033.878;2124,294033.877755000,00000077,-165,32,64065,-17,5,1099*d5040bbb
%RAWIMUSA,2124,294033.888;2124,294033.887755000,00000077,-223,-32,64189,-25,5,1196*71e8a83e
%RAWIMUSA,2124,294033.898;2124,294033.897755000,00000077,-205,-62,64074,-4,2,1289*fb20568d
%RAWIMUSA,2124,294033.908;2124,294033.907755000,00000077,-136,1,64038,-9,-9,1383*ef2eec07
%RAWIMUSA,2124,294033.918;2124,294033.917755000,00000077,-100,65,64221,-22,-12,1448*996bd7b6
%RAWIMUSA,2124,294033.928;2124,294033.927755000,00000077,-224,-117,64032,-20,0,1546*6c1e83fd
%RAWIMUSA,2124,294033.938;2124,294033.937755000,00000077,-220,-58,64146,-26,3,1598*ac15b1af
%RAWIMUSA,2124,294033.948;2124,294033.947755000,00000077,-185,-3,64226,0,-1,1701*df5fa917
%RAWIMUSA,2124,294033.958;2124,294033.957755000,00000077,-184,48,64149,-15,2,1798*2e3551ba
%RAWIMUSA,2124,294033.968;2124,294033.967755000,00000077,-117,23,64118,-12,3,1854*957513f8
%RAWIMUSA,2124,294033.978;2124,294033.977755000,00000077,-112,54,64107,-30,-3,1970*c9d43bb8
%RAWIMUSA,2124,294033.988;2124,294033.987755000,00000077,-258,-111,64161,-12,3,2026*6ba62c4d
%RAWIMUSA,2124,294033.998;2124,294033.997755000,00000077,-145,71,64048,-30,-2,2073*473e961c
%RAWIMUSA,2124,294034.008;2124,294034.007755000,00000077,-179,-9,64198,-39,4,2202*2de9ed82
%RAWIMUSA,2124,294034.018;2124,294034.017755000,00000077,-185,-31,64130,-28,-15,2251*0d0424a3
%RAWIMUSA,2124,294034.028;2124,294034.027755000,00000077,-224,85,64237,-29,-2,2343*b1245032
%RAWIMUSA,2124,294034.038;2124,294034.037755000,00000077,-209,89,64185,-20,-4,2453*3859272b
%RAWIMUSA,2124,294034.048;2124,294034.047755000,00000077,-121,-68,64128,-19,-1,2507*7d1bbdaf
%RAWIMUSA,2124,294034.058;2124,294034.057755000,00000077,-242,8,64136,-36,-7,2599*942cd03c
%RAWIMUSA,2124,294034.068;2124,294034.067755000,00000077,-245,-49,64089,-35,-16,2706*233c3d9b
%RAWIMUSA,2124,294034.078;2124,294034.077755000,00000077,-156,115,64171,-29,0,2735*f9c83959
%RAWIMUSA,2124,294034.088;2124,294034.087755000,00000077,-175,140,64068,-38,6,2830*3ec9aa9a
%RAWIMUSA,2124,294034.098;2124,294034.097755000,00000077,-146,-23,64120,-40,-10,2906*6ec4dbe3
%RAWIMUSA,2124,294034.108;2124,294034.107755000,00000077,-319,-12,64144,-38,-18,2984*400db58f
%RAWIMUSA,2124,294034.118;2124,294034.117755000,00000077,-149,13,64103,-37,-20,3092*aca672bc
%RAWIMUSA,2124,294034.128;2124,294034.127755000,00000077,-164,89,64082,-38,0,3136*f6248eec
%RAWIMUSA,2124,294034.138;2124,294034.137755000,00000077,-206,33,64094,-40,-14,3210*8115aedb
%RAWIMUSA,2124,294034.148;2124,294034.147755000,00000077,-58,33,64193,-41,-17,3342*2fbbf6ce
%RAWIMUSA,2124,294034.158;2124,294034.157755000,00000077,-195,84,64188,-50,1,3405*10d11876
%RAWIMUSA,2124,294034.168;2124,294034.167755000,00000077,-72,5,64072,-43,0,3494*218e7e42
%RAWIMUSA,2124,294034.178;2124,294034.177755000,00000077,-230,-66,64123,-41,-5,3568*bd0b6307
%RAWIMUSA,2124,294034.188;2124,294034.187755000,00000077,-180,-22,64178,-43,-2,3606*e325ff7d
%RAWIMUSA,2124,294034.198;2124,294034.197755000,00000077,-256,-17,64123,-27,-22,3719*f4979d84
%RAWIMUSA,2124,294034.208;2124,294034.207755000,00000077,-168,30,64069,-57,6,3800*d73fe8b9
%RAWIMUSA,2124,294034.218;2124,294034.217755000,00000077,-177,-53,64065,-44,-4,3872*e0035064
%RAWIMUSA,2124,294034.228;2124,294034.227755000,00000077,-194,101,64084,-39,-9,3966*8bceef94
%RAWIMUSA,2124,294034.238;2124,294034.237755000,00000077,-249,-19,64120,-35,-24,4050*e334a59d
%RAWIMUSA,2124,294034.248;2124,294034.247755000,00000077,-66,40,64172,-46,-6,4112*6c0a22d9
%RAWIMUSA,2124,294034.258;2124,294034.257755000,00000077,-201,45,64148,-34,-12,4220*b49e77af
%RAWIMUSA,2124,294034.268;2124,294034.267755000,00000077,-198,9,64064,-49,-14,4268*9a264e1e
%RAWIMUSA,2124,294034.278;2124,294034.277755000,00000077,-115,102,64092,-41,-5,4364*d973457e
%RAWIMUSA,2124,294034.288;2124,294034.287755000,00000077,-72,128,64075,-16,-12,4459*6bae08bb
%RAWIMUSA,2124,294034.298;2124,294034.297755000,00000077,-108,-48,64131,-45,-11,4493*fe4931f9
%RAWIMUSA,2124,294034.308;2124,294034.307755000,00000077,-184,122,64190,-51,-12,4586*0bd14ed6
%RAWIMUSA,2124,294034.318;2124,294034.317755000,00000077,-188,12,64050,-41,-21,4693*6ed40555
%RAWIMUSA,2124,294034.328;2124,294034.327755000,00000077,-70,-19,64177,-42,-1,4766*b8c7afc2
%RAWIMUSA,2124,294034.338;2124,294034.337755000,00000077,-239,36,64096,-51,-14,4861*8462abae
%RAWIMUSA,2124,294034.348;2124,294034.347755000,00000077,-128,-92,64036,-59,-14,4927*a11891e7
%RAWIMUSA,2124,294034.358;2124,294034.357755000,00000077,-140,-26,64142,-38,-20,4961*da504c17
%RAWIMUSA,2124,294034.368;2124,294034.367755000,00000077,-79,39,64183,-50,-12,5089*a7ef7400
%RAWIMUSA,2124,294034.378;2124,294034.377755000,00000077,-233,-74,64091,-62,-27,5169*7360bdfb
%RAWIMUSA,2124,294034.388;2124,294034.387755000,00000077,-160,0,64171,-55,-1,5214*3b2f3fd5
%RAWIMUSA,2124,294034.398;2124,294034.397755000,00000077,-177,-35,64153,-49,-27,5350*733e5b89
%RAWIMUSA,2124,294034.408;2124,294034.407755000,00000077,-146,20,64254,-65,-10,5402*3756a6df
%RAWIMUSA,2124,294034.418;2124,294034.417755000,00000077,-120,-1,64223,-70,-7,5493*ba94e9d7
%RAWIMUSA,2124,294034.428;2124,294034.427755000,00000077,-238,-27,64259,-55,-18,5582*9e556c8e
%RAWIMUSA,2124,294034.438;2124,294034.437755000,00000077,-201,-44,64141,-72,-31,5631*aeae0b66
%RAWIMUSA,2124,294034.448;2124,294034.447755000,00000077,-189,166,64155,-55,-22,5737*6456b1ee
%RAWIMUSA,2124,294034.458;2124,294034.457755000,00000077,-224,-69,64074,-62,-22,5824*95025fe1
%RAWIMUSA,2124,294034.468;2124,294034.467755000,00000077,-95,-77,64184,-60,-24,5896*64c36c12
%RAWIMUSA,2124,294034.478;2124,294034.477755000,00000077,-183,18,64099,-55,-27,5989*a9b56143
%RAWIMUSA,2124,294034.488;2124,294034.487755000,00000077,-211,-7,64132,-61,-12,6053*b8920f41
%RAWIMUSA,2124,294034.498;2124,294034.497755000,00000077,-181,58,64181,-57,-22,6113*4e0a1d10
%RAWIMUSA,2124,294034.508;2124,294034.507755000,00000077,-147,-49,64118,-57,-31,6247*416c2d21
%RAWIMUSA,2124,294034.518;2124,294034.517755000,00000077,-212,-27,64136,-64,-26,6289*d507aa92
%RAWIMUSA,2124,294034.528;2124,294034.527755000,00000077,-196,54,64104,-59,-25,6370*a0ae4ba8
%RAWIMUSA,2124,294034.538;2124,294034.537755000,00000077,-201,80,64125,-62,-14,6451*5854af93
%RAWIMUSA,2124,294034.548;2124,294034.547755000,00000077,-155,-98,64018,-56,-31,6511*ef14e021
%RAWIMUSA,2124,294034.558;2124,294034.557755000,00000077,-211,92,64091,-67,-37,6628*08e469b1
%RAWIMUSA,2124,294034.568;2124,294034.567755000,00000077,-96,32,64176,-53,-13,6723*53a79b1a
%RAWIMUSA,2124,294034.578;2124,294034.577755000,00000077,-115,-14,64136,-60,-27,6783*4e1eb2f7
%RAWIMUSA,2124,294034.588;2124,294034.587755000,00000077,-114,63,64132,-67,-16,6874*a72071ce
%RAWIMUSA,2124,294034.598;2124,294034.597755000,00000077,-187,-122,64154,-65,-20,6951*e0f12642
%RAWIMUSA,2124,294034.608;2124,294034.607755000,00000077,-163,13,64131,-68,-14,7003*fdcbb513
%RAWIMUSA,2124,294034.618;2124,294034.617755000,00000077,-58,13,64056,-72,-28,7120*7ac96410
%RAWIMUSA,2124,294034.628;2124,294034.627755000,00000077,-201,-106,64148,-74,-18,7166*97dede3b
%RAWIMUSA,2124,294034.638;2124,294034.637755000,00000077,-142,76,64014,-59,-25,7253*e8633126
%RAWIMUSA,2124,294034.648;2124,294034.647755000,00000077,-135,38,64125,-61,-33,7374*1e2392b7
%RAWIMUSA,2124,294034.658;2124,294034.657755000,00000077,-203,-99,64143,-69,-30,7412*9866f71b
%RAWIMUSA,2124,294034.668;2124,294034.667755000,00000077,-205,9,64052,-85,-16,7492*5b109c32
%RAWIMUSA,2124,294034.678;2124,294034.677755000,00000077,-180,-49,64115,-78,-18,7617*3c1990ee
%RAWIMUSA,2124,294034.688;2124,294034.687755000,00000077,-233,-1,64216,-65,-16,7650*407b63ac
%RAWIMUSA,2124,294034.698;2124,294034.697755000,00000077,-220,85,64111,-68,-42,7736*11c3677c
%RAWIMUSA,2124,294034.708;2124,294034.707755000,00000077,-145,46,64049,-75,-29,7821*dcd5b6b7
%RAWIMUSA,2124,294034.718;2124,294034.717755000,00000077,-207,-8,64212,-85,-31,7900*0357cde5
%RAWIMUSA,2124,294034.728;2124,294034.727755000,00000077,-250,18,64108,-87,-24,7994*7dbbec8f
%RAWIMUSA,2124,294034.738;2124,294034.737755000,00000077,-252,5,64134,-65,-33,8071*b89f3ce6
%RAWIMUSA,2124,294034.748;2124,294034.747755000,00000077,-182,27,64054,-99,-22,8146*0431ec4a
%RAWIMUSA,2124,294034.758;2124,294034.757755000,00000077,-125,-84,64111,-75,-36,8255*d3d70a08
%RAWIMUSA,2124,294034.768;2124,294034.767755000,00000077,-237,-52,64110,-74,-29,8314*ff1bad2f
%RAWIMUSA,2124,294034.778;2124,294034.777755000,00000077,-215,81,64123,-88,-34,8415*4756dc8e
%RAWIMUSA,2124,294034.788;2124,294034.787755000,00000077,-225,15,64216,-86,-37,8489*b2dab5a2
%RAWIMUSA,2124,294034.798;2124,294034.797755000,00000077,-185,30,64144,-86,-30,8536*3719c4ce
%RAWIMUSA,2124,294034.808;2124,294034.807755000,00000077,-125,62,64144,-92,-22,8631*7ca527ef
%RAWIMUSA,2124,294034.818;2124,294034.817755000,00000077,-178,77,64108,-70,-29,8732*5fbdf5a1
%RAWIMUSA,2124,294034.828;2124,294034.827755000,00000077,-180,8,64112,-83,-30,8777*0db565dc
%RAWIMUSA,2124,294034.838;2124,294034.837755000,00000077,-92,100,64179,-74,-33,8891*3310f2a9
%RAWIMUSA,2124,294034.848;2124,294034.847755000,00000077,-176,22,64007,-90,-31,8949*f33317e1
%RAWIMUSA,2124,294034.858;2124,294034.857755000,00000077,-143,-23,64147,-81,-30,9025*b3bf5401
%RAWIMUSA,2124,294034.868;2124,294034.867755000,00000077,-73,41,64231,-85,-41,9149*267a5057
%RAWIMUSA,2124,294034.878;2124,294034.877755000,00000077,-221,-40,64149,-81,-40,9193*c832e03c
%RAWIMUSA,2124,294034.888;2124,294034.887755000,00000077,-178,-24,64087,-82,-29,9296*40149ca2
%RAWIMUSA,2124,294034.898;2124,294034.897755000,00000077,-183,81,64049,-65,-39,9386*0b3ce03b
%RAWIMUSA,2124,294034.908;2124,294034.907755000,00000077,-166,-51,64169,-77,-32,9428*795eebd4
%RAWIMUSA,2124,294034.918;2124,294034.917755000,00000077,-174,-14,64179,-78,-31,9509*6851ccea
%RAWIMUSA,2124,294034.928;2124,294034.927755000,00000077,-208,-108,64035,-72,-28,9644*383e5f51
%RAWIMUSA,2124,294034.938;2124,294034.937755000,00000077,-226,39,64016,-109,-42,9702*c61f1a37
%RAWIMUSA,2124,294034.948;2124,294034.947755000,00000077,-279,-8,64166,-93,-39,9794*51a5f751
%RAWIMUSA,2124,294034.958;2124,294034.957755000,00000077,-163,6,64047,-96,-27,9855*01639075
%RAWIMUSA,2124,294034.968;2124,294034.967755000,00000077,-234,82,64155,-100,-30,9902*49a2ce26
%RAWIMUSA,2124,294034.978;2124,294034.977755000,00000077,-257,67,64086,-97,-47,10029*d400308a
%RAWIMUSA,2124,294034.988;2124,294034.987755000,00000077,-207,-40,64112,-91,-56,10094*4c42a817
%RAWIMUSA,2124,294034.998;2124,294034.997755000,00000077,-150,-25,64077,-104,-33,10141*d2234979
%RAWIMUSA,2124,294035.008;2124,294035.007755000,00000077,-203,46,64055,-117,-39,10248*b0d32779
%RAWIMUSA,2124,294035.018;2124,294035.017755000,00000077,-71,-105,64194,-100,-36,10304*639e76b7
%RAWIMUSA,2124,294035.028;2124,294035.027755000,00000077,-114,92,64230,-104,-42,10416*e996e983
%RAWIMUSA,2124,294035.038;2124,294035.037755000,00000077,-222,73,64121,-93,-35,10526*e8be7e25
%RAWIMUSA,2124,294035.048;2124,294035.047755000,00000077,-196,-13,64139,-100,-31,10557*0629f3c0
%RAWIMUSA,2124,294035.058;2124,294035.057755000,00000077,-197,45,64120,-110,-41,10658*9055221b
%RAWIMUSA,2124,294035.068;2124,294035.067755000,00000077,-216,98,64107,-87,-45,10745*78ebb836
%RAWIMUSA,2124,294035.078;2124,294035.077755000,00000077,-88,22,64236,-110,-41,10807*8c587a1a
%RAWIMUSA,2124,294035.088;2124,294035.087755000,00000077,-278,29,64168,-103,-43,10903*7720e637
%RAWIMUSA,2124,294035.098;2124,294035.097755000,00000077,-285,-53,64077,-92,-41,10973*77daee6c
%RAWIMUSA,2124,294035.108;2124,294035.107755000,00000077,-93,-28,64004,-109,-31,11084*a98897e2
%RAWIMUSA,2124,294035.118;2124,294035.117755000,00000077,-214,19,64108,-105,-53,11159*49b557a3
%RAWIMUSA,2124,294035.128;2124,294035.127755000,00000077,-247,-66,64151,-96,-54,11229*494d8100
%RAWIMUSA,2124,294035.138;2124,294035.137755000,00000077,-144,60,64066,-106,-39,11316*c3e1aab1
%RAWIMUSA,2124,294035.148;2124,294035.147755000,00000077,-121,64,64057,-110,-60,11407*d6cd4743
%RAWIMUSA,2124,294035.158;2124,294035.157755000,00000077,-245,82,64179,-95,-37,11465*1e46c337
%RAWIMUSA,2124,294035.168;2124,294035.167755000,00000077,-268,12,64043,-114,-35,11543*118572e1
%RAWIMUSA,2124,294035.178;2124,294035.177755000,00000077,-221,-33,64133,-111,-54,11623*707740a2
%RAWIMUSA,2124,294035.188;2124,294035.187755000,00000077,-108,17,64112,-110,-50,11692*a6ebc95b
%RAWIMUSA,2124,294035.198;2124,294035.197755000,00000077,-232,39,64110,-105,-56,11811*e17f6ecc
%RAWIMUSA,2124,294035.208;2124,294035.207755000,00000077,-71,74,64046,-112,-63,11874*994ee7a6
%RAWIMUSA,2124,294035.218;2124,294035.217755000,00000077,-235,-45,64189,-122,-42,11890*d83a8507
%RAWIMUSA,2124,294035.228;2124,294035.227755000,00000077,-140,115,64164,-109,-31,12033*13b03749
%RAWIMUSA,2124,294035.238;2124,294035.237755000,00000077,-201,41,64112,-98,-48,12112*44696a71
%RAWIMUSA,2124,294035.248;2124,294035.247755000,00000077,-209,49,64215,-114,-59,12199*71acb16c
%RAWIMUSA,2124,294035.258;2124,294035.257755000,00000077,-114,67,64071,-107,-40,12293*77d90f98
%RAWIMUSA,2124,294035.268;2124,294035.267755000,00000077,-222,-108,64166,-121,-55,12336*31ba17f3
%RAWIMUSA,2124,294035.278;2124,294035.277755000,00000077,-305,69,64109,-108,-47,12428*f11761d8
%RAWIMUSA,2124,294035.288;2124,294035.287755000,00000077,-154,89,64139,-119,-59,12545*fdf96d92
%RAWIMUSA,2124,294035.298;2124,294035.297755000,00000077,-202,-45,64146,-108,-40,12584*20adc9d7
%RAWIMUSA,2124,294035.308;2124,294035.307755000,00000077,-280,42,64205,-118,-45,12684*610cfe89
%RAWIMUSA,2124,294035.318;2124,294035.317755000,00000077,-296,82,64084,-129,-49,12786*f72d743d
%RAWIMUSA,2124,294035.328;2124,294035.327755000,00000077,-136,81,64151,-129,-52,12832*1a78de67
%RAWIMUSA,2124,294035.338;2124,294035.337755000,00000077,-148,16,64186,-104,-63,12920*a46d08f3
%RAWIMUSA,2124,294035.348;2124,294035.347755000,00000077,-306,-31,64088,-120,-50,12979*68784a6e
%RAWIMUSA,2124,294035.358;2124,294035.357755000,00000077,-267,72,64107,-117,-57,13076*9b7b28b8
%RAWIMUSA,2124,294035.368;2124,294035.367755000,00000077,-179,39,64118,-151,-61,13180*e9db401b
%RAWIMUSA,2124,294035.378;2124,294035.377755000,00000077,-212,-22,64140,-134,-62,13237*c988d7ec
%RAWIMUSA,2124,294035.388;2124,294035.387755000,00000077,-226,60,64155,-122,-55,13332*82074cbc
%RAWIMUSA,2124,294035.398;2124,294035.397755000,00000077,-249,-32,64173,-129,-39,13420*98a1afb7
%RAWIMUSA,2124,294035.408;2124,294035.407755000,00000077,-311,0,64136,-128,-47,13475*3ce1d694
%RAWIMUSA,2124,294035.418;2124,294035.417755000,00000077,-230,36,64103,-136,-48,13559*9fa7d1bc
%RAWIMUSA,2124,294035.428;2124,294035.427755000,00000077,-52,20,64078,-117,-51,13653*d74419f4
%RAWIMUSA,2124,294035.438;2124,294035.437755000,00000077,-258,-71,64151,-138,-64,13717*7251ada2
%RAWIMUSA,2124,294035.448;2124,294035.447755000,00000077,-172,56,64140,-131,-57,13822*ba208cbe
%RAWIMUSA,2124,294035.458;2124,294035.457755000,00000077,-202,-21,64145,-141,-43,13895*c4267080
%RAWIMUSA,2124,294035.468;2124,294035.467755000,00000077,-198,45,64134,-137,-63,13965*1b789ca5
%RAWIMUSA,2124,294035.478;2124,294035.477755000,00000077,-169,103,64079,-142,-59,14081*ce8d75c6
%RAWIMUSA,2124,294035.488;2124,294035.487755000,00000077,-167,-8,64179,-129,-51,14127*8ec45096
%RAWIMUSA,2124,294035.498;2124,294035.497755000,00000077,-249,27,64111,-143,-68,14187*35bd88d5
%RAWIMUSA,2124,294035.508;2124,294035.507755000,00000077,-281,63,64218,-118,-50,14319*362960d8
%RAWIMUSA,2124,294035.518;2124,294035.517755000,00000077,-188,-39,64142,-124,-57,14338*7d2edab2
%RAWIMUSA,2124,294035.528;2124,294035.527755000,00000077,-250,109,64309,-139,-62,14437*2a3c5544
%RAWIMUSA,2124,294035.538;2124,294035.537755000,00000077,-136,-54,64142,-129,-55,14562*cf7f8cf9
%RAWIMUSA,2124,294035.548;2124,294035.547755000,00000077,-192,24,64134,-124,-64,14624*6ee8313d
%RAWIMUSA,2124,294035.558;2124,294035.557755000,00000077,-159,46,64098,-133,-55,14724*e303ea5e
%RAWIMUSA,2124,294035.568;2124,294035.567755000,00000077,-265,-7,64125,-146,-64,14791*94dab64f
%RAWIMUSA,2124,294035.578;2124,294035.577755000,00000077,-283,53,64103,-139,-51,14858*63017bd6
%RAWIMUSA,2124,294035.588;2124,294035.587755000,00000077,-299,93,64087,-140,-45,14944*2b32720b
%RAWIMUSA,2124,294035.598;2124,294035.597755000,00000077,-105,61,64031,-135,-49,15042*16dccfdc
%RAWIMUSA,2124,294035.608;2124,294035.607755000,00000077,-207,29,64199,-143,-70,15094*820116d7
%RAWIMUSA,2124,294035.618;2124,294035.617755000,00000077,-346,6,64155,-142,-46,15205*fc0eb5e1
%RAWIMUSA,2124,294035.628;2124,294035.627755000,00000077,-174,-2,64129,-136,-36,15254*9bc92017
%RAWIMUSA,2124,294035.638;2124,294035.637755000,00000077,-204,137,64177,-157,-67,15356*f11d74d2
%RAWIMUSA,2124,294035.648;2124,294035.647755000,00000077,-248,24,64167,-152,-52,15432*54bb783e
%RAWIMUSA,2124,294035.658;2124,294035.657755000,00000077,-153,58,64089,-143,-63,15476*dc7ba6fa
%RAWIMUSA,2124,294035.668;2124,294035.667755000,00000077,-167,-43,64093,-153,-70,15581*61822adb
%RAWIMUSA,2124,294035.678;2124,294035.677755000,00000077,-70,13,64117,-143,-60,15665*65df2a3d
%RAWIMUSA,2124,294035.688;2124,294035.687755000,00000077,-148,186,64197,-147,-49,15728*b45ccf8e
%RAWIMUSA,2124,294035.698;2124,294035.697755000,00000077,-311,-59,64090,-154,-64,15850*c9b03950
%RAWIMUSA,2124,294035.708;2124,294035.707755000,00000077,-214,-31,64068,-144,-57,15871*1b0ba498
%RAWIMUSA,2124,294035.718;2124,294035.717755000,00000077,-187,122,64075,-148,-74,15973*00da755b
%RAWIMUSA,2124,294035.728;2124,294035.727755000,00000077,-167,48,64126,-150,-74,16066*33fdcf71
%RAWIMUSA,2124,294035.738;2124,294035.737755000,00000077,-255,-64,64159,-153,-60,16146*44943972
%RAWIMUSA,2124,294035.748;2124,294035.747755000,00000077,-233,92,64112,-149,-76,16234*038758af
%RAWIMUSA,2124,294035.758;2124,294035.757755000,00000077,-183,-81,64081,-161,-63,16298*4629d063
%RAWIMUSA,2124,294035.768;2124,294035.767755000,00000077,-219,-97,64140,-147,-61,16264*c25b34f3
%RAWIMUSA,2124,294035.778;2124,294035.777755000,00000077,-230,-29,64167,-154,-51,16222*0151cb76
%RAWIMUSA,2124,294035.788;2124,294035.787755000,00000077,-144,-86,64158,-151,-66,16168*13de80f2
%RAWIMUSA,2124,294035.798;2124,294035.797755000,00000077,-209,-123,64171,-150,-66,16131*42b05967
%RAWIMUSA,2124,294035.808;2124,294035.807755000,00000077,-220,-90,64113,-155,-67,16126*f8c938a4
%RAWIMUSA,2124,294035.818;2124,294035.817755000,00000077,-187,-27,63974,-144,-66,16123*9c9587e1
%RAWIMUSA,2124,294035.828;2124,294035.827755000,00000077,-271,-144,64192,-155,-61,16143*ba7adbb1
%RAWIMUSA,2124,294035.838;2124,294035.837755000,00000077,-250,-50,64152,-150,-67,16156*83d1b287
%RAWIMUSA,2124,294035.848;2124,294035.847755000,00000077,-250,-83,64112,-138,-78,16161*2515e6f4
%RAWIMUSA,2124,294035.858;2124,294035.857755000,00000077,-171,-31,64189,-145,-62,16145*a5e85147
%RAWIMUSA,2124,294035.868;2124,294035.867755000,00000077,-203,-60,64179,-165,-70,16157*20693a55
%RAWIMUSA,2124,294035.878;2124,294035.877755000,00000077,-256,47,64191,-137,-72,16146*355251cc
%RAWIMUSA,2124,294035.888;2124,294035.887755000,00000077,-230,16,64062,-143,-69,16142*08435ddd
%RAWIMUSA,2124,294035.898;2124,294035.897755000,00000077,-173,20,64205,-141,-51,16169*7699277c
%RAWIMUSA,2124,294035.908;2124,294035.907755000,00000077,-225,-71,64117,-157,-71,16168*dd6cb4d9
%RAWIMUSA,2124,294035.918;2124,294035.917755000,00000077,-289,-3,64149,-141,-75,16165*fa1cfe8f
%RAWIMUSA,2124,294035.928;2124,294035.927755000,00000077,-211,-39,64010,-163,-75,16143*0aa03bda
%RAWIMUSA,2124,294035.938;2124,294035.937755000,00000077,-244,-27,64138,-155,-75,16150*f6ab4d5b
%RAWIMUSA,2124,294035.948;2124,294035.947755000,00000077,-176,-109,64186,-168,-44,16157*c88db578
%RAWIMUSA,2124,294035.958;2124,294035.957755000,00000077,-187,36,64082,-165,-63,16147*374aa199
%RAWIMUSA,2124,294035.968;2124,294035.967755000,00000077,-223,-54,64221,-151,-58,16158*2eb83cfb
%RAWIMUSA,2124,294035.978;2124,294035.977755000,00000077,-164,-22,64114,-150,-66,16150*7ac6f894
%RAWIMUSA,2124,294035.988;2124,294035.987755000,00000077,-138,-144,64202,-156,-65,16160*ddb2415e
%RAWIMUSA,2124,294035.998;2124,294035.997755000,00000077,-124,-107,64067,-156,-51,16160*561dee7b
%RAWIMUSA,2124,294036.008;2124,294036.007755000,00000077,-175,-53,64091,-159,-61,16158*577632e6
%RAWIMUSA,2124,294036.018;2124,294036.017755000,00000077,-240,40,64092,-149,-71,16154*264eb0c8
%RAWIMUSA,2124,294036.028;2124,294036.027755000,00000077,-209,-121,64149,-155,-68,16166*f101f756
%RAWIMUSA,2124,294036.038;2124,294036.037755000,00000077,-148,-40,64209,-151,-50,16152*f1889392
%RAWIMUSA,2124,294036.048;2124,294036.047755000,00000077,-168,-124,64158,-147,-63,16160*6c2bab72
%RAWIMUSA,2124,294036.058;2124,294036.057755000,00000077,-260,3,64167,-156,-64,16163*effa1abc
%RAWIMUSA,2124,294036.068;2124,294036.067755000,00000077,-175,-162,64149,-159,-79,16142*38fbeee4
%RAWIMUSA,2124,294036.078;2124,294036.077755000,00000077,-87,-65,64143,-155,-66,16169*24cc5b39
%RAWIMUSA,2124,294036.088;2124,294036.087755000,00000077,-184,-90,64109,-143,-60,16164*8c92edc5
%RAWIMUSA,2124,294036.098;2124,294036.097755000,00000077,-213,-13,64209,-137,-66,16155*ebb7c2d0
%RAWIMUSA,2124,294036.108;2124,294036.107755000,00000077,-240,-125,64147,-145,-74,16167*71994477
%RAWIMUSA,2124,294036.118;2124,294036.117755000,00000077,-239,-144,64104,-151,-59,16157*e89b34b2
%RAWIMUSA,2124,294036.128;2124,294036.127755000,00000077,-148,-35,64126,-142,-52,16162*49531e17
%RAWIMUSA,2124,294036.138;2124,294036.137755000,00000077,-237,-141,64034,-151,-84,16163*09ebc242
%RAWIMUSA,2124,294036.148;2124,294036.147755000,00000077,-195,-6,64145,-142,-67,16162*94b67ff1
%RAWIMUSA,2124,294036.158;2124,294036.157755000,00000077,-138,14,64026,-141,-56,16179*1e80b17e
%RAWIMUSA,2124,294036.168;2124,294036.167755000,00000077,-155,-34,64047,-137,-71,16161*467b6368
%RAWIMUSA,2124,294036.178;2124,294036.177755000,00000077,-269,14,64090,-154,-51,16185*caa33ec4
%RAWIMUSA,2124,294036.188;2124,294036.187755000,00000077,-231,19,64107,-147,-58,16164*3c275d21
%RAWIMUSA,2124,294036.198;2124,294036.197755000,00000077,-252,-39,64068,-138,-81,16158*94061bff
%RAWIMUSA,2124,294036.208;2124,294036.207755000,00000077,-193,-77,64150,-152,-70,16161*d6138808
%RAWIMUSA,2124,294036.218;2124,294036.217755000,00000077,-229,16,64155,-156,-69,16168*586a7308
%RAWIMUSA,2124,294036.228;2124,294036.227755000,00000077,-269,-119,64157,-145,-57,16165*f9304af8
%RAWIMUSA,2124,294036.238;2124,294036.237755000,00000077,-158,52,64110,-151,-61,16150*b4ed0c3b
%RAWIMUSA,2124,294036.248;2124,294036.247755000,00000077,-191,-20,64125,-166,-63,16171*a3531be9
%RAWIMUSA,2124,294036.258;2124,294036.257755000,00000077,-175,5,64056,-150,-72,16172*5152b5f1
%RAWIMUSA,2124,294036.268;2124,294036.267755000,00000077,-243,-45,64179,-165,-63,16160*082def75
%RAWIMUSA,2124,294036.278;2124,294036.277755000,00000077,-177,-3,64071,-148,-70,16172*74b780f9
%RAWIMUSA,2124,294036.288;2124,294036.287755000,00000077,-205,18,64113,-147,-91,16159*ac87c40f
%RAWIMUSA,2124,294036.298;2124,294036.297755000,00000077,-186,16,64090,-130,-68,16181*f75365c1
%RAWIMUSA,2124,294036.308;2124,294036.307755000,00000077,-271,-34,64128,-145,-73,16168*9dd79a46
%RAWIMUSA,2124,294036.318;2124,294036.317755000,00000077,-356,0,64249,-159,-72,16172*b6619df9
%RAWIMUSA,2124,294036.328;2124,294036.327755000,00000077,-266,-64,64076,-145,-77,16166*ebaad7c6
%RAWIMUSA,2124,294036.338;2124,294036.337755000,00000077,-132,-37,64088,-146,-52,16169*a8f027b1
%RAWIMUSA,2124,294036.348;2124,294036.347755000,00000077,-158,-82,64082,-146,-55,16181*6524944f
%RAWIMUSA,2124,294036.358;2124,294036.357755000,00000077,-221,-104,64052,-161,-63,16160*3351350f
%RAWIMUSA,2124,294036.368;2124,294036.367755000,00000077,-243,23,64125,-161,-49,16171*9306e8dd
%RAWIMUSA,2124,294036.378;2124,294036.377755000,00000077,-108,-24,64106,-142,-63,16162*38160458
%RAWIMUSA,2124,294036.388;2124,294036.387755000,00000077,-156,-51,64167,-131,-60,16159*b178fd58
%RAWIMUSA,2124,294036.398;2124,294036.397755000,00000077,-245,-76,64266,-131,-69,16175*740ea75f
%RAWIMUSA,2124,294036.408;2124,294036.407755000,00000077,-154,-82,64049,-141,-60,16181*6c839d9f
%RAWIMUSA,2124,294036.418;2124,294036.417755000,00000077,-198,-168,64085,-147,-66,16163*9469b497
%RAWIMUSA,2124,294036.428;2124,294036.427755000,00000077,-164,-34,64105,-150,-69,16168*bbba5205
%RAWIMUSA,2124,294036.438;2124,294036.437755000,00000077,-153,-99,64190,-142,-50,16176*cb50d645
%RAWIMUSA,2124,294036.448;2124,294036.447755000,00000077,-215,-98,64081,-147,-73,16174*07461bc4
%RAWIMUSA,2124,294036.458;2124,294036.457755000,00000077,-280,3,64177,-150,-82,16180*27425c9f
%RAWIMUSA,2124,294036.468;2124,294036.467755000,00000077,-169,-50,64109,-154,-65,16170*b2c35b23
%RAWIMUSA,2124,294036.478;2124,294036.477755000,00000077,-189,-111,64113,-162,-79,16158*fc7e90a8
%RAWIMUSA,2124,294036.488;2124,294036.487755000,00000077,-211,-77,64097,-140,-60,16181*198c6c0c
%RAWIMUSA,2124,294036.498;2124,294036.497755000,00000077,-171,-22,64087,-153,-59,16178*2ed5eca4
%RAWIMUSA,2124,294036.508;2124,294036.507755000,00000077,-264,-112,64121,-151,-81,16157*41aaaa68
%RAWIMUSA,2124,294036.518;2124,294036.517755000,00000077,-177,-141,64173,-146,-45,16149*da838b8d
%RAWIMUSA,2124,294036.528;2124,294036.527755000,00000077,-219,-100,64168,-155,-73,16176*96935330
%RAWIMUSA,2124,294036.538;2124,294036.537755000,00000077,-282,-61,64147,-151,-49,16175*b3208844
%RAWIMUSA,2124,294036.548;2124,294036.547755000,00000077,-233,-109,64098,-162,-69,16154*fe669ecf
%RAWIMUSA,2124,294036.558;2124,294036.557755000,00000077,-252,6,64157,-142,-80,16168*1e2d840d
%RAWIMUSA,2124,294036.568;2124,294036.567755000,00000077,-178,82,64076,-147,-70,16180*78ab68b1
%RAWIMUSA,2124,294036.578;2124,294036.577755000,00000077,-180,-16,64083,-143,-54,16184*60adce98
%RAWIMUSA,2124,294036.588;2124,294036.587755000,00000077,-183,-93,64102,-145,-60,16181*24aacdf2
%RAWIMUSA,2124,294036.598;2124,294036.597755000,00000077,-163,-101,64215,-153,-62,16184*8f0d4c28
%RAWIMUSA,2124,294036.608;2124,294036.607755000,00000077,-127,-13,64254,-162,-49,16166*57209f84
%RAWIMUSA,2124,294036.618;2124,294036.617755000,00000077,-347,-16,64208,-141,-63,16169*caee2c78
%RAWIMUSA,2124,294036.628;2124,294036.627755000,00000077,-208,-28,64138,-180,-76,16176*ba571c82
%RAWIMUSA,2124,294036.638;2124,294036.637755000,00000077,-216,6,64154,-159,-58,16161*e5a313ef
%RAWIMUSA,2124,294036.648;2124,294036.647755000,00000077,-225,-9,64083,-154,-76,16180*b12ad8e9
%RAWIMUSA,2124,294036.658;2124,294036.657755000,00000077,-146,-58,64273,-146,-61,16179*dfa9493f
%RAWIMUSA,2124,294036.668;2124,294036.667755000,00000077,-185,-110,64142,-142,-55,16174*ed8dd326
%RAWIMUSA,2124,294036.678;2124,294036.677755000,00000077,-267,-21,64069,-147,-77,16164*33ab7a65
%RAWIMUSA,2124,294036.688;2124,294036.687755000,00000077,-321,-53,64118,-155,-78,16168*d1a2dd53
%RAWIMUSA,2124,294036.698;2124,294036.697755000,00000077,-274,-32,64161,-151,-50,16166*0a39720a
%RAWIMUSA,2124,294036.708;2124,294036.707755000,00000077,-207,-13,64060,-151,-60,16176*98c7d4f6
%RAWIMUSA,2124,294036.718;2124,294036.717755000,00000077,-217,-66,64076,-161,-69,16189*d3a7f5ba
%RAWIMUSA,2124,294036.728;2124,294036.727755000,00000077,-155,-13,64140,-134,-64,16176*a241205f
%RAWIMUSA,2124,294036.738;2124,294036.737755000,00000077,-236,-88,64114,-159,-61,16170*73c71632
%RAWIMUSA,2124,294036.748;2124,294036.747755000,00000077,-232,-22,64162,-152,-78,16184*07fdd4fc
%RAWIMUSA,2124,294036.758;2124,294036.757755000,00000077,-203,-174,64130,-135,-63,16170*5bf58794
%RAWIMUSA,2124,294036.768;2124,294036.767755000,00000077,-262,-144,64167,-150,-58,16177*cf0d35dd
%RAWIMUSA,2124,294036.778;2124,294036.777755000,00000077,-205,13,64154,-146,-68,16164*4c8e795e
%RAWIMUSA,2124,294036.788;2124,294036.787755000,00000077,-234,-132,64044,-151,-61,16161*c5b0aab6
%RAWIMUSA,2124,294036.798;2124,294036.797755000,00000077,-183,86,64163,-145,-54,16166*a053502a
%RAWIMUSA,2124,294036.808;2124,294036.807755000,00000077,-190,26,64016,-157,-57,16176*488e8df7
%RAWIMUSA,2124,294036.818;2124,294036.817755000,00000077,-187,7,64111,-144,-59,16166*2f95879c
%RAWIMUSA,2124,294036.828;2124,294036.827755000,00000077,-185,18,64130,-162,-62,16149*0d3412c9
%RAWIMUSA,2124,294036.838;2124,294036.837755000,00000077,-276,-59,64105,-149,-72,16164*f06abbc2
%RAWIMUSA,2124,294036.848;2124,294036.847755000,00000077,-197,10,64161,-143,-48,16161*b7b9284b
%RAWIMUSA,2124,294036.858;2124,294036.857755000,00000077,-313,-120,64235,-142,-61,16175*87ccfc57
%RAWIMUSA,2124,294036.868;2124,294036.867755000,00000077,-138,62,64124,-146,-72,16173*a051df75
%RAWIMUSA,2124,294036.878;2124,294036.877755000,00000077,-263,27,64196,-156,-63,16189*e1b24946
%RAWIMUSA,2124,294036.888;2124,294036.887755000,00000077,-225,-78,64121,-143,-55,16181*23fb5c63
%RAWIMUSA,2124,294036.898;2124,294036.897755000,00000077,-157,-44,64103,-135,-72,16178*fa00b0d9
%RAWIMUSA,2124,294036.908;2124,294036.907755000,00000077,-132,-42,64093,-152,-57,16187*28958775
%RAWIMUSA,2124,294036.918;2124,294036.917755000,00000077,-205,7,64120,-150,-60,16167*5bbec961
%RAWIMUSA,2124,294036.928;2124,294036.927755000,00000077,-242,-42,64241,-166,-70,16162*b5eca9d4
%RAWIMUSA,2124,294036.938;2124,294036.937755000,00000077,-206,13,64051,-159,-57,16169*f277baf5
%RAWIMUSA,2124,294036.948;2124,294036.947755000,00000077,-231,18,64119,-157,-66,16158*970a03ea
%RAWIMUSA,2124,294036.958;2124,294036.957755000,00000077,-271,-39,64117,-151,-62,16165*79974543
%RAWIMUSA,2124,294036.968;2124,294036.967755000,00000077,-273,-32,64053,-150,-70,16165*74683479
%RAWIMUSA,2124,294036.978;2124,294036.977755000,00000077,-120,-69,64149,-150,-77,16156*4236f465
%RAWIMUSA,2124,294036.988;2124,294036.987755000,00000077,-154,-26,64124,-142,-54,16173*82c2395a
%RAWIMUSA,2124,294036.998;2124,294036.997755000,00000077,-163,-5,64085,-163,-51,16175*c35db260
%RAWIMUSA,2124,294037.008;2124,294037.007755000,00000077,-211,-35,64185,-149,-65,16176*97277410
%RAWIMUSA,2124,294037.018;2124,294037.017755000,00000077,-162,-49,64048,-154,-71,16189*13192c0c
%RAWIMUSA,2124,294037.028;2124,294037.027755000,00000077,-288,-31,64095,-141,-81,16195*9250b470
%RAWIMUSA,2124,294037.038;2124,294037.037755000,00000077,-180,18,64085,-148,-48,16166*ea895b75
%RAWIMUSA,2124,294037.048;2124,294037.047755000,00000077,-193,-20,64140,-135,-53,16182*898b5122
%RAWIMUSA,2124,294037.058;2124,294037.057755000,00000077,-184,-65,64149,-153,-64,16176*5cf58669
%RAWIMUSA,2124,294037.068;2124,294037.067755000,00000077,-293,-2,64121,-133,-62,16173*94c2a3ef
%RAWIMUSA,2124,294037.078;2124,294037.077755000,00000077,-188,26,64002,-132,-62,16180*f615b819
%RAWIMUSA,2124,294037.088;2124,294037.087755000,00000077,-140,-39,64107,-158,-59,16173*8f377b67
%RAWIMUSA,2124,294037.098;2124,294037.097755000,00000077,-263,-43,64156,-133,-63,16169*3f2d6ee6
%RAWIMUSA,2124,294037.108;2124,294037.107755000,00000077,-142,51,64077,-154,-52,16165*32e608b0
%RAWIMUSA,2124,294037.118;2124,294037.117755000,00000077,-195,-80,64129,-159,-82,16169*9c565eda
%RAWIMUSA,2124,294037.128;2124,294037.127755000,00000077,-168,8,64163,-159,-70,16175*cd8ac232
%RAWIMUSA,2124,294037.138;2124,294037.137755000,00000077,-279,-26,64134,-155,-58,16178*a63b307a
%RAWIMUSA,2124,294037.148;2124,294037.147755000,00000077,-257,-43,64200,-148,-72,16172*217c2d44
%RAWIMUSA,2124,294037.158;2124,294037.157755000,00000077,-276,31,64126,-144,-60,16170*637b3c70
%RAWIMUSA,2124,294037.168;2124,294037.167755000,00000077,-250,4,64153,-167,-56,16162*22a8bdbe
%RAWIMUSA,2124,294037.178;2124,294037.177755000,00000077,-265,-1,64196,-157,-64,16161*38c17193
%RAWIMUSA,2124,294037.188;2124,294037.187755000,00000077,-247,-58,64151,-156,-57,16176*c850f129
%RAWIMUSA,2124,294037.198;2124,294037.197755000,00000077,-169,-85,64149,-133,-66,16174*81deb84c
%RAWIMUSA,2124,294037.208;2124,294037.207755000,00000077,-246,53,64155,-158,-64,16161*42276381
%RAWIMUSA,2124,294037.218;2124,294037.217755000,00000077,-286,-55,64143,-156,-68,16157*63a0df25
%RAWIMUSA,2124,294037.228;2124,294037.227755000,00000077,-283,-26,64164,-146,-60,16188*0f28712f
%RAWIMUSA,2124,294037.238;2124,294037.237755000,00000077,-143,30,64087,-140,-63,16176*e3c2c63f
%RAWIMUSA,2124,294037.248;2124,294037.247755000,00000077,-150,27,64151,-153,-58,16168*01257223
%RAWIMUSA,2124,294037.258;2124,294037.257755000,00000077,-159,-85,64124,-143,-73,16165*e6d56f48
%RAWIMUSA,2124,294037.268;2124,294037.267755000,00000077,-287,-108,64108,-150,-66,16164*2c15e671
%RAWIMUSA,2124,294037.278;2124,294037.277755000,00000077,-185,15,64153,-154,-60,16196*6dda8756
%RAWIMUSA,2124,294037.288;2124,294037.287755000,00000077,-152,-21,64160,-158,-64,16180*c3bd0765
%RAWIMUSA,2124,294037.298;2124,294037.297755000,00000077,-140,-89,64117,-107,-59,16193*6ca7810d
%RAWIMUSA,2124,294037.308;2124,294037.307755000,00000077,-280,-173,64091,-170,-71,16185*4125c4ad
%RAWIMUSA,2124,294037.318;2124,294037.317755000,00000077,-159,-68,64146,-132,-48,16184*5c4f225c
%RAWIMUSA,2124,294037.328;2124,294037.327755000,00000077,-188,-157,64084,-170,-70,16196*f27ac06b
%RAWIMUSA,2124,294037.338;2124,294037.337755000,00000077,-171,-80,64150,-108,-50,16189*3328f7db
%RAWIMUSA,2124,294037.348;2124,294037.347755000,00000077,-256,-82,64076,-187,-65,16173*f1fb4098
%RAWIMUSA,2124,294037.358;2124,294037.357755000,00000077,-210,-142,64089,-129,-66,16166*202a1db6
%RAWIMUSA,2124,294037.368;2124,294037.367755000,00000077,-170,5,64215,-176,-54,16152*33e2a150
%RAWIMUSA,2124,294037.378;2124,294037.377755000,00000077,-230,-13,64182,-132,-59,16176*70a1f7f0
%RAWIMUSA,2124,294037.388;2124,294037.387755000,00000077,-240,-127,64125,-189,-61,16163*25d8de54
%RAWIMUSA,2124,294037.398;2124,294037.397755000,00000077,-247,-47,64168,-112,-48,16163*66a64ec9
%RAWIMUSA,2124,294037.408;2124,294037.407755000,00000077,-180,102,64226,-176,-68,16179*4a5a2183
%RAWIMUSA,2124,294037.418;2124,294037.417755000,00000077,-153,-13,64133,-126,-71,16179*d25ba1ee
%RAWIMUSA,2124,294037.428;2124,294037.427755000,00000077,-107,-54,64093,-192,-59,16173*55f3641c
%RAWIMUSA,2124,294037.438;2124,294037.437755000,00000077,-205,45,64103,-130,-74,16179*88cd448a
%RAWIMUSA,2124,294037.448;2124,294037.447755000,00000077,-216,-21,64118,-182,-52,16180*a39b7337
%RAWIMUSA,2124,294037.458;2124,294037.457755000,00000077,-154,70,64167,-115,-70,16185*2341a8df
%RAWIMUSA,2124,294037.468;2124,294037.467755000,00000077,-167,-83,64250,-185,-69,16191*05542c93
%RAWIMUSA,2124,294037.478;2124,294037.477755000,00000077,-110,10,64097,-137,-55,16175*5d756178
%RAWIMUSA,2124,294037.488;2124,294037.487755000,00000077,-210,-101,64194,-161,-50,16178*7de37cd1
%RAWIMUSA,2124,294037.498;2124,294037.497755000,00000077,-233,-13,64020,-130,-80,16165*2428db89
%RAWIMUSA,2124,294037.508;2124,294037.507755000,00000077,-192,-105,64184,-161,-56,16172*cb9d29ca
%RAWIMUSA,2124,294037.518;2124,294037.517755000,00000077,-208,6,64087,-149,-59,16165*98c74846
%RAWIMUSA,2124,294037.528;2124,294037.527755000,00000077,-273,-93,64055,-146,-63,16177*bdb941b2
%RAWIMUSA,2124,294037.538;2124,294037.537755000,00000077,-324,-67,64048,-157,-67,16183*d81478cc
%RAWIMUSA,2124,294037.548;2124,294037.547755000,00000077,-179,-99,64103,-147,-55,16179*7fae79c7
%RAWIMUSA,2124,294037.558;2124,294037.557755000,00000077,-107,51,64157,-153,-61,16171*4a508111
%RAWIMUSA,2124,294037.568;2124,294037.567755000,00000077,-267,-74,64204,-141,-61,16185*1e022a02
%RAWIMUSA,2124,294037.578;2124,294037.577755000,00000077,-238,101,64092,-160,-79,16179*3792066f
%RAWIMUSA,2124,294037.588;2124,294037.587755000,00000077,-211,-201,64198,-153,-42,16183*876cdf44
%RAWIMUSA,2124,294037.598;2124,294037.597755000,00000077,-246,113,64067,-146,-54,16171*2e70893f
%RAWIMUSA,2124,294037.608;2124,294037.607755000,00000077,-179,-83,64108,-128,-70,16172*39ca3424
%RAWIMUSA,2124,294037.618;2124,294037.617755000,00000077,-209,15,63971,-170,-41,16171*d4220312
%RAWIMUSA,2124,294037.628;2124,294037.627755000,00000077,-254,-81,64172,-144,-58,16170*8daacbf0
%RAWIMUSA,2124,294037.638;2124,294037.637755000,00000077,-269,27,64167,-162,-48,16164*4de42dca
%RAWIMUSA,2124,294037.648;2124,294037.647755000,00000077,-169,-144,64157,-133,-59,16175*809ab9e8
%RAWIMUSA,2124,294037.658;2124,294037.657755000,00000077,-251,-55,64089,-156,-70,16167*6c14f228
%RAWIMUSA,2124,294037.668;2124,294037.667755000,00000077,-182,-6,64126,-131,-72,16167*da95da51
%RAWIMUSA,2124,294037.678;2124,294037.677755000,00000077,-136,-85,64170,-183,-70,16156*a52b5dee
%RAWIMUSA,2124,294037.688;2124,294037.687755000,00000077,-190,-26,64077,-115,-58,16174*2328868c
%RAWIMUSA,2124,294037.698;2124,294037.697755000,00000077,-261,-71,64189,-167,-64,16174*7d09edc8
%RAWIMUSA,2124,294037.708;2124,294037.707755000,00000077,-168,-23,64149,-130,-76,16158*a2c57da6
%RAWIMUSA,2124,294037.718;2124,294037.717755000,00000077,-225,17,64139,-169,-67,16185*1dd83cb4
%RAWIMUSA,2124,294037.728;2124,294037.727755000,00000077,-202,-21,64217,-122,-69,16184*7a7c3b9d
%RAWIMUSA,2124,294037.738;2124,294037.737755000,00000077,-153,-49,64085,-169,-56,16177*58829393
%RAWIMUSA,2124,294037.748;2124,294037.747755000,00000077,-232,94,64129,-126,-56,16163*1d6d9016
%RAWIMUSA,2124,294037.758;2124,294037.757755000,00000077,-168,-189,64146,-166,-57,16184*c195fbe4
%RAWIMUSA,2124,294037.768;2124,294037.767755000,00000077,-192,-71,64225,-136,-55,16179*e7ea703d
%RAWIMUSA,2124,294037.778;2124,294037.777755000,00000077,-164,-131,64088,-171,-77,16158*055ada0f
%RAWIMUSA,2124,294037.788;2124,294037.787755000,00000077,-279,-27,64147,-138,-54,16175*6375405b
%RAWIMUSA,2124,294037.798;2124,294037.797755000,00000077,-173,-79,64076,-155,-59,16165*065ab343
%RAWIMUSA,2124,294037.808;2124,294037.807755000,00000077,-173,92,64125,-150,-67,16179*90d00921
%RAWIMUSA,2124,294037.818;2124,294037.817755000,00000077,-273,-13,64101,-143,-69,16165*9bd4c2f5
%RAWIMUSA,2124,294037.828;2124,294037.827755000,00000077,-165,-6,64037,-163,-61,16170*1268e7e6
%RAWIMUSA,2124,294037.838;2124,294037.837755000,00000077,-194,-86,64135,-142,-54,16193*5b43bfe3
%RAWIMUSA,2124,294037.848;2124,294037.847755000,00000077,-248,-14,64083,-160,-61,16177*0bc5cce7
%RAWIMUSA,2124,294037.858;2124,294037.857755000,00000077,-191,23,64205,-119,-47,16171*59439e57
%RAWIMUSA,2124,294037.868;2124,294037.867755000,00000077,-265,-100,64123,-163,-37,16167*35af5ff6
%RAWIMUSA,2124,294037.878;2124,294037.877755000,00000077,-164,-62,64059,-120,-55,16176*0d6417e2
%RAWIMUSA,2124,294037.888;2124,294037.887755000,00000077,-173,33,64027,-180,-61,16168*69609bf2
%RAWIMUSA,2124,294037.898;2124,294037.897755000,00000077,-207,-69,64182,-124,-55,16158*827067ec
%RAWIMUSA,2124,294037.908;2124,294037.907755000,00000077,-193,-41,64151,-183,-51,16165*95248421
%RAWIMUSA,2124,294037.918;2124,294037.917755000,00000077,-184,-65,64109,-122,-56,16177*3520ef97
%RAWIMUSA,2124,294037.928;2124,294037.927755000,00000077,-208,-35,64252,-162,-71,16150*3795832a
%RAWIMUSA,2124,294037.938;2124,294037.937755000,00000077,-199,-27,64035,-133,-55,16169*101ee99b
%RAWIMUSA,2124,294037.948;2124,294037.947755000,00000077,-137,-49,64043,-157,-68,16177*d3606ae3
%RAWIMUSA,2124,294037.958;2124,294037.957755000,00000077,-232,13,64118,-146,-65,16158*2117204c
%RAWIMUSA,2124,294037.968;2124,294037.967755000,00000077,-174,-126,64148,-129,-59,16173*fb2b5e96
%RAWIMUSA,2124,294037.978;2124,294037.977755000,00000077,-272,-6,64134,-159,-55,16174*c70406c0
%RAWIMUSA,2124,294037.988;2124,294037.987755000,00000077,-203,-35,64213,-126,-69,16186*3b6ae0b7
%RAWIMUSA,2124,294037.998;2124,294037.997755000,00000077,-216,-75,64155,-175,-65,16181*3363761a
%RAWIMUSA,2124,294038.008;2124,294038.007755000,00000077,-238,-39,64091,-149,-59,16185*227ad102
%RAWIMUSA,2124,294038.018;2124,294038.017755000,00000077,-254,-60,64162,-160,-67,16181*a3a376e2
%RAWIMUSA,2124,294038.028;2124,294038.027755000,00000077,-186,13,64184,-150,-54,16175*7073d958
%RAWIMUSA,2124,294038.038;2124,294038.037755000,00000077,-247,-66,64205,-127,-62,16169*660b2f51
%RAWIMUSA,2124,294038.048;2124,294038.047755000,00000077,-201,24,64135,-162,-60,16160*b57d38ff
%RAWIMUSA,2124,294038.058;2124,294038.057755000,00000077,-221,-129,64186,-135,-60,16166*fbef9117
%RAWIMUSA,2124,294038.068;2124,294038.067755000,00000077,-197,-40,64302,-160,-61,16177*1fc3867f
%RAWIMUSA,2124,294038.078;2124,294038.077755000,00000077,-93,-58,64059,-151,-62,16157*ac813316
%RAWIMUSA,2124,294038.088;2124,294038.087755000,00000077,-295,-72,64202,-152,-54,16182*3a986941
%RAWIMUSA,2124,294038.098;2124,294038.097755000,00000077,-139,-64,64137,-164,-48,16180*3143ac64
%RAWIMUSA,2124,294038.108;2124,294038.107755000,00000077,-134,-39,64158,-162,-56,16178*8ad77520
%RAWIMUSA,2124,294038.118;2124,294038.117755000,00000077,-191,-148,64106,-143,-51,16178*af200d5f
%RAWIMUSA,2124,294038.128;2124,294038.127755000,00000077,-166,-48,64149,-147,-52,16175*bc0941f6
%RAWIMUSA,2124,294038.138;2124,294038.137755000,00000077,-151,-100,64055,-156,-75,16155*81142160
%RAWIMUSA,2124,294038.148;2124,294038.147755000,00000077,-196,12,64134,-147,-60,16168*7a8c4bc5
%RAWIMUSA,2124,294038.158;2124,294038.157755000,00000077,-147,-94,64203,-159,-73,16169*051e1ee6
%RAWIMUSA,2124,294038.168;2124,294038.167755000,00000077,-243,-61,64083,-145,-56,16169*38e5d3f3
%RAWIMUSA,2124,294038.178;2124,294038.177755000,00000077,-307,-75,64206,-144,-62,16161*a0954611
%RAWIMUSA,2124,294038.188;2124,294038.187755000,00000077,-196,3,64057,-145,-46,16160*ac166b56
%RAWIMUSA,2124,294038.198;2124,294038.197755000,00000077,-267,2,64073,-144,-61,16166*5b2e1263
%RAWIMUSA,2124,294038.208;2124,294038.207755000,00000077,-133,-29,64111,-152,-53,16168*5755444f
%RAWIMUSA,2124,294038.218;2124,294038.217755000,00000077,-144,63,64172,-158,-80,16170*2b72ebe6
%RAWIMUSA,2124,294038.228;2124,294038.227755000,00000077,-184,8,64143,-150,-50,16170*12651be4
%RAWIMUSA,2124,294038.238;2124,294038.237755000,00000077,-195,0,64080,-144,-62,16174*37502ac2
%RAWIMUSA,2124,294038.248;2124,294038.247755000,00000077,-247,-19,64157,-145,-64,16198*62b11e8c
%RAWIMUSA,2124,294038.258;2124,294038.257755000,00000077,-175,-95,64096,-137,-65,16181*244675a6
%RAWIMUSA,2124,294038.268;2124,294038.267755000,00000077,-191,1,64192,-154,-63,16173*1448a6d9
%RAWIMUSA,2124,294038.278;2124,294038.277755000,00000077,-211,-66,64108,-157,-69,16173*63d47ac2
%RAWIMUSA,2124,294038.288;2124,294038.287755000,00000077,-183,-13,64175,-140,-55,16188*9f0874a7
%RAWIMUSA,2124,294038.298;2124,294038.297755000,00000077,-181,-31,64163,-146,-58,16170*a458d9c1
%RAWIMUSA,2124,294038.308;2124,294038.307755000,00000077,-225,-35,64101,-139,-66,16176*a162c6e0
%RAWIMUSA,2124,294038.318;2124,294038.317755000,00000077,-201,-115,64159,-143,-52,16170*35c40bb2
%RAWIMUSA,2124,294038.328;2124,294038.327755000,00000077,-238,24,64197,-153,-70,16164*95d15571
%RAWIMUSA,2124,294038.338;2124,294038.337755000,00000077,-207,-61,64144,-165,-60,16149*a74aa5e7
%RAWIMUSA,2124,294038.348;2124,294038.347755000,00000077,-226,-48,64016,-149,-50,16151*90f74d32
%RAWIMUSA,2124,294038.358;2124,294038.357755000,00000077,-216,0,64087,-157,-61,16140*329e8cf3
%RAWIMUSA,2124,294038.368;2124,294038.367755000,00000077,-84,-35,64062,-147,-58,16151*3f8f226e
%RAWIMUSA,2124,294038.378;2124,294038.377755000,00000077,-212,-18,64168,-164,-52,16152*1efdb0a9
%RAWIMUSA,2124,294038.388;2124,294038.387755000,00000077,-235,62,64147,-157,-60,16175*25630723
%RAWIMUSA,2124,294038.398;2124,294038.397755000,00000077,-252,34,64127,-148,-53,16162*6390fa23
%RAWIMUSA,2124,294038.408;2124,294038.407755000,00000077,-236,-14,64130,-159,-55,16174*2fdddeaa
%RAWIMUSA,2124,294038.418;2124,294038.417755000,00000077,-152,-57,64199,-150,-67,16187*28bbcb43
%RAWIMUSA,2124,294038.428;2124,294038.427755000,00000077,-204,-44,64133,-150,-54,16184*12d2ad3f
%RAWIMUSA,2124,294038.438;2124,294038.437755000,00000077,-144,-73,64167,-155,-43,16176*6ae8e823
%RAWIMUSA,2124,294038.448;2124,294038.447755000,00000077,-246,18,64118,-147,-64,16165*e1a8688f
%RAWIMUSA,2124,294038.458;2124,294038.457755000,00000077,-247,-5,64167,-164,-72,16177*fd62b07d
%RAWIMUSA,2124,294038.468;2124,294038.467755000,00000077,-186,-84,64171,-139,-68,16181*7995537d
%RAWIMUSA,2124,294038.478;2124,294038.477755000,00000077,-236,-46,64195,-132,-55,16167*33ae3852
%RAWIMUSA,2124,294038.488;2124,294038.487755000,00000077,-204,-67,64056,-156,-60,16176*695653c2
%RAWIMUSA,2124,294038.498;2124,294038.497755000,00000077,-135,5,64178,-157,-65,16168*b7edf1ea
%RAWIMUSA,2124,294038.508;2124,294038.507755000,00000077,-165,12,64090,-144,-62,16181*546409db
%RAWIMUSA,2124,294038.518;2124,294038.517755000,00000077,-234,-55,64115,-158,-53,16177*339f06f7
%RAWIMUSA,2124,294038.528;2124,294038.527755000,00000077,-172,16,64152,-154,-64,16174*9b305ba5
%RAWIMUSA,2124,294038.538;2124,294038.537755000,00000077,-197,-40,64023,-160,-57,16173*aec48578
%RAWIMUSA,2124,294038.548;2124,294038.547755000,00000077,-83,-110,64197,-166,-55,16189*715509c4
%RAWIMUSA,2124,294038.558;2124,294038.557755000,00000077,-137,-39,64151,-132,-62,16172*de2ec342
%RAWIMUSA,2124,294038.568;2124,294038.567755000,00000077,-75,-97,64249,-154,-49,16175*49f55f0a
%RAWIMUSA,2124,294038.578;2124,294038.577755000,00000077,-160,-49,64122,-144,-65,16187*ab2fae07
%RAWIMUSA,2124,294038.588;2124,294038.587755000,00000077,-306,-112,64148,-153,-71,16169*47f6fc10
%RAWIMUSA,2124,294038.598;2124,294038.597755000,00000077,-238,56,64229,-139,-71,16174*edd4f3b2
%RAWIMUSA,2124,294038.608;2124,294038.607755000,00000077,-154,34,64181,-140,-65,16174*929116f0
%RAWIMUSA,2124,294038.618;2124,294038.617755000,00000077,-219,7,64148,-142,-54,16148*ef9a4108
%RAWIMUSA,2124,294038.628;2124,294038.627755000,00000077,-182,-173,64177,-146,-69,16177*1b4e4e20
%RAWIMUSA,2124,294038.638;2124,294038.637755000,00000077,-136,-74,64140,-145,-72,16164*1b5b27be
%RAWIMUSA,2124,294038.648;2124,294038.647755000,00000077,-130,-92,64125,-146,-60,16185*e04eb54c
%RAWIMUSA,2124,294038.658;2124,294038.657755000,00000077,-301,-30,64132,-152,-72,16170*b0fd09f8
%RAWIMUSA,2124,294038.668;2124,294038.667755000,00000077,-226,-28,64187,-139,-45,16175*e470f114
%RAWIMUSA,2124,294038.678;2124,294038.677755000,00000077,-286,-12,64156,-133,-53,16178*ac648506
%RAWIMUSA,2124,294038.688;2124,294038.687755000,00000077,-46,-49,64192,-151,-63,16175*06f53a73
%RAWIMUSA,2124,294038.698;2124,294038.697755000,00000077,-130,-75,64100,-160,-60,16176*175f02fc
%RAWIMUSA,2124,294038.708;2124,294038.707755000,00000077,-223,-25,64094,-142,-63,16187*a3ec7c7d
%RAWIMUSA,2124,294038.718;2124,294038.717755000,00000077,-219,-70,64158,-151,-78,16184*31fcc89b
%RAWIMUSA,2124,294038.728;2124,294038.727755000,00000077,-99,-50,64162,-152,-80,16182*988fe607
%RAWIMUSA,2124,294038.738;2124,294038.737755000,00000077,-190,-73,64135,-161,-75,16163*b1a80263
%RAWIMUSA,2124,294038.748;2124,294038.747755000,00000077,-227,-42,64230,-157,-64,16146*f16c7919
%RAWIMUSA,2124,294038.758;2124,294038.757755000,00000077,-180,11,64110,-152,-53,16155*92591cac
%RAWIMUSA,2124,294038.768;2124,294038.767755000,00000077,-357,3,64194,-148,-82,16149*aa8b23d0
%RAWIMUSA,2124,294038.778;2124,294038.777755000,00000077,-133,15,64053,-163,-74,16157*7eb0780f
%RAWIMUSA,2124,294038.788;2124,294038.787755000,00000077,-235,-50,64123,-139,-65,16166*a060c20d
%RAWIMUSA,2124,294038.798;2124,294038.797755000,00000077,-209,-16,64170,-147,-74,16166*b67b5fdb
%RAWIMUSA,2124,294038.808;2124,294038.807755000,00000077,-186,-93,64181,-138,-64,16165*7931bbe1
%RAWIMUSA,2124,294038.818;2124,294038.817755000,00000077,-289,18,64134,-146,-61,16171*28e2ef42
%RAWIMUSA,2124,294038.828;2124,294038.827755000,00000077,-159,-35,64229,-163,-63,16171*1e34e43e
%RAWIMUSA,2124,294038.838;2124,294038.837755000,00000077,-173,-37,64191,-143,-73,16169*8f9b6d13
%RAWIMUSA,2124,294038.848;2124,294038.847755000,00000077,-127,55,64258,-154,-58,16176*9a002862
%RAWIMUSA,2124,294038.858;2124,294038.857755000,00000077,-239,-84,64119,-135,-59,16194*61ac3e33
%RAWIMUSA,2124,294038.868;2124,294038.867755000,00000077,-264,-67,64158,-145,-41,16178*a91c1d98
%RAWIMUSA,2124,294038.878;2124,294038.877755000,00000077,-200,-140,64133,-150,-75,16171*5e1660d8
%RAWIMUSA,2124,294038.888;2124,294038.887755000,00000077,-174,-56,64208,-161,-52,16151*d17e0eca
%RAWIMUSA,2124,294038.898;2124,294038.897755000,00000077,-163,-127,64177,-145,-55,16141*6c6f2963
%RAWIMUSA,2124,294038.908;2124,294038.907755000,00000077,-172,-15,64180,-154,-69,16144*ec97f0be
%RAWIMUSA,2124,294038.918;2124,294038.917755000,00000077,-122,14,64221,-140,-52,16146*eb398f65
%RAWIMUSA,2124,294038.928;2124,294038.927755000,00000077,-152,-14,64186,-160,-59,16175*1340cdae
%RAWIMUSA,2124,294038.938;2124,294038.937755000,00000077,-193,-88,64123,-162,-54,16184*912d5daa
%RAWIMUSA,2124,294038.948;2124,294038.947755000,00000077,-231,-101,64128,-141,-69,16175*ad4f5c20
%RAWIMUSA,2124,294038.958;2124,294038.957755000,00000077,-281,-84,64116,-139,-48,16174*87b9fad6
%RAWIMUSA,2124,294038.968;2124,294038.967755000,00000077,-189,20,64188,-154,-60,16198*edff798d
%RAWIMUSA,2124,294038.978;2124,294038.977755000,00000077,-244,-82,64170,-150,-68,16180*4a937480
%RAWIMUSA,2124,294038.988;2124,294038.987755000,00000077,-251,-109,64117,-143,-60,16173*dba6079f
%RAWIMUSA,2124,294038.998;2124,294038.997755000,00000077,-300,134,64046,-160,-64,16165*f02f225a
%RAWIMUSA,2124,294039.008;2124,294039.007755000,00000077,-272,-66,64119,-155,-56,16175*130befc3
%RAWIMUSA,2124,294039.018;2124,294039.017755000,00000077,-252,-41,64072,-154,-54,16170*4b504563
%RAWIMUSA,2124,294039.028;2124,294039.027755000,00000077,-102,-64,64266,-141,-62,16170*fbec8a11
%RAWIMUSA,2124,294039.038;2124,294039.037755000,00000077,-152,-64,64101,-149,-53,16175*9ff1102e
%RAWIMUSA,2124,294039.048;2124,294039.047755000,00000077,-76,-3,64223,-164,-60,16157*267445ae
%RAWIMUSA,2124,294039.058;2124,294039.057755000,00000077,-293,6,64197,-143,-61,16168*c8a15d6e
%RAWIMUSA,2124,294039.068;2124,294039.067755000,00000077,-191,-37,64213,-158,-68,16182*970e3bdb
%RAWIMUSA,2124,294039.078;2124,294039.077755000,00000077,-267,0,64192,-149,-58,16170*c2eb44d8
