%RAWIMUSA,2124,293953.138;2124,293953.137755000,00000077,-235,-136,64095,0,11,19*83286abb
%RAWIMUSA,2124,293953.148;2124,293953.147755000,00000077,-228,-106,64168,-21,7,4*f008b36f
%RAWIMUSA,2124,293953.158;2124,293953.157755000,00000077,-129,24,64192,5,-6,6*bceb77d0
%RAWIMUSA,2124,293953.168;2124,293953.167755000,00000077,-109,-76,64198,-18,8,5*c62c61c4
%RAWIMUSA,2124,293953.178;2124,293953.177755000,00000077,-157,-122,64141,-1,23,4*1a1fa6d3
%RAWIMUSA,2124,293953.188;2124,293953.187755000,00000077,-166,63,64278,-23,14,0*49e3e5c6
%RAWIMUSA,2124,293953.198;2124,293953.197755000,00000077,-159,-64,64112,9,1,7*b9de436e
%RAWIMUSA,2124,293953.208;2124,293953.207755000,00000077,-82,7,64119,-26,10,4*eba93bf7
%RAWIMUSA,2124,293953.218;2124,293953.217755000,00000077,-160,-121,64141,7,34,-8*84bce32c
%RAWIMUSA,2124,293953.228;2124,293953.227755000,00000077,-210,-8,64183,-32,-12,-1*395794a6
%RAWIMUSA,2124,293953.238;2124,293953.237755000,00000077,-134,-13,64093,24,6,5*d3098c92
%RAWIMUSA,2124,293953.248;2124,293953.247755000,00000077,-74,-36,64113,-52,10,11*f596a022
%RAWIMUSA,2124,293953.258;2124,293953.257755000,00000077,-164,-9,64147,17,5,14*677ba86b
%RAWIMUSA,2124,293953.268;2124,293953.267755000,00000077,-234,-8,64061,-40,0,-12*24957bdf
%RAWIMUSA,2124,293953.278;2124,293953.277755000,00000077,-176,-81,64258,12,3,7*9f48c622
%RAWIMUSA,2124,293953.288;2124,293953.287755000,00000077,-134,12,64047,-31,16,-8*1631b1eb
%RAWIMUSA,2124,293953.298;2124,293953.297755000,00000077,-144,-44,64161,5,0,11*086b8247
%RAWIMUSA,2124,293953.308;2124,293953.307755000,00000077,-267,-6,64165,-28,5,-4*3b45cd04
%RAWIMUSA,2124,293953.318;2124,293953.317755000,00000077,-180,-154,64083,15,10,5*6746b437
%RAWIMUSA,2124,293953.328;2124,293953.327755000,00000077,-156,-44,64126,-29,10,14*017f1570
%RAWIMUSA,2124,293953.338;2124,293953.337755000,00000077,-174,23,64137,10,20,2*dcf99883
%RAWIMUSA,2124,293953.348;2124,293953.347755000,00000077,-194,-79,64090,-17,-4,8*970fa86a
%RAWIMUSA,2124,293953.358;2124,293953.357755000,00000077,-135,37,64094,39,-4,2*1e5b9e9d
%RAWIMUSA,2124,293953.368;2124,293953.367755000,00000077,-71,-96,64124,-30,4,6*f2c81b3d
%RAWIMUSA,2124,293953.378;2124,293953.377755000,00000077,-179,7,64107,19,8,12*86fa2092
%RAWIMUSA,2124,293953.388;2124,293953.387755000,00000077,-298,-98,64108,-24,-1,3*db6e1832
%RAWIMUSA,2124,293953.398;2124,293953.397755000,00000077,-264,-165,64109,22,3,4*0d28c1b5
%RAWIMUSA,2124,293953.408;2124,293953.407755000,00000077,-69,-64,64174,-28,7,2*bad4df90
%RAWIMUSA,2124,293953.418;2124,293953.417755000,00000077,-209,-98,64124,2,12,5*ff4600c7
%RAWIMUSA,2124,293953.428;2124,293953.427755000,00000077,-302,-164,64079,-49,-2,7*221888b0
%RAWIMUSA,2124,293953.438;2124,293953.437755000,00000077,-185,-24,64119,-1,-20,10*7228574d
%RAWIMUSA,2124,293953.448;2124,293953.447755000,00000077,-156,-128,64138,-34,3,5*b4c14bd6
%RAWIMUSA,2124,293953.458;2124,293953.457755000,00000077,-302,72,64159,21,-6,-11*4b915ed5
%RAWIMUSA,2124,293953.468;2124,293953.467755000,00000077,-285,-131,64144,-10,2,7*3bbcc487
%RAWIMUSA,2124,293953.478;2124,293953.477755000,00000077,-211,6,64200,-9,3,-4*2d1721bd
%RAWIMUSA,2124,293953.488;2124,293953.487755000,00000077,-95,-67,64183,-5,9,12*709fac7b
%RAWIMUSA,2124,293953.498;2124,293953.497755000,00000077,-216,108,64119,-24,21,14*22707128
%RAWIMUSA,2124,293953.508;2124,293953.507755000,00000077,-272,-121,64127,-7,4,1*786ce692
%RAWIMUSA,2124,293953.518;2124,293953.517755000,00000077,-112,64,64119,-15,-8,10*da7f1954
%RAWIMUSA,2124,293953.528;2124,293953.527755000,00000077,-107,-84,64137,-1,0,8*f1c08a56
%RAWIMUSA,2124,293953.538;2124,293953.537755000,00000077,-93,74,64193,-34,7,-12*c0680b2d
%RAWIMUSA,2124,293953.548;2124,293953.547755000,00000077,-261,-109,64157,15,15,4*e7af0204
%RAWIMUSA,2124,293953.558;2124,293953.557755000,00000077,-268,-103,64054,-39,15,7*f7e1c475
%RAWIMUSA,2124,293953.568;2124,293953.567755000,00000077,-157,53,64167,43,-11,12*fc1dc502
%RAWIMUSA,2124,293953.578;2124,293953.577755000,00000077,-159,-66,64145,-48,0,4*a8603a36
%RAWIMUSA,2124,293953.588;2124,293953.587755000,00000077,-181,-67,64114,16,5,5*729a2103
%RAWIMUSA,2124,293953.598;2124,293953.597755000,00000077,-212,-92,64192,-27,9,-1*6e78043a
%RAWIMUSA,2124,293953.608;2124,293953.607755000,00000077,-176,-9,64135,29,2,8*46af62b1
%RAWIMUSA,2124,293953.618;2124,293953.617755000,00000077,-236,-75,64030,-16,0,1*8f34da61
%RAWIMUSA,2124,293953.628;2124,293953.627755000,00000077,-260,31,64162,4,13,2*899369c6
%RAWIMUSA,2124,293953.638;2124,293953.637755000,00000077,-322,-156,64118,-10,6,15*06149217
%RAWIMUSA,2124,293953.648;2124,293953.647755000,00000077,-142,-93,64098,-16,-2,-1*4a92f219
%RAWIMUSA,2124,293953.658;2124,293953.657755000,00000077,-210,-60,64080,15,9,-6*ffc71d44
%RAWIMUSA,2124,293953.668;2124,293953.667755000,00000077,-250,6,64184,-18,9,1*212d3f94
%RAWIMUSA,2124,293953.678;2124,293953.677755000,00000077,-89,-20,64032,18,-7,12*fb457424
%RAWIMUSA,2124,293953.688;2124,293953.687755000,00000077,-177,-9,64078,-24,7,3*22e5d1e7
%RAWIMUSA,2124,293953.698;2124,293953.697755000,00000077,-297,-41,64066,-2,7,2*e192b21c
%RAWIMUSA,2124,293953.708;2124,293953.707755000,00000077,-252,-41,64129,0,-1,9*c938e198
%RAWIMUSA,2124,293953.718;2124,293953.717755000,00000077,-160,-30,64083,-14,-19,9*2d2350ea
%RAWIMUSA,2124,293953.728;2124,293953.727755000,00000077,-241,-10,64165,-6,4,10*ea79715c
%RAWIMUSA,2124,293953.738;2124,293953.737755000,00000077,-230,-96,64129,-8,9,9*e1eb86d5
%RAWIMUSA,2124,293953.748;2124,293953.747755000,00000077,-154,-67,64050,-18,-1,1*9a63e364
%RAWIMUSA,2124,293953.758;2124,293953.757755000,00000077,-114,35,64079,-14,13,4*9ad9dbdd
%RAWIMUSA,2124,293953.768;2124,293953.767755000,00000077,-166,36,64184,-7,1,13*c3d0a49d
%RAWIMUSA,2124,293953.778;2124,293953.777755000,00000077,-233,-62,64183,-10,12,-14*c1bc4f87
%RAWIMUSA,2124,293953.788;2124,293953.787755000,00000077,-175,14,64135,-3,9,6*26431a53
%RAWIMUSA,2124,293953.798;2124,293953.797755000,00000077,-173,-39,64013,-5,10,-6*b92ff07d
%RAWIMUSA,2124,293953.808;2124,293953.807755000,00000077,-203,-58,64094,-14,4,21*33dc49c9
%RAWIMUSA,2124,293953.818;2124,293953.817755000,00000077,-259,63,64222,5,5,0*89e0e4aa
%RAWIMUSA,2124,293953.828;2124,293953.827755000,00000077,-291,63,64088,0,15,1*f88fe32c
%RAWIMUSA,2124,293953.838;2124,293953.837755000,00000077,-204,-36,64123,-1,0,11*448be083
%RAWIMUSA,2124,293953.848;2124,293953.847755000,00000077,-125,0,64151,0,2,0*afec0b7f
%RAWIMUSA,2124,293953.858;2124,293953.857755000,00000077,-156,4,64131,-10,3,2*b6af3891
%RAWIMUSA,2124,293953.868;2124,293953.867755000,00000077,-220,-21,64068,-8,0,8*b2bef02f
%RAWIMUSA,2124,293953.878;2124,293953.877755000,00000077,-246,100,64004,6,8,9*42f0c469
%RAWIMUSA,2124,293953.888;2124,293953.887755000,00000077,-131,-30,64032,-19,15,-5*b3564129
%RAWIMUSA,2124,293953.898;2124,293953.897755000,00000077,-278,-22,64085,-1,3,4*bc504c26
%RAWIMUSA,2124,293953.908;2124,293953.907755000,00000077,-213,-66,64090,-3,11,4*835a3d80
%RAWIMUSA,2124,293953.918;2124,293953.917755000,00000077,-226,-34,64158,2,-9,3*7e9f0644
%RAWIMUSA,2124,293953.928;2124,293953.927755000,00000077,-196,-70,64117,-25,3,1*a85cdf61
%RAWIMUSA,2124,293953.938;2124,293953.937755000,00000077,-205,-108,64064,4,11,3*0002ed44
%RAWIMUSA,2124,293953.948;2124,293953.947755000,00000077,-284,-65,64134,-24,-8,-1*57e47a28
%RAWIMUSA,2124,293953.958;2124,293953.957755000,00000077,-182,20,64050,-23,16,2*c3487fee
%RAWIMUSA,2124,293953.968;2124,293953.967755000,00000077,-175,-95,64064,-1,14,0*86a2807c
%RAWIMUSA,2124,293953.978;2124,293953.977755000,00000077,-295,-12,64113,-4,0,4*557bc7e4
%RAWIMUSA,2124,293953.988;2124,293953.987755000,00000077,-248,-33,64169,-2,0,12*301575b5
%RAWIMUSA,2124,293953.998;2124,293953.997755000,00000077,-259,-23,64109,-6,-8,0*a0986525
%RAWIMUSA,2124,293954.008;2124,293954.007755000,00000077,-184,-4,64081,-6,1,3*d160ce5d
%RAWIMUSA,2124,293954.018;2124,293954.017755000,00000077,-241,-9,64141,2,4,-4*76bcb58b
%RAWIMUSA,2124,293954.028;2124,293954.027755000,00000077,-225,-104,64229,-4,19,9*9b4bbdd0
%RAWIMUSA,2124,293954.038;2124,293954.037755000,00000077,-162,-136,64166,-12,5,7*ac011fc5
%RAWIMUSA,2124,293954.048;2124,293954.047755000,00000077,-245,-73,64067,-6,14,4*1e5634d6
%RAWIMUSA,2124,293954.058;2124,293954.057755000,00000077,-186,-92,64127,10,7,-2*47e4f2d9
%RAWIMUSA,2124,293954.068;2124,293954.067755000,00000077,-174,-103,64049,-9,3,0*c45e172d
%RAWIMUSA,2124,293954.078;2124,293954.077755000,00000077,-228,18,64194,9,-6,3*73542cd5
%RAWIMUSA,2124,293954.088;2124,293954.087755000,00000077,-190,-84,64075,-13,-8,-12*6632bc0a
%RAWIMUSA,2124,293954.098;2124,293954.097755000,00000077,-267,-24,64095,-5,9,11*c24547e2
%RAWIMUSA,2124,293954.108;2124,293954.107755000,00000077,-205,-124,64103,-22,-2,-13*d7de1be8
%RAWIMUSA,2124,293954.118;2124,293954.117755000,00000077,-168,-160,64123,-6,-1,12*297cf4b0
%RAWIMUSA,2124,293954.128;2124,293954.127755000,00000077,-168,-39,64169,-2,-1,12*70576e3d
%RAWIMUSA,2124,293954.138;2124,293954.137755000,00000077,-119,-100,64157,-10,8,12*a9ccc170
%RAWIMUSA,2124,293954.148;2124,293954.147755000,00000077,-167,-20,64131,2,10,-1*7c459066
%RAWIMUSA,2124,293954.158;2124,293954.157755000,00000077,-156,-22,64110,-4,5,8*d1b670f4
%RAWIMUSA,2124,293954.168;2124,293954.167755000,00000077,-201,-38,64076,-25,0,0*51b654af
%RAWIMUSA,2124,293954.178;2124,293954.177755000,00000077,-176,-10,64073,-5,7,12*c20e945e
%RAWIMUSA,2124,293954.188;2124,293954.187755000,00000077,-280,-52,64094,-10,16,7*337975cc
%RAWIMUSA,2124,293954.198;2124,293954.197755000,00000077,-249,-26,64186,-10,-8,9*51e74c44
%RAWIMUSA,2124,293954.208;2124,293954.207755000,00000077,-129,3,64167,0,-12,2*79b9979e
%RAWIMUSA,2124,293954.218;2124,293954.217755000,00000077,-159,-19,64176,-17,7,0*6e2d44aa
%RAWIMUSA,2124,293954.228;2124,293954.227755000,00000077,-165,1,64178,9,-5,8*578d5635
%RAWIMUSA,2124,293954.238;2124,293954.237755000,00000077,-128,-63,64098,-13,-12,3*9f0c1ca6
%RAWIMUSA,2124,293954.248;2124,293954.247755000,00000077,-154,-143,64270,7,12,3*12f7f87b
%RAWIMUSA,2124,293954.258;2124,293954.257755000,00000077,-179,6,64292,-8,15,-4*9ac96b06
%RAWIMUSA,2124,293954.268;2124,293954.267755000,00000077,-286,-72,64170,-21,9,19*d47b2910
%RAWIMUSA,2124,293954.278;2124,293954.277755000,00000077,-240,-81,64165,6,9,11*8e790af1
%RAWIMUSA,2124,293954.288;2124,293954.287755000,00000077,-69,38,64200,-3,6,15*f2c90235
%RAWIMUSA,2124,293954.298;2124,293954.297755000,00000077,-268,39,64180,-16,19,-5*ae3945e6
%RAWIMUSA,2124,293954.308;2124,293954.307755000,00000077,-153,-1,64115,0,18,4*5290b6cc
%RAWIMUSA,2124,293954.318;2124,293954.317755000,00000077,-252,-63,64152,-4,20,-1*84a3a5a8
%RAWIMUSA,2124,293954.328;2124,293954.327755000,00000077,-290,-15,64146,-13,7,5*cfd0e0e3
%RAWIMUSA,2124,293954.338;2124,293954.337755000,00000077,-188,-69,64186,0,9,18*3a201dee
%RAWIMUSA,2124,293954.348;2124,293954.347755000,00000077,-204,-6,64191,-9,3,21*430b33d6
%RAWIMUSA,2124,293954.358;2124,293954.357755000,00000077,-296,5,64059,2,12,2*c8840d3f
%RAWIMUSA,2124,293954.368;2124,293954.367755000,00000077,-273,-71,64244,-5,2,-9*746b30bc
%RAWIMUSA,2124,293954.378;2124,293954.377755000,00000077,-176,38,64075,-5,11,-6*1bb77a19
%RAWIMUSA,2124,293954.388;2124,293954.387755000,00000077,-210,-92,64116,-4,13,14*56d79726
%RAWIMUSA,2124,293954.398;2124,293954.397755000,00000077,-201,41,64063,-10,15,3*16dbf664
%RAWIMUSA,2124,293954.408;2124,293954.407755000,00000077,-131,-38,64131,1,13,-9*a40b62ed
%RAWIMUSA,2124,293954.418;2124,293954.417755000,00000077,-205,5,64177,-16,14,9*adaaa0f4
%RAWIMUSA,2124,293954.428;2124,293954.427755000,00000077,-199,-130,64082,-3,12,16*9af86600
%RAWIMUSA,2124,293954.438;2124,293954.437755000,00000077,-242,-3,64066,0,16,-10*ac3e71f3
%RAWIMUSA,2124,293954.448;2124,293954.447755000,00000077,-270,-60,64182,-14,11,9*ebdabcc8
%RAWIMUSA,2124,293954.458;2124,293954.457755000,00000077,-242,8,64128,-10,4,18*3e784b2c
%RAWIMUSA,2124,293954.468;2124,293954.467755000,00000077,-204,0,64075,-10,8,1*e5ddab5c
%RAWIMUSA,2124,293954.478;2124,293954.477755000,00000077,-162,-72,64161,4,2,1*6c91a03c
%RAWIMUSA,2124,293954.488;2124,293954.487755000,00000077,-271,-23,64033,-13,11,1*0cdc0496
%RAWIMUSA,2124,293954.498;2124,293954.497755000,00000077,-220,-17,64115,-14,0,6*809ffb8a
%RAWIMUSA,2124,293954.508;2124,293954.507755000,00000077,-260,32,64234,-7,4,0*20f31747
%RAWIMUSA,2124,293954.518;2124,293954.517755000,00000077,-201,-7,64100,-19,-1,-12*8d5fd6cb
%RAWIMUSA,2124,293954.528;2124,293954.527755000,00000077,-215,-131,64202,-6,2,-4*ac66f323
%RAWIMUSA,2124,293954.538;2124,293954.537755000,00000077,-163,-128,64236,3,1,10*fe1a364e
%RAWIMUSA,2124,293954.548;2124,293954.547755000,00000077,-180,-120,64120,-13,23,-9*366a3c00
%RAWIMUSA,2124,293954.558;2124,293954.557755000,00000077,-214,-120,64134,-20,2,-6*b3e209c1
%RAWIMUSA,2124,293954.568;2124,293954.567755000,00000077,-149,-88,64108,12,0,7*ffe7d1cd
%RAWIMUSA,2124,293954.578;2124,293954.577755000,00000077,-97,-28,64050,10,9,1*7ad5e012
%RAWIMUSA,2124,293954.588;2124,293954.587755000,00000077,-133,-81,64077,-8,-7,2*af3a628c
%RAWIMUSA,2124,293954.598;2124,293954.597755000,00000077,-255,-1,64170,-15,9,22*7816b422
%RAWIMUSA,2124,293954.608;2124,293954.607755000,00000077,-209,26,64087,3,11,1*af8d4363
%RAWIMUSA,2124,293954.618;2124,293954.617755000,00000077,-110,-28,64153,-1,12,0*e74d24ea
%RAWIMUSA,2124,293954.628;2124,293954.627755000,00000077,-145,-47,64087,-4,13,0*c1c4a93f
%RAWIMUSA,2124,293954.638;2124,293954.637755000,00000077,-169,34,64064,-1,5,-13*a23d3703
%RAWIMUSA,2124,293954.648;2124,293954.647755000,00000077,-223,-14,64186,9,3,-13*4af9ccf2
%RAWIMUSA,2124,293954.658;2124,293954.657755000,00000077,-300,-13,64120,1,5,-6*d0668af0
%RAWIMUSA,2124,293954.668;2124,293954.667755000,00000077,-172,-72,64118,-2,-18,14*96a92d3a
%RAWIMUSA,2124,293954.678;2124,293954.677755000,00000077,-205,-37,64034,11,9,3*83ca015d
%RAWIMUSA,2124,293954.688;2124,293954.687755000,00000077,-125,-106,64108,-4,10,-48*77196307
%RAWIMUSA,2124,293954.698;2124,293954.697755000,00000077,-169,-261,64130,8,4,-106*1409bc11
%RAWIMUSA,2124,293954.708;2124,293954.707755000,00000077,-202,-185,64130,0,11,-297*bcb42186
%RAWIMUSA,2124,293954.718;2124,293954.717755000,00000077,-228,-130,64155,-4,6,-438*f87db302
%RAWIMUSA,2124,293954.728;2124,293954.727755000,00000077,-241,-134,64173,-4,5,-571*245c808c
%RAWIMUSA,2124,293954.738;2124,293954.737755000,00000077,-204,-118,64065,-7,10,-660*4850523c
%RAWIMUSA,2124,293954.748;2124,293954.747755000,00000077,-168,-13,64081,-2,12,-737*7b44d486
%RAWIMUSA,2124,293954.758;2124,293954.757755000,00000077,-228,-175,64076,-4,20,-804*29b7676b
%RAWIMUSA,2124,293954.768;2124,293954.767755000,00000077,-157,-48,64088,6,13,-904*0720b4ae
%RAWIMUSA,2124,293954.778;2124,293954.777755000,00000077,-268,-168,64195,0,9,-931*13975956
%RAWIMUSA,2124,293954.788;2124,293954.787755000,00000077,-159,-170,64141,5,12,-1020*15543727
%RAWIMUSA,2124,293954.798;2124,293954.797755000,00000077,-180,-170,64129,-12,8,-1091*a8b025a6
%RAWIMUSA,2124,293954.808;2124,293954.807755000,00000077,-257,-177,64108,-12,17,-1169*35244a21
%RAWIMUSA,2124,293954.818;2124,293954.817755000,00000077,-258,-133,64162,0,5,-1263*4dcef4c7
%RAWIMUSA,2124,293954.828;2124,293954.827755000,00000077,-278,-171,64043,-6,0,-1343*0ed6db52
%RAWIMUSA,2124,293954.838;2124,293954.837755000,00000077,-224,-148,64172,10,11,-1443*806e4162
%RAWIMUSA,2124,293954.848;2124,293954.847755000,00000077,-169,-7,64229,26,26,-1531*bda26307
%RAWIMUSA,2124,293954.858;2124,293954.857755000,00000077,-161,-82,64231,13,2,-1583*8bc1952a
%RAWIMUSA,2124,293954.868;2124,293954.867755000,00000077,-353,-159,64074,18,9,-1686*215d818d
%RAWIMUSA,2124,293954.878;2124,293954.877755000,00000077,-272,-119,64043,17,27,-1791*13ebafe0
%RAWIMUSA,2124,293954.888;2124,293954.887755000,00000077,-293,-204,64167,13,17,-1833*cec404da
%RAWIMUSA,2124,293954.898;2124,293954.897755000,00000077,-105,-146,64144,12,18,-1941*7f919c9b
%RAWIMUSA,2124,293954.908;2124,293954.907755000,00000077,-174,-113,64125,15,22,-2011*fb67c33f
%RAWIMUSA,2124,293954.918;2124,293954.917755000,00000077,-230,-58,64117,16,14,-2063*eed03a53
%RAWIMUSA,2124,293954.928;2124,293954.927755000,00000077,-240,-124,64184,-4,10,-2186*c47060d6
%RAWIMUSA,2124,293954.938;2124,293954.937755000,00000077,-130,-45,64001,12,10,-2244*45940e87
%RAWIMUSA,2124,293954.948;2124,293954.947755000,00000077,-243,-80,64116,13,15,-2312*64e24f97
%RAWIMUSA,2124,293954.958;2124,293954.957755000,00000077,-190,-101,64080,15,17,-2424*23acf64f
%RAWIMUSA,2124,293954.968;2124,293954.967755000,00000077,-220,-105,64176,12,21,-2472*4cf45276
%RAWIMUSA,2124,293954.978;2124,293954.977755000,00000077,-157,-140,64131,17,32,-2608*3c738472
%RAWIMUSA,2124,293954.988;2124,293954.987755000,00000077,-137,-28,64122,27,27,-2685*1d46d83c
%RAWIMUSA,2124,293954.998;2124,293954.997755000,00000077,-177,-209,64113,22,7,-2722*0bedbfcd
%RAWIMUSA,2124,293955.008;2124,293955.007755000,00000077,-159,-69,64140,10,26,-2803*7e12c44c
%RAWIMUSA,2124,293955.018;2124,293955.017755000,00000077,-169,-164,64087,18,4,-2898*319370f6
%RAWIMUSA,2124,293955.028;2124,293955.027755000,00000077,-248,-99,64214,20,34,-2968*604aeb5b
%RAWIMUSA,2124,293955.038;2124,293955.037755000,00000077,-197,-103,64188,23,33,-3059*0213f0b9
%RAWIMUSA,2124,293955.048;2124,293955.047755000,00000077,-211,-91,64168,29,14,-3118*9c5ced16
%RAWIMUSA,2124,293955.058;2124,293955.057755000,00000077,-187,-126,64234,21,23,-3196*cafcce0e
%RAWIMUSA,2124,293955.068;2124,293955.067755000,00000077,-202,-93,64143,19,17,-3321*fa76e4fd
%RAWIMUSA,2124,293955.078;2124,293955.077755000,00000077,-103,-92,64152,27,22,-3380*f51c10d6
%RAWIMUSA,2124,293955.088;2124,293955.087755000,00000077,-198,-211,63998,33,26,-3478*c4620698
%RAWIMUSA,2124,293955.098;2124,293955.097755000,00000077,-253,-89,64109,37,22,-3556*58754692
%RAWIMUSA,2124,293955.108;2124,293955.107755000,00000077,-222,-115,64150,32,22,-3606*c959a83b
%RAWIMUSA,2124,293955.118;2124,293955.117755000,00000077,-212,-130,64140,43,17,-3704*be263cb9
%RAWIMUSA,2124,293955.128;2124,293955.127755000,00000077,-190,-81,64138,25,21,-3787*73a1137a
%RAWIMUSA,2124,293955.138;2124,293955.137755000,00000077,-149,-96,64142,30,42,-3848*a503a576
%RAWIMUSA,2124,293955.148;2124,293955.147755000,00000077,-246,-140,64138,23,26,-3955*86eb74dd
%RAWIMUSA,2124,293955.158;2124,293955.157755000,00000077,-141,-176,64082,16,14,-4025*de8a25a5
%RAWIMUSA,2124,293955.168;2124,293955.167755000,00000077,-245,-117,64089,37,25,-4075*aa6e7715
%RAWIMUSA,2124,293955.178;2124,293955.177755000,00000077,-254,-127,64113,29,19,-4189*cb44503c
%RAWIMUSA,2124,293955.188;2124,293955.187755000,00000077,-241,-49,64121,38,3,-4249*a118b71c
%RAWIMUSA,2124,293955.198;2124,293955.197755000,00000077,-371,-203,64181,20,29,-4348*84247ee1
%RAWIMUSA,2124,293955.208;2124,293955.207755000,00000077,-232,-33,64190,29,18,-4443*f8667f0a
%RAWIMUSA,2124,293955.218;2124,293955.217755000,00000077,-262,-53,64159,30,5,-4507*e8d1250d
%RAWIMUSA,2124,293955.228;2124,293955.227755000,00000077,-148,-156,64127,16,23,-4565*ef143cac
%RAWIMUSA,2124,293955.238;2124,293955.237755000,00000077,-221,-40,64108,39,19,-4691*7c41ed0a
%RAWIMUSA,2124,293955.248;2124,293955.247755000,00000077,-176,-134,64187,35,29,-4760*56e48d2a
%RAWIMUSA,2124,293955.258;2124,293955.257755000,00000077,-295,-89,64189,42,17,-4842*9de395f3
%RAWIMUSA,2124,293955.268;2124,293955.267755000,00000077,-244,-123,64053,32,23,-4913*54390941
%RAWIMUSA,2124,293955.278;2124,293955.277755000,00000077,-252,-167,64144,43,33,-4965*cda739c0
%RAWIMUSA,2124,293955.288;2124,293955.287755000,00000077,-196,-181,64116,61,31,-5077*5898786c
%RAWIMUSA,2124,293955.298;2124,293955.297755000,00000077,-77,-29,64089,46,36,-5166*5159c893
%RAWIMUSA,2124,293955.308;2124,293955.307755000,00000077,-274,-199,64133,40,36,-5232*4c94b15d
%RAWIMUSA,2124,293955.318;2124,293955.317755000,00000077,-229,-87,64105,37,35,-5339*b70eee96
%RAWIMUSA,2124,293955.328;2124,293955.327755000,00000077,-288,-82,64148,37,14,-5382*2d4847d0
%RAWIMUSA,2124,293955.338;2124,293955.337755000,00000077,-34,-128,64194,44,29,-5485*08e5a683
%RAWIMUSA,2124,293955.348;2124,293955.347755000,00000077,-173,-23,64153,45,38,-5566*6d7f7fdd
%RAWIMUSA,2124,293955.358;2124,293955.357755000,00000077,-232,-5,64080,47,27,-5589*c39cfaaf
%RAWIMUSA,2124,293955.368;2124,293955.367755000,00000077,-122,-106,64209,46,48,-5721*c5dd7344
%RAWIMUSA,2124,293955.378;2124,293955.377755000,00000077,-207,-73,64149,49,27,-5812*7f5b8427
%RAWIMUSA,2124,293955.388;2124,293955.387755000,00000077,-220,-16,64145,50,37,-5886*723c56fa
%RAWIMUSA,2124,293955.398;2124,293955.397755000,00000077,-196,-140,64210,28,37,-5978*4a2f2587
%RAWIMUSA,2124,293955.408;2124,293955.407755000,00000077,-196,-83,64055,38,27,-6025*96480e2c
%RAWIMUSA,2124,293955.418;2124,293955.417755000,00000077,-205,-97,64198,37,14,-6093*7a454824
%RAWIMUSA,2124,293955.428;2124,293955.427755000,00000077,-198,-116,64146,39,44,-6216*fc4fd23b
%RAWIMUSA,2124,293955.438;2124,293955.437755000,00000077,-191,-79,64236,46,24,-6279*87d7e5e5
%RAWIMUSA,2124,293955.448;2124,293955.447755000,00000077,-222,-3,64166,52,40,-6363*ba9987d6
%RAWIMUSA,2124,293955.458;2124,293955.457755000,00000077,-219,-110,64146,50,53,-6445*b5a7f40e
%RAWIMUSA,2124,293955.468;2124,293955.467755000,00000077,-230,-76,64131,48,34,-6532*fc8be8c3
%RAWIMUSA,2124,293955.478;2124,293955.477755000,00000077,-173,-199,64079,55,29,-6612*49a301b4
%RAWIMUSA,2124,293955.488;2124,293955.487755000,00000077,-241,-189,64048,44,30,-6676*8786c763
%RAWIMUSA,2124,293955.498;2124,293955.497755000,00000077,-203,-77,64065,26,21,-6747*095ae05e
%RAWIMUSA,2124,293955.508;2124,293955.507755000,00000077,-224,-85,64100,60,40,-6845*9ed1bb77
%RAWIMUSA,2124,293955.518;2124,293955.517755000,00000077,-221,-55,64198,63,36,-6940*548b75c5
%RAWIMUSA,2124,293955.528;2124,293955.527755000,00000077,-308,-71,64209,54,39,-6993*a94648f4
%RAWIMUSA,2124,293955.538;2124,293955.537755000,00000077,-191,-211,64124,58,34,-7109*2fbc3fef
%RAWIMUSA,2124,293955.548;2124,293955.547755000,00000077,-302,-34,64177,44,26,-7177*41ffbe81
%RAWIMUSA,2124,293955.558;2124,293955.557755000,00000077,-208,-38,64081,65,53,-7267*b2edd350
%RAWIMUSA,2124,293955.568;2124,293955.567755000,00000077,-150,-62,64189,61,43,-7374*641169ed
%RAWIMUSA,2124,293955.578;2124,293955.577755000,00000077,-265,-76,64163,62,25,-7417*8b69e939
%RAWIMUSA,2124,293955.588;2124,293955.587755000,00000077,-304,-73,64149,72,34,-7475*567858ee
%RAWIMUSA,2124,293955.598;2124,293955.597755000,00000077,-239,-159,64194,71,38,-7579*c8d92a8f
%RAWIMUSA,2124,293955.608;2124,293955.607755000,00000077,-175,-85,64085,74,51,-7639*a0102782
%RAWIMUSA,2124,293955.618;2124,293955.617755000,00000077,-226,-85,64054,56,46,-7727*2b596d3a
%RAWIMUSA,2124,293955.628;2124,293955.627755000,00000077,-265,-81,64149,72,31,-7837*c8d5187c
%RAWIMUSA,2124,293955.638;2124,293955.637755000,00000077,-197,-22,64149,69,40,-7884*0822489e
%RAWIMUSA,2124,293955.648;2124,293955.647755000,00000077,-187,-272,64198,86,40,-7993*2b3a8d74
%RAWIMUSA,2124,293955.658;2124,293955.657755000,00000077,-232,-133,64158,49,45,-8048*e2f0c95d
%RAWIMUSA,2124,293955.668;2124,293955.667755000,00000077,-242,-98,64130,59,35,-8129*f6f5cce2
%RAWIMUSA,2124,293955.678;2124,293955.677755000,00000077,-217,-156,64059,77,29,-8241*df0a9356
%RAWIMUSA,2124,293955.688;2124,293955.687755000,00000077,-239,-93,64140,73,45,-8312*c1e8dc97
%RAWIMUSA,2124,293955.698;2124,293955.697755000,00000077,-243,-92,64128,72,47,-8392*3883255e
%RAWIMUSA,2124,293955.708;2124,293955.707755000,00000077,-176,-121,64121,70,32,-8458*1d160981
%RAWIMUSA,2124,293955.718;2124,293955.717755000,00000077,-171,-133,64119,83,46,-8526*ea9a23bc
%RAWIMUSA,2124,293955.728;2124,293955.727755000,00000077,-195,-112,64057,63,59,-8628*b7278d9e
%RAWIMUSA,2124,293955.738;2124,293955.737755000,00000077,-229,-122,64091,75,47,-8711*1f49d43e
%RAWIMUSA,2124,293955.748;2124,293955.747755000,00000077,-238,-84,64221,82,41,-8787*ee713edc
%RAWIMUSA,2124,293955.758;2124,293955.757755000,00000077,-226,-175,64171,79,55,-8894*b52697a1
%RAWIMUSA,2124,293955.768;2124,293955.767755000,00000077,-172,-97,64199,83,26,-8955*3a70bcce
%RAWIMUSA,2124,293955.778;2124,293955.777755000,00000077,-205,-86,64110,78,54,-9014*fcca0210
%RAWIMUSA,2124,293955.788;2124,293955.787755000,00000077,-296,-177,64063,62,44,-9114*e5610a7e
%RAWIMUSA,2124,293955.798;2124,293955.797755000,00000077,-243,-96,64092,77,33,-9191*f9becf13
%RAWIMUSA,2124,293955.808;2124,293955.807755000,00000077,-234,-132,64201,75,56,-9270*47bacf36
%RAWIMUSA,2124,293955.818;2124,293955.817755000,00000077,-202,-141,64175,88,42,-9367*3274517d
%RAWIMUSA,2124,293955.828;2124,293955.827755000,00000077,-271,-60,64066,82,45,-9415*4cfae886
%RAWIMUSA,2124,293955.838;2124,293955.837755000,00000077,-142,-209,64128,79,48,-9499*1ea1a70e
%RAWIMUSA,2124,293955.848;2124,293955.847755000,00000077,-200,-85,64217,89,35,-9618*71a4d7bc
%RAWIMUSA,2124,293955.858;2124,293955.857755000,00000077,-257,-171,64159,87,47,-9676*54776e34
%RAWIMUSA,2124,293955.868;2124,293955.867755000,00000077,-285,-159,64110,77,56,-9778*04e4148b
%RAWIMUSA,2124,293955.878;2124,293955.877755000,00000077,-269,-155,64120,76,46,-9847*296a7b7b
%RAWIMUSA,2124,293955.888;2124,293955.887755000,00000077,-140,-86,64129,77,49,-9892*2430aa55
%RAWIMUSA,2124,293955.898;2124,293955.897755000,00000077,-198,-17,64076,91,45,-10026*12fe6e36
%RAWIMUSA,2124,293955.908;2124,293955.907755000,00000077,-268,-115,64146,80,54,-10077*06dde91c
%RAWIMUSA,2124,293955.918;2124,293955.917755000,00000077,-236,-208,64165,101,39,-10148*96e1f029
%RAWIMUSA,2124,293955.928;2124,293955.927755000,00000077,-177,-118,64188,92,58,-10248*ec957cc4
%RAWIMUSA,2124,293955.938;2124,293955.937755000,00000077,-217,-64,64248,83,52,-10318*4e606148
%RAWIMUSA,2124,293955.948;2124,293955.947755000,00000077,-244,-134,64170,82,51,-10394*28d6f60d
%RAWIMUSA,2124,293955.958;2124,293955.957755000,00000077,-178,-56,64099,89,35,-10524*76a6b70d
%RAWIMUSA,2124,293955.968;2124,293955.967755000,00000077,-221,-215,64146,96,55,-10548*472cc9b9
%RAWIMUSA,2124,293955.978;2124,293955.977755000,00000077,-149,-187,64113,83,54,-10632*5b8f716e
%RAWIMUSA,2124,293955.988;2124,293955.987755000,00000077,-191,-123,64058,78,59,-10732*282b1d85
%RAWIMUSA,2124,293955.998;2124,293955.997755000,00000077,-164,-138,64053,88,63,-10799*6751477c
%RAWIMUSA,2124,293956.008;2124,293956.007755000,00000077,-191,-172,64180,102,46,-10881*fe559c39
%RAWIMUSA,2124,293956.018;2124,293956.017755000,00000077,-200,-17,64099,78,49,-10961*807d32ac
%RAWIMUSA,2124,293956.028;2124,293956.027755000,00000077,-170,-219,64277,98,63,-11041*2d9c4a64
%RAWIMUSA,2124,293956.038;2124,293956.037755000,00000077,-258,-122,64229,77,41,-11152*715999a3
%RAWIMUSA,2124,293956.048;2124,293956.047755000,00000077,-210,-113,64056,90,53,-11228*0ba0c6a9
%RAWIMUSA,2124,293956.058;2124,293956.057755000,00000077,-301,-108,64081,89,54,-11296*3462df87
%RAWIMUSA,2124,293956.068;2124,293956.067755000,00000077,-201,-17,64221,73,53,-11396*140b1eaa
%RAWIMUSA,2124,293956.078;2124,293956.077755000,00000077,-180,-96,64073,86,64,-11452*1ee996bb
%RAWIMUSA,2124,293956.088;2124,293956.087755000,00000077,-97,-170,64096,92,50,-11522*6ee40e49
%RAWIMUSA,2124,293956.098;2124,293956.097755000,00000077,-142,-85,64091,99,70,-11621*8e8c4143
%RAWIMUSA,2124,293956.108;2124,293956.107755000,00000077,-275,-168,64157,105,71,-11682*6f4d5dc6
%RAWIMUSA,2124,293956.118;2124,293956.117755000,00000077,-283,-190,64092,116,50,-11790*85a9fed8
%RAWIMUSA,2124,293956.128;2124,293956.127755000,00000077,-136,-99,64231,104,52,-11882*f8238b19
%RAWIMUSA,2124,293956.138;2124,293956.137755000,00000077,-205,-90,64095,99,59,-11911*e031a967
%RAWIMUSA,2124,293956.148;2124,293956.147755000,00000077,-287,-104,64139,101,54,-12029*dbab91a3
%RAWIMUSA,2124,293956.158;2124,293956.157755000,00000077,-249,-122,64088,110,65,-12116*82e2c119
%RAWIMUSA,2124,293956.168;2124,293956.167755000,00000077,-308,-89,64168,103,53,-12200*95ea6d40
%RAWIMUSA,2124,293956.178;2124,293956.177755000,00000077,-190,-62,64118,102,62,-12291*e5d45f99
%RAWIMUSA,2124,293956.188;2124,293956.187755000,00000077,-214,-2,64105,111,66,-12307*065ed09f
%RAWIMUSA,2124,293956.198;2124,293956.197755000,00000077,-177,-213,64058,105,72,-12397*394f50a0
%RAWIMUSA,2124,293956.208;2124,293956.207755000,00000077,-252,-100,64156,103,68,-12505*2e5d16d1
%RAWIMUSA,2124,293956.218;2124,293956.217755000,00000077,-150,-62,64170,108,68,-12573*93fcefb1
%RAWIMUSA,2124,293956.228;2124,293956.227755000,00000077,-263,-217,64214,106,77,-12646*6e68a38a
%RAWIMUSA,2124,293956.238;2124,293956.237755000,00000077,-207,-110,64044,99,56,-12732*68f4e1ba
%RAWIMUSA,2124,293956.248;2124,293956.247755000,00000077,-202,-199,64159,102,64,-12811*06fd4700
%RAWIMUSA,2124,293956.258;2124,293956.257755000,00000077,-255,-39,64079,118,65,-12920*e6805ed5
%RAWIMUSA,2124,293956.268;2124,293956.267755000,00000077,-299,-71,64152,98,68,-12998*ed88a5fc
%RAWIMUSA,2124,293956.278;2124,293956.277755000,00000077,-270,-52,64176,98,54,-13053*3f44f7de
%RAWIMUSA,2124,293956.288;2124,293956.287755000,00000077,-271,-241,64165,109,76,-13170*f9dbc20e
%RAWIMUSA,2124,293956.298;2124,293956.297755000,00000077,-261,-40,64093,119,70,-13239*54a02116
%RAWIMUSA,2124,293956.308;2124,293956.307755000,00000077,-239,-97,64192,115,68,-13319*e51c8a58
%RAWIMUSA,2124,293956.318;2124,293956.317755000,00000077,-168,-95,64138,112,71,-13402*2aa95edf
%RAWIMUSA,2124,293956.328;2124,293956.327755000,00000077,-197,-193,64098,123,77,-13469*5fa92019
%RAWIMUSA,2124,293956.338;2124,293956.337755000,00000077,-176,-138,64247,119,61,-13567*1dfbc9ec
%RAWIMUSA,2124,293956.348;2124,293956.347755000,00000077,-288,-61,64039,103,68,-13666*5b213c9a
%RAWIMUSA,2124,293956.358;2124,293956.357755000,00000077,-271,-170,64045,106,76,-13706*6188add6
%RAWIMUSA,2124,293956.368;2124,293956.367755000,00000077,-183,-178,64152,123,69,-13822*d6185a73
%RAWIMUSA,2124,293956.378;2124,293956.377755000,00000077,-244,-122,64074,120,45,-13877*d3e9641f
%RAWIMUSA,2124,293956.388;2124,293956.387755000,00000077,-308,-146,64131,112,65,-13948*cfb96625
%RAWIMUSA,2124,293956.398;2124,293956.397755000,00000077,-265,-179,64116,113,78,-14053*ebcc8709
%RAWIMUSA,2124,293956.408;2124,293956.407755000,00000077,-295,-92,64101,128,53,-14107*2686bd9f
%RAWIMUSA,2124,293956.418;2124,293956.417755000,00000077,-182,-78,64110,123,78,-14199*0e5daaa8
%RAWIMUSA,2124,293956.428;2124,293956.427755000,00000077,-166,-151,64107,113,66,-14278*57e56d73
%RAWIMUSA,2124,293956.438;2124,293956.437755000,00000077,-336,-54,64100,107,68,-14329*db894635
%RAWIMUSA,2124,293956.448;2124,293956.447755000,00000077,-142,-255,64165,124,74,-14426*3e661cf7
%RAWIMUSA,2124,293956.458;2124,293956.457755000,00000077,-137,-109,64219,130,72,-14517*49fafdac
%RAWIMUSA,2124,293956.468;2124,293956.467755000,00000077,-208,-8,64203,132,59,-14597*7987d204
%RAWIMUSA,2124,293956.478;2124,293956.477755000,00000077,-212,-152,64236,118,67,-14688*a434d8e5
%RAWIMUSA,2124,293956.488;2124,293956.487755000,00000077,-191,-83,64265,116,56,-14772*c2a243cf
%RAWIMUSA,2124,293956.498;2124,293956.497755000,00000077,-223,-144,64094,111,73,-14827*908c1bff
%RAWIMUSA,2124,293956.508;2124,293956.507755000,00000077,-197,-193,64046,128,65,-14922*c132116f
%RAWIMUSA,2124,293956.518;2124,293956.517755000,00000077,-211,-129,64205,142,86,-14998*1ff95878
%RAWIMUSA,2124,293956.528;2124,293956.527755000,00000077,-179,-193,64107,133,68,-15066*bb0b767c
%RAWIMUSA,2124,293956.538;2124,293956.537755000,00000077,-198,-191,64110,120,71,-15182*58f5034f
%RAWIMUSA,2124,293956.548;2124,293956.547755000,00000077,-218,-32,64133,126,81,-15241*6947c314
%RAWIMUSA,2124,293956.558;2124,293956.557755000,00000077,-206,-228,64149,130,67,-15312*d045b058
%RAWIMUSA,2124,293956.568;2124,293956.567755000,00000077,-212,4,64104,125,66,-15400*266ee68f
%RAWIMUSA,2124,293956.578;2124,293956.577755000,00000077,-145,-105,64140,120,64,-15489*e27aa4f9
%RAWIMUSA,2124,293956.588;2124,293956.587755000,00000077,-185,-273,64206,124,76,-15585*544fb17a
%RAWIMUSA,2124,293956.598;2124,293956.597755000,00000077,-348,-172,64106,133,77,-15694*fd468d18
%RAWIMUSA,2124,293956.608;2124,293956.607755000,00000077,-166,-147,64128,126,79,-15739*cdba856b
%RAWIMUSA,2124,293956.618;2124,293956.617755000,00000077,-218,7,64046,140,78,-15848*c295dae3
%RAWIMUSA,2124,293956.628;2124,293956.627755000,00000077,-208,-214,64056,138,70,-15884*fb8515a0
%RAWIMUSA,2124,293956.638;2124,293956.637755000,00000077,-201,-219,64049,145,76,-15962*2d0b6cee
%RAWIMUSA,2124,293956.648;2124,293956.647755000,00000077,-260,-150,64097,141,75,-16088*f209edf8
%RAWIMUSA,2124,293956.658;2124,293956.657755000,00000077,-246,-8,64237,142,74,-16138*b4cc3e47
%RAWIMUSA,2124,293956.668;2124,293956.667755000,00000077,-208,-158,64150,138,75,-16209*4515f9ec
%RAWIMUSA,2124,293956.678;2124,293956.677755000,00000077,-232,-142,64136,134,76,-16279*e389017b
%RAWIMUSA,2124,293956.688;2124,293956.687755000,00000077,-300,-43,64157,146,71,-16273*2bf22a84
%RAWIMUSA,2124,293956.698;2124,293956.697755000,00000077,-208,97,64114,142,71,-16185*0f015e22
%RAWIMUSA,2124,293956.708;2124,293956.707755000,00000077,-216,10,64114,118,56,-16143*5010cee5
%RAWIMUSA,2124,293956.718;2124,293956.717755000,00000077,-211,-51,64131,130,79,-16123*bda87795
%RAWIMUSA,2124,293956.728;2124,293956.727755000,00000077,-116,-15,64170,136,86,-16126*fcbfcfff
%RAWIMUSA,2124,293956.738;2124,293956.737755000,00000077,-235,-87,64119,140,75,-16126*0409b22b
%RAWIMUSA,2124,293956.748;2124,293956.747755000,00000077,-182,-33,64207,132,86,-16124*df906ea5
%RAWIMUSA,2124,293956.758;2124,293956.757755000,00000077,-190,-42,64098,140,75,-16146*03632b00
%RAWIMUSA,2124,293956.768;2124,293956.767755000,00000077,-230,-13,64058,143,72,-16135*478de587
%RAWIMUSA,2124,293956.778;2124,293956.777755000,00000077,-254,53,64137,141,81,-16149*4d5668b7
%RAWIMUSA,2124,293956.788;2124,293956.787755000,00000077,-254,-28,64141,137,89,-16128*bba6cf07
%RAWIMUSA,2124,293956.798;2124,293956.797755000,00000077,-281,-99,64122,143,75,-16149*84e5af24
%RAWIMUSA,2124,293956.808;2124,293956.807755000,00000077,-184,-29,64198,154,78,-16143*9447b4c2
%RAWIMUSA,2124,293956.818;2124,293956.817755000,00000077,-110,-66,64269,128,82,-16131*f197aa33
%RAWIMUSA,2124,293956.828;2124,293956.827755000,00000077,-229,-61,64148,136,62,-16131*bde47c79
%RAWIMUSA,2124,293956.838;2124,293956.837755000,00000077,-180,10,64204,136,82,-16133*b31772f1
%RAWIMUSA,2124,293956.848;2124,293956.847755000,00000077,-238,-99,64143,149,75,-16148*cdd3c1d1
%RAWIMUSA,2124,293956.858;2124,293956.857755000,00000077,-310,-69,64096,132,81,-16149*4970c90c
%RAWIMUSA,2124,293956.868;2124,293956.867755000,00000077,-172,44,64184,148,74,-16147*974e4c6d
%RAWIMUSA,2124,293956.878;2124,293956.877755000,00000077,-162,-3,64145,136,70,-16148*ae27ee0b
%RAWIMUSA,2124,293956.888;2124,293956.887755000,00000077,-254,-148,64083,147,72,-16150*5a828f65
%RAWIMUSA,2124,293956.898;2124,293956.897755000,00000077,-232,-88,64133,144,68,-16166*368e30b0
%RAWIMUSA,2124,293956.908;2124,293956.907755000,00000077,-275,4,64160,151,73,-16157*f1dbbd01
%RAWIMUSA,2124,293956.918;2124,293956.917755000,00000077,-279,-6,64096,138,77,-16160*649e8488
%RAWIMUSA,2124,293956.928;2124,293956.927755000,00000077,-239,33,64086,141,77,-16150*4349c31b
%RAWIMUSA,2124,293956.938;2124,293956.937755000,00000077,-211,-70,63990,128,75,-16157*b1fb4c96
%RAWIMUSA,2124,293956.948;2124,293956.947755000,00000077,-222,-58,64100,134,85,-16134*365f12c0
%RAWIMUSA,2124,293956.958;2124,293956.957755000,00000077,-186,-46,64054,151,57,-16135*1ea4aa90
%RAWIMUSA,2124,293956.968;2124,293956.967755000,00000077,-265,-109,64111,139,80,-16146*473a71a4
%RAWIMUSA,2124,293956.978;2124,293956.977755000,00000077,-198,-66,64145,134,68,-16155*6044ca66
%RAWIMUSA,2124,293956.988;2124,293956.987755000,00000077,-297,-69,64209,146,78,-16147*9bd00424
%RAWIMUSA,2124,293956.998;2124,293956.997755000,00000077,-156,-138,64064,119,82,-16158*03b5bfd9
%RAWIMUSA,2124,293957.008;2124,293957.007755000,00000077,-255,-21,64132,136,64,-16153*58b880a6
%RAWIMUSA,2124,293957.018;2124,293957.017755000,00000077,-326,-59,64152,143,82,-16161*cf33d694
%RAWIMUSA,2124,293957.028;2124,293957.027755000,00000077,-277,-66,64157,158,80,-16148*bf1b6d63
%RAWIMUSA,2124,293957.038;2124,293957.037755000,00000077,-281,-118,64143,140,62,-16159*70004bae
%RAWIMUSA,2124,293957.048;2124,293957.047755000,00000077,-126,-17,64138,149,75,-16155*ea31fa2f
%RAWIMUSA,2124,293957.058;2124,293957.057755000,00000077,-179,18,64089,144,78,-16137*fbbd2336
%RAWIMUSA,2124,293957.068;2124,293957.067755000,00000077,-254,-82,64187,131,81,-16134*c03b0824
%RAWIMUSA,2124,293957.078;2124,293957.077755000,00000077,-188,-50,64228,131,87,-16160*acb151ee
%RAWIMUSA,2124,293957.088;2124,293957.087755000,00000077,-247,-137,64070,147,80,-16151*c33090aa
%RAWIMUSA,2124,293957.098;2124,293957.097755000,00000077,-113,-60,64018,133,83,-16136*aa8542cb
%RAWIMUSA,2124,293957.108;2124,293957.107755000,00000077,-345,-78,64121,154,79,-16165*5f36314c
%RAWIMUSA,2124,293957.118;2124,293957.117755000,00000077,-257,-144,64142,145,69,-16159*aac5a35b
%RAWIMUSA,2124,293957.128;2124,293957.127755000,00000077,-217,-38,64189,131,69,-16152*7f43f3b4
%RAWIMUSA,2124,293957.138;2124,293957.137755000,00000077,-309,8,64102,134,74,-16165*7fe49733
%RAWIMUSA,2124,293957.148;2124,293957.147755000,00000077,-194,-47,64099,130,79,-16165*16d3b14e
%RAWIMUSA,2124,293957.158;2124,293957.157755000,00000077,-221,-29,64162,144,75,-16165*70b52e2a
%RAWIMUSA,2124,293957.168;2124,293957.167755000,00000077,-205,-78,64130,130,76,-16177*a4127080
%RAWIMUSA,2124,293957.178;2124,293957.177755000,00000077,-151,-39,64140,142,70,-16178*acc6f0a1
%RAWIMUSA,2124,293957.188;2124,293957.187755000,00000077,-249,-51,64118,149,76,-16161*5b940434
%RAWIMUSA,2124,293957.198;2124,293957.197755000,00000077,-267,-54,64214,123,70,-16169*9eb6c23d
%RAWIMUSA,2124,293957.208;2124,293957.207755000,00000077,-199,-42,64128,119,74,-16136*beb315ce
%RAWIMUSA,2124,293957.218;2124,293957.217755000,00000077,-271,-53,64053,147,90,-16138*cfb5f6bb
%RAWIMUSA,2124,293957.228;2124,293957.227755000,00000077,-329,-141,64020,152,90,-16144*b1a05b65
%RAWIMUSA,2124,293957.238;2124,293957.237755000,00000077,-243,-94,64113,158,63,-16165*606e8066
%RAWIMUSA,2124,293957.248;2124,293957.247755000,00000077,-244,-51,64228,147,77,-16153*2bd73aef
%RAWIMUSA,2124,293957.258;2124,293957.257755000,00000077,-146,41,64164,140,64,-16141*99341c9b
%RAWIMUSA,2124,293957.268;2124,293957.267755000,00000077,-159,-28,64121,133,85,-16161*23519173
%RAWIMUSA,2124,293957.278;2124,293957.277755000,00000077,-159,-159,64210,152,77,-16150*ada26ed4
%RAWIMUSA,2124,293957.288;2124,293957.287755000,00000077,-227,-60,64046,138,57,-16153*4d838819
%RAWIMUSA,2124,293957.298;2124,293957.297755000,00000077,-225,-29,64160,142,77,-16163*43ae3cd3
%RAWIMUSA,2124,293957.308;2124,293957.307755000,00000077,-239,6,64107,143,78,-16165*f58fe4bc
%RAWIMUSA,2124,293957.318;2124,293957.317755000,00000077,-184,-32,64204,114,82,-16148*55263993
%RAWIMUSA,2124,293957.328;2124,293957.327755000,00000077,-200,-50,64125,143,76,-16161*93547e1f
%RAWIMUSA,2124,293957.338;2124,293957.337755000,00000077,-74,55,64138,140,86,-16144*eda30db8
%RAWIMUSA,2124,293957.348;2124,293957.347755000,00000077,-141,-162,64176,144,94,-16152*f0ebc09d
%RAWIMUSA,2124,293957.358;2124,293957.357755000,00000077,-185,-106,64137,135,74,-16146*2e165be4
%RAWIMUSA,2124,293957.368;2124,293957.367755000,00000077,-296,-23,64146,145,54,-16150*5f77434f
%RAWIMUSA,2124,293957.378;2124,293957.377755000,00000077,-190,-92,64135,128,85,-16163*16e7ee4c
%RAWIMUSA,2124,293957.388;2124,293957.387755000,00000077,-149,-90,64102,139,77,-16146*3cab2eac
%RAWIMUSA,2124,293957.398;2124,293957.397755000,00000077,-172,-161,64099,145,72,-16147*540958ff
%RAWIMUSA,2124,293957.408;2124,293957.407755000,00000077,-211,-96,64048,148,68,-16168*578ac4d2
%RAWIMUSA,2124,293957.418;2124,293957.417755000,00000077,-145,-60,64082,132,70,-16168*a3dbe5e5
%RAWIMUSA,2124,293957.428;2124,293957.427755000,00000077,-245,-143,64187,127,89,-16153*ec5d5aa6
%RAWIMUSA,2124,293957.438;2124,293957.437755000,00000077,-77,-13,64150,128,76,-16159*16869c85
%RAWIMUSA,2124,293957.448;2124,293957.447755000,00000077,-263,-54,64109,143,84,-16161*a05e63cb
%RAWIMUSA,2124,293957.458;2124,293957.457755000,00000077,-233,-6,64080,144,74,-16158*1028dc4c
%RAWIMUSA,2124,293957.468;2124,293957.467755000,00000077,-142,-40,64093,136,82,-16168*69a148f0
%RAWIMUSA,2124,293957.478;2124,293957.477755000,00000077,-255,-117,64006,151,85,-16161*46adde49
%RAWIMUSA,2124,293957.488;2124,293957.487755000,00000077,-295,-68,64122,132,73,-16159*3d5972c2
%RAWIMUSA,2124,293957.498;2124,293957.497755000,00000077,-283,-77,64020,138,86,-16158*0ea1fb8b
%RAWIMUSA,2124,293957.508;2124,293957.507755000,00000077,-188,18,64122,148,66,-16151*cb5d0c4a
%RAWIMUSA,2124,293957.518;2124,293957.517755000,00000077,-134,-31,64086,123,92,-16157*d2287f5b
%RAWIMUSA,2124,293957.528;2124,293957.527755000,00000077,-160,-75,64192,141,78,-16160*d3eb3a9c
%RAWIMUSA,2124,293957.538;2124,293957.537755000,00000077,-240,-138,64148,132,75,-16162*5ccb3679
%RAWIMUSA,2124,293957.548;2124,293957.547755000,00000077,-262,-68,64119,143,77,-16142*660d586a
%RAWIMUSA,2124,293957.558;2124,293957.557755000,00000077,-151,-43,64171,148,74,-16150*6dee625d
%RAWIMUSA,2124,293957.568;2124,293957.567755000,00000077,-200,-184,64135,125,58,-16150*97e0e0c1
%RAWIMUSA,2124,293957.578;2124,293957.577755000,00000077,-223,-77,64163,134,72,-16177*e7daef77
%RAWIMUSA,2124,293957.588;2124,293957.587755000,00000077,-249,-97,64140,148,74,-16166*077d6e99
%RAWIMUSA,2124,293957.598;2124,293957.597755000,00000077,-352,-60,64103,125,81,-16165*04104d46
%RAWIMUSA,2124,293957.608;2124,293957.607755000,00000077,-246,4,64137,136,73,-16164*41ed28fc
%RAWIMUSA,2124,293957.618;2124,293957.617755000,00000077,-269,90,64009,134,72,-16171*3d65f048
%RAWIMUSA,2124,293957.628;2124,293957.627755000,00000077,-244,77,64051,137,64,-16165*6fb4ddd3
%RAWIMUSA,2124,293957.638;2124,293957.637755000,00000077,-221,-110,64170,130,79,-16152*c27ecf7d
%RAWIMUSA,2124,293957.648;2124,293957.647755000,00000077,-221,-97,64123,142,70,-16168*f4cad9e3
%RAWIMUSA,2124,293957.658;2124,293957.657755000,00000077,-272,-41,64092,145,91,-16172*7190ddda
%RAWIMUSA,2124,293957.668;2124,293957.667755000,00000077,-187,-97,64118,133,60,-16144*4ae2117b
%RAWIMUSA,2124,293957.678;2124,293957.677755000,00000077,-247,-40,64002,144,65,-16156*78a32e60
%RAWIMUSA,2124,293957.688;2124,293957.687755000,00000077,-179,-43,64054,154,73,-16161*4a7fa4b1
%RAWIMUSA,2124,293957.698;2124,293957.697755000,00000077,-239,-30,64173,123,61,-16157*55de2012
%RAWIMUSA,2124,293957.708;2124,293957.707755000,00000077,-200,-73,64109,139,85,-16180*8536aab9
%RAWIMUSA,2124,293957.718;2124,293957.717755000,00000077,-262,-76,64070,138,69,-16163*3b3be4e3
%RAWIMUSA,2124,293957.728;2124,293957.727755000,00000077,-183,6,64109,132,71,-16179*25d0ed18
%RAWIMUSA,2124,293957.738;2124,293957.737755000,00000077,-209,-33,64230,131,66,-16161*c83a6851
%RAWIMUSA,2124,293957.748;2124,293957.747755000,00000077,-211,-42,64049,149,82,-16166*aa83be19
%RAWIMUSA,2124,293957.758;2124,293957.757755000,00000077,-295,-8,64157,144,82,-16171*09612752
%RAWIMUSA,2124,293957.768;2124,293957.767755000,00000077,-248,-130,64075,140,74,-16171*7ea74cab
%RAWIMUSA,2124,293957.778;2124,293957.777755000,00000077,-137,9,64115,140,78,-16141*cbad9f09
%RAWIMUSA,2124,293957.788;2124,293957.787755000,00000077,-213,-105,64159,156,83,-16154*421309bc
%RAWIMUSA,2124,293957.798;2124,293957.797755000,00000077,-208,-129,64094,132,72,-16151*4b67f068
%RAWIMUSA,2124,293957.808;2124,293957.807755000,00000077,-249,-115,64080,142,67,-16165*f3fa3475
%RAWIMUSA,2124,293957.818;2124,293957.817755000,00000077,-205,-129,64145,147,79,-16164*cd1d19c3
%RAWIMUSA,2124,293957.828;2124,293957.827755000,00000077,-279,-7,64151,127,79,-16159*cd2d4205
%RAWIMUSA,2124,293957.838;2124,293957.837755000,00000077,-259,-1,64125,133,71,-16164*afad92dd
%RAWIMUSA,2124,293957.848;2124,293957.847755000,00000077,-282,-108,64167,143,73,-16173*31754676
%RAWIMUSA,2124,293957.858;2124,293957.857755000,00000077,-199,-79,64169,134,78,-16165*1e5c974a
%RAWIMUSA,2124,293957.868;2124,293957.867755000,00000077,-234,-177,64196,144,79,-16175*436c023e
%RAWIMUSA,2124,293957.878;2124,293957.877755000,00000077,-207,8,64159,127,79,-16169*ac7cb885
%RAWIMUSA,2124,293957.888;2124,293957.887755000,00000077,-229,-31,64171,134,79,-16180*90183c82
%RAWIMUSA,2124,293957.898;2124,293957.897755000,00000077,-233,-67,64114,138,78,-16166*6e486b97
%RAWIMUSA,2124,293957.908;2124,293957.907755000,00000077,-245,-57,64111,126,69,-16173*a4e203a1
%RAWIMUSA,2124,293957.918;2124,293957.917755000,00000077,-195,-3,64108,136,75,-16165*822277f0
%RAWIMUSA,2124,293957.928;2124,293957.927755000,00000077,-169,-145,64185,141,74,-16170*7be3358c
%RAWIMUSA,2124,293957.938;2124,293957.937755000,00000077,-244,-102,64106,138,74,-16164*43c4ba59
%RAWIMUSA,2124,293957.948;2124,293957.947755000,00000077,-271,2,64133,132,62,-16156*ba51ff1e
%RAWIMUSA,2124,293957.958;2124,293957.957755000,00000077,-280,-21,64137,136,72,-16160*ba08144d
%RAWIMUSA,2124,293957.968;2124,293957.967755000,00000077,-182,-118,64166,148,65,-16164*2922c220
%RAWIMUSA,2124,293957.978;2124,293957.977755000,00000077,-298,-97,64169,130,74,-16160*f63d58cb
%RAWIMUSA,2124,293957.988;2124,293957.987755000,00000077,-213,-48,64145,131,62,-16171*5074e81e
%RAWIMUSA,2124,293957.998;2124,293957.997755000,00000077,-178,-141,64117,141,60,-16173*c032d1ef
%RAWIMUSA,2124,293958.008;2124,293958.007755000,00000077,-284,-92,64166,135,71,-16161*3e456c21
%RAWIMUSA,2124,293958.018;2124,293958.017755000,00000077,-249,-57,64152,136,79,-16182*7cef07d6
%RAWIMUSA,2124,293958.028;2124,293958.027755000,00000077,-193,-62,64262,124,90,-16171*ae6db51f
%RAWIMUSA,2124,293958.038;2124,293958.037755000,00000077,-263,-45,64271,138,79,-16161*fe4a2ec5
%RAWIMUSA,2124,293958.048;2124,293958.047755000,00000077,-311,-102,64112,146,76,-16170*81f683c2
%RAWIMUSA,2124,293958.058;2124,293958.057755000,00000077,-295,-64,64136,150,76,-16151*cbd651bd
%RAWIMUSA,2124,293958.068;2124,293958.067755000,00000077,-218,-80,64012,131,85,-16146*c60e5aaf
%RAWIMUSA,2124,293958.078;2124,293958.077755000,00000077,-245,-32,64047,141,70,-16159*f72cb50d
%RAWIMUSA,2124,293958.088;2124,293958.087755000,00000077,-283,-118,64106,143,79,-16169*f1b6da24
%RAWIMUSA,2124,293958.098;2124,293958.097755000,00000077,-244,-148,64113,157,68,-16161*9b6c06ac
%RAWIMUSA,2124,293958.108;2124,293958.107755000,00000077,-279,-165,64074,147,70,-16168*c1648cb0
%RAWIMUSA,2124,293958.118;2124,293958.117755000,00000077,-282,-30,64195,136,79,-16177*f3b910a3
%RAWIMUSA,2124,293958.128;2124,293958.127755000,00000077,-224,-95,64081,152,78,-16164*f3d871a1
%RAWIMUSA,2124,293958.138;2124,293958.137755000,00000077,-321,-25,64156,141,73,-16163*5e2f652d
%RAWIMUSA,2124,293958.148;2124,293958.147755000,00000077,-89,-130,64162,139,84,-16189*6ebd605e
%RAWIMUSA,2124,293958.158;2124,293958.157755000,00000077,-223,-55,64164,142,72,-16161*266a7628
%RAWIMUSA,2124,293958.168;2124,293958.167755000,00000077,-246,-78,64158,137,64,-16180*1166e4dc
%RAWIMUSA,2124,293958.178;2124,293958.177755000,00000077,-179,-158,64168,146,51,-16179*de918992
%RAWIMUSA,2124,293958.188;2124,293958.187755000,00000077,-101,-89,64179,121,68,-16156*62075cf3
%RAWIMUSA,2124,293958.198;2124,293958.197755000,00000077,-214,-52,64202,147,85,-16154*c79ae927
%RAWIMUSA,2124,293958.208;2124,293958.207755000,00000077,-280,-63,64100,131,68,-16172*bcb8df71
%RAWIMUSA,2124,293958.218;2124,293958.217755000,00000077,-172,-65,64136,177,72,-16149*f78aefac
%RAWIMUSA,2124,293958.228;2124,293958.227755000,00000077,-183,-80,64089,121,71,-16179*443c92e9
%RAWIMUSA,2124,293958.238;2124,293958.237755000,00000077,-213,3,64136,153,71,-16160*b478642b
%RAWIMUSA,2124,293958.248;2124,293958.247755000,00000077,-274,-148,64182,104,64,-16171*7634a341
%RAWIMUSA,2124,293958.258;2124,293958.257755000,00000077,-252,-136,64090,160,76,-16188*6e98914f
%RAWIMUSA,2124,293958.268;2124,293958.267755000,00000077,-203,-45,64135,109,83,-16164*6fadf02d
%RAWIMUSA,2124,293958.278;2124,293958.277755000,00000077,-190,-51,64096,174,78,-16174*d14fa656
%RAWIMUSA,2124,293958.288;2124,293958.287755000,00000077,-270,-145,64105,119,80,-16171*f2d172f4
%RAWIMUSA,2124,293958.298;2124,293958.297755000,00000077,-283,25,64155,165,70,-16159*09bc8d00
%RAWIMUSA,2124,293958.308;2124,293958.307755000,00000077,-188,-161,64187,123,72,-16179*f39d2bac
%RAWIMUSA,2124,293958.318;2124,293958.317755000,00000077,-159,-32,64113,155,95,-16158*4ce9feec
%RAWIMUSA,2124,293958.328;2124,293958.327755000,00000077,-263,-87,64148,102,72,-16174*d1eae865
%RAWIMUSA,2124,293958.338;2124,293958.337755000,00000077,-228,29,64071,168,72,-16151*efa26a23
%RAWIMUSA,2124,293958.348;2124,293958.347755000,00000077,-194,-83,64065,110,68,-16170*5454dcb6
%RAWIMUSA,2124,293958.358;2124,293958.357755000,00000077,-283,79,64125,175,69,-16169*724849cc
%RAWIMUSA,2124,293958.368;2124,293958.367755000,00000077,-218,-14,64138,125,72,-16169*0b42ab1f
%RAWIMUSA,2124,293958.378;2124,293958.377755000,00000077,-183,-10,64168,149,79,-16169*0a3ba12c
%RAWIMUSA,2124,293958.388;2124,293958.387755000,00000077,-244,-33,64194,127,65,-16162*14d4b1cd
%RAWIMUSA,2124,293958.398;2124,293958.397755000,00000077,-200,-28,64054,147,77,-16136*a5166757
%RAWIMUSA,2124,293958.408;2124,293958.407755000,00000077,-256,-88,64142,124,67,-16152*337371b4
%RAWIMUSA,2124,293958.418;2124,293958.417755000,00000077,-279,44,64109,162,67,-16178*def2c3db
%RAWIMUSA,2124,293958.428;2124,293958.427755000,00000077,-301,-133,64214,120,71,-16171*71cf2576
%RAWIMUSA,2124,293958.438;2124,293958.437755000,00000077,-197,-58,64182,163,77,-16168*78807f15
%RAWIMUSA,2124,293958.448;2124,293958.447755000,00000077,-239,-92,64157,131,80,-16178*cebadaff
%RAWIMUSA,2124,293958.458;2124,293958.457755000,00000077,-203,27,64204,149,69,-16180*21b33873
%RAWIMUSA,2124,293958.468;2124,293958.467755000,00000077,-307,-91,64249,113,74,-16167*50fbb8f6
%RAWIMUSA,2124,293958.478;2124,293958.477755000,00000077,-246,-7,64093,157,73,-16153*d10ec640
%RAWIMUSA,2124,293958.488;2124,293958.487755000,00000077,-222,-140,64181,135,71,-16160*1ecc7d62
%RAWIMUSA,2124,293958.498;2124,293958.497755000,00000077,-233,-29,64136,145,71,-16157*93eeaf2d
%RAWIMUSA,2124,293958.508;2124,293958.507755000,00000077,-233,-21,64133,128,67,-16157*781837f4
%RAWIMUSA,2124,293958.518;2124,293958.517755000,00000077,-222,28,64126,161,85,-16147*fd40b254
%RAWIMUSA,2124,293958.528;2124,293958.527755000,00000077,-169,-138,64208,126,78,-16176*f5bf9955
%RAWIMUSA,2124,293958.538;2124,293958.537755000,00000077,-289,10,64100,133,62,-16168*b5686861
%RAWIMUSA,2124,293958.548;2124,293958.547755000,00000077,-236,-220,64152,164,79,-16173*0ca224da
%RAWIMUSA,2124,293958.558;2124,293958.557755000,00000077,-243,-35,64100,117,67,-16178*832933ea
%RAWIMUSA,2124,293958.568;2124,293958.567755000,00000077,-254,-55,64134,143,87,-16182*7dd34271
%RAWIMUSA,2124,293958.578;2124,293958.577755000,00000077,-304,-5,64106,129,63,-16167*4d0ca6bb
%RAWIMUSA,2124,293958.588;2124,293958.587755000,00000077,-194,-52,64197,153,75,-16176*9a470c1c
%RAWIMUSA,2124,293958.598;2124,293958.597755000,00000077,-159,-51,64163,120,82,-16164*ee8e1c4e
%RAWIMUSA,2124,293958.608;2124,293958.607755000,00000077,-205,-45,64120,165,64,-16169*fe5fbeed
%RAWIMUSA,2124,293958.618;2124,293958.617755000,00000077,-256,-108,64124,99,77,-16170*9e76a292
%RAWIMUSA,2124,293958.628;2124,293958.627755000,00000077,-255,-240,64172,168,80,-16178*728274bf
%RAWIMUSA,2124,293958.638;2124,293958.637755000,00000077,-251,-77,64205,117,72,-16157*42181124
%RAWIMUSA,2124,293958.648;2124,293958.647755000,00000077,-146,-117,64127,170,71,-16150*6bf7635a
%RAWIMUSA,2124,293958.658;2124,293958.657755000,00000077,-211,-128,64253,125,79,-16172*30b62953
%RAWIMUSA,2124,293958.668;2124,293958.667755000,00000077,-196,-26,64175,159,83,-16168*9bd9a50b
%RAWIMUSA,2124,293958.678;2124,293958.677755000,00000077,-201,-130,64209,96,81,-16166*eef6fb77
%RAWIMUSA,2124,293958.688;2124,293958.687755000,00000077,-195,33,64111,159,74,-16161*c2cdf905
%RAWIMUSA,2124,293958.698;2124,293958.697755000,00000077,-65,-97,64246,115,69,-16187*6179b04e
%RAWIMUSA,2124,293958.708;2124,293958.707755000,00000077,-296,-79,64179,148,70,-16161*f851c9cb
%RAWIMUSA,2124,293958.718;2124,293958.717755000,00000077,-232,-152,64141,127,71,-16176*372b9e26
%RAWIMUSA,2124,293958.728;2124,293958.727755000,00000077,-226,-9,64178,122,58,-16172*b37b6810
%RAWIMUSA,2124,293958.738;2124,293958.737755000,00000077,-337,-99,64159,150,72,-16172*5d713d7c
%RAWIMUSA,2124,293958.748;2124,293958.747755000,00000077,-269,38,64095,136,75,-16159*9e453fc0
%RAWIMUSA,2124,293958.758;2124,293958.757755000,00000077,-127,-115,64186,160,71,-16163*3bf01655
%RAWIMUSA,2124,293958.768;2124,293958.767755000,00000077,-119,-19,64188,134,79,-16150*5dce5146
%RAWIMUSA,2124,293958.778;2124,293958.777755000,00000077,-145,-102,64043,136,77,-16154*8f8bf5a3
%RAWIMUSA,2124,293958.788;2124,293958.787755000,00000077,-235,-130,64112,135,67,-16169*a568a718
%RAWIMUSA,2124,293958.798;2124,293958.797755000,00000077,-228,-34,64095,138,73,-16167*2cde8f26
%RAWIMUSA,2124,293958.808;2124,293958.807755000,00000077,-196,-36,64087,154,80,-16159*6ceba904
%RAWIMUSA,2124,293958.818;2124,293958.817755000,00000077,-182,-99,64214,122,59,-16160*5a799e92
%RAWIMUSA,2124,293958.828;2124,293958.827755000,00000077,-163,-87,64064,139,76,-16164*b11f412f
%RAWIMUSA,2124,293958.838;2124,293958.837755000,00000077,-234,-80,64152,142,80,-16167*fa950fd2
%RAWIMUSA,2124,293958.848;2124,293958.847755000,00000077,-266,-27,64190,120,71,-16169*057c8544
%RAWIMUSA,2124,293958.858;2124,293958.857755000,00000077,-162,-128,64164,149,65,-16173*acc4f160
%RAWIMUSA,2124,293958.868;2124,293958.867755000,00000077,-228,-73,64194,137,77,-16175*97bda615
%RAWIMUSA,2124,293958.878;2124,293958.877755000,00000077,-241,-106,64136,129,81,-16168*f0fddfb9
%RAWIMUSA,2124,293958.888;2124,293958.887755000,00000077,-262,-21,64156,150,77,-16152*eaa18453
%RAWIMUSA,2124,293958.898;2124,293958.897755000,00000077,-143,-97,64142,133,77,-16160*c1c88268
%RAWIMUSA,2124,293958.908;2124,293958.907755000,00000077,-210,-71,64082,123,69,-16168*08825057
%RAWIMUSA,2124,293958.918;2124,293958.917755000,00000077,-343,-100,64108,153,79,-16154*484d3ed2
%RAWIMUSA,2124,293958.928;2124,293958.927755000,00000077,-247,-56,64198,135,63,-16165*d699e374
%RAWIMUSA,2124,293958.938;2124,293958.937755000,00000077,-131,-58,64116,136,78,-16182*817cff67
%RAWIMUSA,2124,293958.948;2124,293958.947755000,00000077,-228,-91,64071,151,69,-16164*3612a0b0
%RAWIMUSA,2124,293958.958;2124,293958.957755000,00000077,-214,-118,64152,135,66,-16183*b44a011d
%RAWIMUSA,2124,293958.968;2124,293958.967755000,00000077,-305,-45,64049,147,75,-16176*b59f3218
%RAWIMUSA,2124,293958.978;2124,293958.977755000,00000077,-281,-50,64093,145,90,-16162*8e237038
%RAWIMUSA,2124,293958.988;2124,293958.987755000,00000077,-272,-49,64174,125,75,-16166*27f95113
%RAWIMUSA,2124,293958.998;2124,293958.997755000,00000077,-123,-34,64257,140,60,-16189*f23f2063
%RAWIMUSA,2124,293959.008;2124,293959.007755000,00000077,-261,-89,64175,144,75,-16176*45c4b3c6
%RAWIMUSA,2124,293959.018;2124,293959.017755000,00000077,-182,-66,64089,131,62,-16164*44e25d71
%RAWIMUSA,2124,293959.028;2124,293959.027755000,00000077,-265,0,64181,138,83,-16167*a37ce33a
%RAWIMUSA,2124,293959.038;2124,293959.037755000,00000077,-253,-113,64122,135,70,-16172*f0c67abd
%RAWIMUSA,2124,293959.048;2124,293959.047755000,00000077,-210,-50,64211,127,76,-16157*d6d321dd
%RAWIMUSA,2124,293959.058;2124,293959.057755000,00000077,-235,7,64050,142,80,-16174*427410bb
%RAWIMUSA,2124,293959.068;2124,293959.067755000,00000077,-222,-100,64110,143,65,-16162*2c38961b
%RAWIMUSA,2124,293959.078;2124,293959.077755000,00000077,-221,-92,64146,143,81,-16168*82e6b542
%RAWIMUSA,2124,293959.088;2124,293959.087755000,00000077,-249,-64,64122,131,80,-16160*64769b90
%RAWIMUSA,2124,293959.098;2124,293959.097755000,00000077,-286,-57,64071,139,87,-16168*207b07ef
%RAWIMUSA,2124,293959.108;2124,293959.107755000,00000077,-263,-58,64150,160,82,-16175*25c847fb
%RAWIMUSA,2124,293959.118;2124,293959.117755000,00000077,-226,-79,64141,152,74,-16160*61f418fd
%RAWIMUSA,2124,293959.128;2124,293959.127755000,00000077,-250,-11,64121,150,76,-16186*3ad0890c
%RAWIMUSA,2124,293959.138;2124,293959.137755000,00000077,-221,-14,64169,139,67,-16172*d785498c
%RAWIMUSA,2124,293959.148;2124,293959.147755000,00000077,-268,-65,64232,142,72,-16157*2377cad2
%RAWIMUSA,2124,293959.158;2124,293959.157755000,00000077,-239,-113,64064,135,82,-16172*c6345eec
%RAWIMUSA,2124,293959.168;2124,293959.167755000,00000077,-207,-108,64113,144,62,-16165*0738bbaf
%RAWIMUSA,2124,293959.178;2124,293959.177755000,00000077,-229,-22,64113,133,79,-16169*5101a2ec
%RAWIMUSA,2124,293959.188;2124,293959.187755000,00000077,-206,-101,64161,120,85,-16171*0d78619a
%RAWIMUSA,2124,293959.198;2124,293959.197755000,00000077,-240,-89,64116,153,77,-16157*0a5dbdb8
%RAWIMUSA,2124,293959.208;2124,293959.207755000,00000077,-315,-106,64188,136,68,-16156*3a5afcff
%RAWIMUSA,2124,293959.218;2124,293959.217755000,00000077,-194,-42,64114,133,70,-16164*2cf88467
%RAWIMUSA,2124,293959.228;2124,293959.227755000,00000077,-175,-22,64160,121,78,-16165*00dc771b
%RAWIMUSA,2124,293959.238;2124,293959.237755000,00000077,-290,-159,64091,145,79,-16165*a215e993
%RAWIMUSA,2124,293959.248;2124,293959.247755000,00000077,-284,-109,64107,136,66,-16158*0e690093
%RAWIMUSA,2124,293959.258;2124,293959.257755000,00000077,-101,-65,64065,151,66,-16186*c38adcf6
%RAWIMUSA,2124,293959.268;2124,293959.267755000,00000077,-263,-132,64188,143,77,-16167*fe6656cf
%RAWIMUSA,2124,293959.278;2124,293959.277755000,00000077,-253,-53,64172,146,79,-16173*93995cab
%RAWIMUSA,2124,293959.288;2124,293959.287755000,00000077,-173,-42,64106,152,68,-16166*bb660786
%RAWIMUSA,2124,293959.298;2124,293959.297755000,00000077,-191,-129,64102,140,88,-16160*1d3786fe
%RAWIMUSA,2124,293959.308;2124,293959.307755000,00000077,-172,-117,64235,139,68,-16157*766dc056
%RAWIMUSA,2124,293959.318;2124,293959.317755000,00000077,-144,-146,64193,150,90,-16150*9425ca3b
%RAWIMUSA,2124,293959.328;2124,293959.327755000,00000077,-232,-34,64027,136,70,-16167*c8b09bba
%RAWIMUSA,2124,293959.338;2124,293959.337755000,00000077,-130,1,64169,142,67,-16172*7fe5e270
%RAWIMUSA,2124,293959.348;2124,293959.347755000,00000077,-256,-78,64100,130,78,-16163*193d7461
%RAWIMUSA,2124,293959.358;2124,293959.357755000,00000077,-244,-31,64145,133,89,-16172*4246cc35
%RAWIMUSA,2124,293959.368;2124,293959.367755000,00000077,-245,-70,64077,141,76,-16170*673ae4fe
%RAWIMUSA,2124,293959.378;2124,293959.377755000,00000077,-226,-8,64131,134,78,-16162*f8e4f1f7
%RAWIMUSA,2124,293959.388;2124,293959.387755000,00000077,-146,-22,64280,144,68,-16177*43439c70
%RAWIMUSA,2124,293959.398;2124,293959.397755000,00000077,-260,-53,64164,129,61,-16177*7f156bc7
%RAWIMUSA,2124,293959.408;2124,293959.407755000,00000077,-197,-118,64158,141,75,-16175*404ef49b
%RAWIMUSA,2124,293959.418;2124,293959.417755000,00000077,-93,-63,64142,142,76,-16161*26d140ba
%RAWIMUSA,2124,293959.428;2124,293959.427755000,00000077,-343,-96,64192,135,85,-16156*b9bf3b95
%RAWIMUSA,2124,293959.438;2124,293959.437755000,00000077,-169,-14,64188,149,67,-16173*268b7221
%RAWIMUSA,2124,293959.448;2124,293959.447755000,00000077,-248,-73,64147,141,66,-16158*0e437bb5
%RAWIMUSA,2124,293959.458;2124,293959.457755000,00000077,-262,9,64159,144,82,-16170*9c873398
%RAWIMUSA,2124,293959.468;2124,293959.467755000,00000077,-186,-33,64138,137,85,-16158*e2dfb4d7
%RAWIMUSA,2124,293959.478;2124,293959.477755000,00000077,-315,-18,64168,137,54,-16165*1350937a
%RAWIMUSA,2124,293959.488;2124,293959.487755000,00000077,-183,-14,64204,138,74,-16184*d952bc53
