%RAWIMUSA,2124,292418.808;2124,292418.807755000,00000077,379,-64093,39,-7,-4,-4*17bd963e
%RAWIMUSA,2124,292418.818;2124,292418.817755000,00000077,364,-63997,159,-14,-8,7*5d66c307
%RAWIMUSA,2124,292418.828;2124,292418.827755000,00000077,316,-63969,-56,-4,-10,5*0bc80e8b
%RAWIMUSA,2124,292418.838;2124,292418.837755000,00000077,296,-63927,42,-2,8,-7*0a5d1799
%RAWIMUSA,2124,292418.848;2124,292418.847755000,00000077,353,-63972,80,-4,5,13*d090a7b7
%RAWIMUSA,2124,292418.858;2124,292418.857755000,00000077,315,-63940,-23,10,-3,-1*79adbd56
%RAWIMUSA,2124,292418.868;2124,292418.867755000,00000077,318,-63968,51,10,-1,8*eab946cc
%RAWIMUSA,2124,292418.878;2124,292418.877755000,00000077,308,-64002,3,-5,0,0*9602148c
%RAWIMUSA,2124,292418.888;2124,292418.887755000,00000077,323,-63995,48,0,1,11*090ebfb3
%RAWIMUSA,2124,292418.898;2124,292418.897755000,00000077,284,-64046,-8,1,3,21*d371bab1
%RAWIMUSA,2124,292418.908;2124,292418.907755000,00000077,434,-64012,44,0,-4,16*62b80be3
%RAWIMUSA,2124,292418.918;2124,292418.917755000,00000077,328,-64029,54,1,0,-7*0bc24c53
%RAWIMUSA,2124,292418.928;2124,292418.927755000,00000077,313,-63927,10,7,-4,9*eb711520
%RAWIMUSA,2124,292418.938;2124,292418.937755000,00000077,375,-63849,-58,-3,-3,8*7a528882
%RAWIMUSA,2124,292418.948;2124,292418.947755000,00000077,344,-64063,14,4,-3,14*04293378
%RAWIMUSA,2124,292418.958;2124,292418.957755000,00000077,391,-63942,-1,-7,8,-3*50f6608b
%RAWIMUSA,2124,292418.968;2124,292418.967755000,00000077,448,-64043,-73,4,-8,15*8489b009
%RAWIMUSA,2124,292418.978;2124,292418.977755000,00000077,312,-64027,-18,3,1,7*f0d17f8a
%RAWIMUSA,2124,292418.988;2124,292418.987755000,00000077,456,-63948,25,11,11,0*89c2acd8
%RAWIMUSA,2124,292418.998;2124,292418.997755000,00000077,337,-64005,13,12,-1,6*593ae9a3
%RAWIMUSA,2124,292419.008;2124,292419.007755000,00000077,407,-63889,-19,4,-6,1*75a82232
%RAWIMUSA,2124,292419.018;2124,292419.017755000,00000077,337,-63982,16,0,6,-1*570ceb65
%RAWIMUSA,2124,292419.028;2124,292419.027755000,00000077,471,-63956,-49,-16,-9,-6*1409fbc7
%RAWIMUSA,2124,292419.038;2124,292419.037755000,00000077,341,-63923,65,11,-6,1*d7bb9a3b
%RAWIMUSA,2124,292419.048;2124,292419.047755000,00000077,289,-63948,26,15,-5,14*255926af
%RAWIMUSA,2124,292419.058;2124,292419.057755000,00000077,311,-63937,-11,-6,4,5*13ebf53f
%RAWIMUSA,2124,292419.068;2124,292419.067755000,00000077,361,-63987,46,21,1,20*8555da5f
%RAWIMUSA,2124,292419.078;2124,292419.077755000,00000077,211,-63940,95,17,-5,0*8fd8166d
%RAWIMUSA,2124,292419.088;2124,292419.087755000,00000077,281,-63996,49,0,0,-6*a345b689
%RAWIMUSA,2124,292419.098;2124,292419.097755000,00000077,260,-63948,-2,1,1,-1*2813a15d
%RAWIMUSA,2124,292419.108;2124,292419.107755000,00000077,318,-63928,39,0,1,-3*b9f7764b
%RAWIMUSA,2124,292419.118;2124,292419.117755000,00000077,258,-63988,-21,-7,-4,8*d9757824
%RAWIMUSA,2124,292419.128;2124,292419.127755000,00000077,351,-63965,-9,4,-15,10*560124bc
%RAWIMUSA,2124,292419.138;2124,292419.137755000,00000077,284,-63997,116,-4,3,-6*5741c6f4
%RAWIMUSA,2124,292419.148;2124,292419.147755000,00000077,363,-63998,-76,4,11,8*bdd408d4
%RAWIMUSA,2124,292419.158;2124,292419.157755000,00000077,382,-63965,-9,0,-6,2*6dc80113
%RAWIMUSA,2124,292419.168;2124,292419.167755000,00000077,330,-63961,17,-6,-6,2*92c73132
%RAWIMUSA,2124,292419.178;2124,292419.177755000,00000077,347,-64071,-63,9,5,3*3aab8c8c
%RAWIMUSA,2124,292419.188;2124,292419.187755000,00000077,215,-64024,55,-4,-10,-3*e9489460
%RAWIMUSA,2124,292419.198;2124,292419.197755000,00000077,231,-64012,-62,7,5,6*203d40e3
%RAWIMUSA,2124,292419.208;2124,292419.207755000,00000077,369,-64015,2,-19,9,-5*81f4c179
%RAWIMUSA,2124,292419.218;2124,292419.217755000,00000077,397,-63948,54,-5,2,22*d9a68ca3
%RAWIMUSA,2124,292419.228;2124,292419.227755000,00000077,353,-64068,23,4,-13,7*cfca65cd
%RAWIMUSA,2124,292419.238;2124,292419.237755000,00000077,328,-63919,-60,8,-4,0*fca6317d
%RAWIMUSA,2124,292419.248;2124,292419.247755000,00000077,272,-63934,63,1,0,13*640f7f7b
%RAWIMUSA,2124,292419.258;2124,292419.257755000,00000077,265,-64000,-60,-10,4,9*38ea69f2
%RAWIMUSA,2124,292419.268;2124,292419.267755000,00000077,249,-64047,-6,11,-9,-8*56262d37
%RAWIMUSA,2124,292419.278;2124,292419.277755000,00000077,368,-63918,1,-8,3,15*d67ce9e6
%RAWIMUSA,2124,292419.288;2124,292419.287755000,00000077,381,-64019,-8,10,12,-2*313dc96b
%RAWIMUSA,2124,292419.298;2124,292419.297755000,00000077,357,-64000,4,12,-10,13*cd2149a5
%RAWIMUSA,2124,292419.308;2124,292419.307755000,00000077,350,-63970,-109,7,-2,18*99cdab4a
%RAWIMUSA,2124,292419.318;2124,292419.317755000,00000077,348,-63916,38,-7,-8,24*7a610b04
%RAWIMUSA,2124,292419.328;2124,292419.327755000,00000077,363,-63964,-13,-5,1,3*d6408752
%RAWIMUSA,2124,292419.338;2124,292419.337755000,00000077,287,-64015,40,5,3,22*075ad17a
%RAWIMUSA,2124,292419.348;2124,292419.347755000,00000077,412,-63976,-22,9,10,18*7842045a
%RAWIMUSA,2124,292419.358;2124,292419.357755000,00000077,292,-63949,15,9,5,-7*3740aedd
%RAWIMUSA,2124,292419.368;2124,292419.367755000,00000077,282,-63941,44,6,4,11*d5a45d74
%RAWIMUSA,2124,292419.378;2124,292419.377755000,00000077,364,-64017,14,-2,1,4*c6a2cc3a
%RAWIMUSA,2124,292419.388;2124,292419.387755000,00000077,310,-63899,47,-2,5,8*8e4b0471
%RAWIMUSA,2124,292419.398;2124,292419.397755000,00000077,380,-63847,-18,-6,-8,5*189a1c5d
%RAWIMUSA,2124,292419.408;2124,292419.407755000,00000077,291,-64024,2,-8,15,3*a3492dfd
%RAWIMUSA,2124,292419.418;2124,292419.417755000,00000077,333,-64028,-11,-6,0,3*1620d623
%RAWIMUSA,2124,292419.428;2124,292419.427755000,00000077,388,-63968,61,-10,0,12*c0ff652b
%RAWIMUSA,2124,292419.438;2124,292419.437755000,00000077,309,-63949,-3,-3,25,21*3ec05070
%RAWIMUSA,2124,292419.448;2124,292419.447755000,00000077,383,-64044,-17,5,-10,-5*31796c86
%RAWIMUSA,2124,292419.458;2124,292419.457755000,00000077,352,-63923,-5,23,-13,2*c46e26b3
%RAWIMUSA,2124,292419.468;2124,292419.467755000,00000077,209,-63964,16,4,11,-2*3d35d8e8
%RAWIMUSA,2124,292419.478;2124,292419.477755000,00000077,260,-63938,58,16,5,-3*42b31f8b
%RAWIMUSA,2124,292419.488;2124,292419.487755000,00000077,398,-64002,-69,0,4,-8*f350e45f
%RAWIMUSA,2124,292419.498;2124,292419.497755000,00000077,376,-63933,3,6,-3,10*ddc4c867
%RAWIMUSA,2124,292419.508;2124,292419.507755000,00000077,312,-63919,16,-5,8,22*72817084
%RAWIMUSA,2124,292419.518;2124,292419.517755000,00000077,366,-64076,-46,-3,1,10*f4f624f3
%RAWIMUSA,2124,292419.528;2124,292419.527755000,00000077,354,-63920,37,-12,-16,4*165687e4
%RAWIMUSA,2124,292419.538;2124,292419.537755000,00000077,307,-63894,-36,-8,-3,2*d40521cb
%RAWIMUSA,2124,292419.548;2124,292419.547755000,00000077,325,-64050,58,9,8,18*6566cb5e
%RAWIMUSA,2124,292419.558;2124,292419.557755000,00000077,262,-63892,-87,-4,-1,15*02c93fe6
%RAWIMUSA,2124,292419.568;2124,292419.567755000,00000077,299,-64024,-8,1,-9,1*b1b45650
%RAWIMUSA,2124,292419.578;2124,292419.577755000,00000077,328,-63898,28,7,14,1*ee2a4e22
%RAWIMUSA,2124,292419.588;2124,292419.587755000,00000077,408,-63934,-58,19,5,21*5d368efd
%RAWIMUSA,2124,292419.598;2124,292419.597755000,00000077,281,-64017,2,-3,7,-3*857c443e
%RAWIMUSA,2124,292419.608;2124,292419.607755000,00000077,405,-63985,6,-4,-8,-5*15fa6e82
%RAWIMUSA,2124,292419.618;2124,292419.617755000,00000077,311,-63910,81,-2,12,-8*a8fca020
%RAWIMUSA,2124,292419.628;2124,292419.627755000,00000077,373,-63912,-30,-7,4,14*0f07e879
%RAWIMUSA,2124,292419.638;2124,292419.637755000,00000077,373,-63936,21,3,0,9*9dc6c147
%RAWIMUSA,2124,292419.648;2124,292419.647755000,00000077,258,-63843,62,-5,8,3*c092c533
%RAWIMUSA,2124,292419.658;2124,292419.657755000,00000077,388,-63963,-23,7,4,17*56751176
%RAWIMUSA,2124,292419.668;2124,292419.667755000,00000077,368,-63986,-57,0,13,24*4278435b
%RAWIMUSA,2124,292419.678;2124,292419.677755000,00000077,281,-63981,-110,-3,4,18*802a857f
%RAWIMUSA,2124,292419.688;2124,292419.687755000,00000077,412,-63961,-35,12,5,2*50a7c241
%RAWIMUSA,2124,292419.698;2124,292419.697755000,00000077,334,-63878,5,12,16,-4*0f80f66d
%RAWIMUSA,2124,292419.708;2124,292419.707755000,00000077,369,-63987,-23,0,-23,1*03fe9231
%RAWIMUSA,2124,292419.718;2124,292419.717755000,00000077,316,-63950,-79,6,4,16*4c668bab
%RAWIMUSA,2124,292419.728;2124,292419.727755000,00000077,309,-64016,-69,0,-4,6*c4b8a15b
%RAWIMUSA,2124,292419.738;2124,292419.737755000,00000077,403,-63980,13,0,1,13*847b2cb3
%RAWIMUSA,2124,292419.748;2124,292419.747755000,00000077,243,-64014,0,1,-1,27*e5e542d1
%RAWIMUSA,2124,292419.758;2124,292419.757755000,00000077,284,-63926,-63,2,-2,4*934075ef
%RAWIMUSA,2124,292419.768;2124,292419.767755000,00000077,381,-63984,-2,9,6,11*da1039c5
%RAWIMUSA,2124,292419.778;2124,292419.777755000,00000077,247,-63875,16,4,-3,17*c5147629
%RAWIMUSA,2124,292419.788;2124,292419.787755000,00000077,364,-63955,21,22,0,18*aa46ae5f
%RAWIMUSA,2124,292419.798;2124,292419.797755000,00000077,363,-64050,0,-1,5,-2*3caa2c73
%RAWIMUSA,2124,292419.808;2124,292419.807755000,00000077,347,-63837,-5,7,3,22*240805d1
%RAWIMUSA,2124,292419.818;2124,292419.817755000,00000077,382,-63940,-4,-11,-15,20*119d36ab
%RAWIMUSA,2124,292419.828;2124,292419.827755000,00000077,289,-64010,-19,11,-4,-7*b789c414
%RAWIMUSA,2124,292419.838;2124,292419.837755000,00000077,319,-63997,1,0,10,-17*53f6625d
%RAWIMUSA,2124,292419.848;2124,292419.847755000,00000077,360,-63910,33,1,-3,18*7a00b871
%RAWIMUSA,2124,292419.858;2124,292419.857755000,00000077,394,-64101,25,-15,3,-7*9a8c6a4d
%RAWIMUSA,2124,292419.868;2124,292419.867755000,00000077,326,-63921,57,2,11,15*46f9fc8b
%RAWIMUSA,2124,292419.878;2124,292419.877755000,00000077,358,-64055,0,14,-4,17*247ad4ff
%RAWIMUSA,2124,292419.888;2124,292419.887755000,00000077,420,-63920,-14,-3,4,-1*8ec777e4
%RAWIMUSA,2124,292419.898;2124,292419.897755000,00000077,353,-64024,-11,-6,20,14*da871db6
%RAWIMUSA,2124,292419.908;2124,292419.907755000,00000077,305,-64018,18,3,-13,9*0c5f640a
%RAWIMUSA,2124,292419.918;2124,292419.917755000,00000077,376,-64123,62,3,16,-6*a27bce7f
%RAWIMUSA,2124,292419.928;2124,292419.927755000,00000077,289,-63961,-71,16,4,7*9ef0f9dc
%RAWIMUSA,2124,292419.938;2124,292419.937755000,00000077,304,-64000,54,7,0,16*8046f148
%RAWIMUSA,2124,292419.948;2124,292419.947755000,00000077,305,-64108,-22,9,17,9*1cf48ede
%RAWIMUSA,2124,292419.958;2124,292419.957755000,00000077,325,-64004,31,10,-4,-8*a4b9ff01
%RAWIMUSA,2124,292419.968;2124,292419.967755000,00000077,349,-63986,-85,-2,18,18*c72b5c62
%RAWIMUSA,2124,292419.978;2124,292419.977755000,00000077,305,-63877,22,0,6,-4*c246aec0
%RAWIMUSA,2124,292419.988;2124,292419.987755000,00000077,392,-63859,-68,5,-10,4*0088416a
%RAWIMUSA,2124,292419.998;2124,292419.997755000,00000077,305,-63948,40,0,-14,-1*c553ad59
%RAWIMUSA,2124,292420.008;2124,292420.007755000,00000077,301,-63875,13,-7,-7,7*e7ba2bf5
%RAWIMUSA,2124,292420.018;2124,292420.017755000,00000077,408,-63977,52,5,5,3*d9a56341
%RAWIMUSA,2124,292420.028;2124,292420.027755000,00000077,343,-63920,-100,-9,10,6*36502118
%RAWIMUSA,2124,292420.038;2124,292420.037755000,00000077,326,-63966,-21,1,2,19*587606cf
%RAWIMUSA,2124,292420.048;2124,292420.047755000,00000077,295,-63981,4,23,10,0*0dcc81d6
%RAWIMUSA,2124,292420.058;2124,292420.057755000,00000077,335,-63892,-16,1,0,0*9d539ea7
%RAWIMUSA,2124,292420.068;2124,292420.067755000,00000077,368,-63934,6,2,6,16*1f5623a8
%RAWIMUSA,2124,292420.078;2124,292420.077755000,00000077,390,-63956,41,7,9,5*34bda1b3
%RAWIMUSA,2124,292420.088;2124,292420.087755000,00000077,403,-63910,-38,2,10,2*d124e530
%RAWIMUSA,2124,292420.098;2124,292420.097755000,00000077,310,-64008,11,1,10,14*0b0a76a0
%RAWIMUSA,2124,292420.108;2124,292420.107755000,00000077,367,-63986,-43,9,11,10*44126cdd
%RAWIMUSA,2124,292420.118;2124,292420.117755000,00000077,383,-63818,-11,1,-4,2*181cd3c9
%RAWIMUSA,2124,292420.128;2124,292420.127755000,00000077,281,-63999,-20,0,10,0*d7f72f30
%RAWIMUSA,2124,292420.138;2124,292420.137755000,00000077,409,-63963,55,3,-12,0*b4173f84
%RAWIMUSA,2124,292420.148;2124,292420.147755000,00000077,340,-63941,-37,12,-1,9*153368b3
%RAWIMUSA,2124,292420.158;2124,292420.157755000,00000077,312,-63929,81,-14,5,8*6c0cc6fa
%RAWIMUSA,2124,292420.168;2124,292420.167755000,00000077,398,-63926,-12,13,3,0*fd7e1717
%RAWIMUSA,2124,292420.178;2124,292420.177755000,00000077,354,-64024,11,-4,1,19*08778b7b
%RAWIMUSA,2124,292420.188;2124,292420.187755000,00000077,316,-63971,7,2,8,18*5bad9d91
%RAWIMUSA,2124,292420.198;2124,292420.197755000,00000077,332,-63948,-39,15,18,7*9431155e
%RAWIMUSA,2124,292420.208;2124,292420.207755000,00000077,234,-63980,-184,6,68,-6*d3137caa
%RAWIMUSA,2124,292420.218;2124,292420.217755000,00000077,255,-64005,-349,-2,334,15*28cf748d
%RAWIMUSA,2124,292420.228;2124,292420.227755000,00000077,302,-64083,-279,-3,622,-20*0c34d3a8
%RAWIMUSA,2124,292420.238;2124,292420.237755000,00000077,356,-64071,38,0,660,3*60cf5acf
%RAWIMUSA,2124,292420.248;2124,292420.247755000,00000077,420,-64035,-87,15,728,-1*ff764f22
%RAWIMUSA,2124,292420.258;2124,292420.257755000,00000077,330,-63986,-8,3,757,14*b16833eb
%RAWIMUSA,2124,292420.268;2124,292420.267755000,00000077,350,-63935,-99,2,792,-1*ce3d1e4e
%RAWIMUSA,2124,292420.278;2124,292420.277755000,00000077,331,-63950,-148,1,924,8*bf3811e0
%RAWIMUSA,2124,292420.288;2124,292420.287755000,00000077,351,-64002,21,-6,968,10*aee21c5e
%RAWIMUSA,2124,292420.298;2124,292420.297755000,00000077,313,-63997,-151,7,1100,11*61a622a3
%RAWIMUSA,2124,292420.308;2124,292420.307755000,00000077,287,-64019,-154,8,1236,15*c9004bea
%RAWIMUSA,2124,292420.318;2124,292420.317755000,00000077,291,-64046,-117,4,1328,9*ad1e7fc7
%RAWIMUSA,2124,292420.328;2124,292420.327755000,00000077,296,-63936,-119,5,1475,12*f1d7a8e9
%RAWIMUSA,2124,292420.338;2124,292420.337755000,00000077,308,-64024,-108,3,1529,10*f836b6ca
%RAWIMUSA,2124,292420.348;2124,292420.347755000,00000077,352,-64061,-190,0,1621,-1*f3432e09
%RAWIMUSA,2124,292420.358;2124,292420.357755000,00000077,359,-63977,-58,-2,1725,-2*2eb9b01c
%RAWIMUSA,2124,292420.368;2124,292420.367755000,00000077,337,-63958,-97,4,1794,17*bbcd72ce
%RAWIMUSA,2124,292420.378;2124,292420.377755000,00000077,336,-64021,-169,8,1942,17*937cfc04
%RAWIMUSA,2124,292420.388;2124,292420.387755000,00000077,230,-63941,65,-6,2000,15*fa393696
%RAWIMUSA,2124,292420.398;2124,292420.397755000,00000077,379,-63942,-147,2,2085,13*9e3bf851
%RAWIMUSA,2124,292420.408;2124,292420.407755000,00000077,271,-63939,21,15,2190,9*727b5176
%RAWIMUSA,2124,292420.418;2124,292420.417755000,00000077,325,-63941,-21,4,2196,3*a8de35f0
%RAWIMUSA,2124,292420.428;2124,292420.427755000,00000077,352,-64007,-90,11,2345,13*e244a4da
%RAWIMUSA,2124,292420.438;2124,292420.437755000,00000077,315,-64006,32,-9,2395,20*5d65684c
%RAWIMUSA,2124,292420.448;2124,292420.447755000,00000077,377,-63919,-76,0,2479,20*2b741882
%RAWIMUSA,2124,292420.458;2124,292420.457755000,00000077,342,-64060,-116,15,2589,0*8157edc5
%RAWIMUSA,2124,292420.468;2124,292420.467755000,00000077,248,-63978,-3,-9,2606,8*2f5dc64e
%RAWIMUSA,2124,292420.478;2124,292420.477755000,00000077,277,-63974,-212,-10,2751,11*0ec637e1
%RAWIMUSA,2124,292420.488;2124,292420.487755000,00000077,273,-63953,-99,-1,2790,12*e1f74453
%RAWIMUSA,2124,292420.498;2124,292420.497755000,00000077,305,-64029,-95,0,2837,4*d1611f48
%RAWIMUSA,2124,292420.508;2124,292420.507755000,00000077,343,-63947,-23,-2,2959,0*a6e5a3de
%RAWIMUSA,2124,292420.518;2124,292420.517755000,00000077,318,-64044,-98,-10,3014,27*79b5d975
%RAWIMUSA,2124,292420.528;2124,292420.527755000,00000077,354,-63962,-87,4,3125,3*56d89429
%RAWIMUSA,2124,292420.538;2124,292420.537755000,00000077,332,-64019,104,0,3190,-14*33bf8776
%RAWIMUSA,2124,292420.548;2124,292420.547755000,00000077,319,-63941,-33,5,3258,4*92f8fa54
%RAWIMUSA,2124,292420.558;2124,292420.557755000,00000077,376,-63972,-91,-13,3377,15*57bd710d
%RAWIMUSA,2124,292420.568;2124,292420.567755000,00000077,314,-63998,44,-10,3401,3*85ff650d
%RAWIMUSA,2124,292420.578;2124,292420.577755000,00000077,207,-63951,-87,9,3499,-1*b2de70f0
%RAWIMUSA,2124,292420.588;2124,292420.587755000,00000077,328,-63960,-104,5,3592,-2*86dac58c
%RAWIMUSA,2124,292420.598;2124,292420.597755000,00000077,286,-64040,-88,-7,3636,22*57ce8de2
%RAWIMUSA,2124,292420.608;2124,292420.607755000,00000077,265,-63952,-172,7,3758,3*1ab429d3
%RAWIMUSA,2124,292420.618;2124,292420.617755000,00000077,299,-63979,-106,-23,3788,10*fa4e853e
%RAWIMUSA,2124,292420.628;2124,292420.627755000,00000077,296,-63983,-130,-10,3907,1*08aed31b
%RAWIMUSA,2124,292420.638;2124,292420.637755000,00000077,339,-63879,-127,-13,3975,0*8d546d83
%RAWIMUSA,2124,292420.648;2124,292420.647755000,00000077,306,-63973,-130,-12,3970,5*621683a8
%RAWIMUSA,2124,292420.658;2124,292420.657755000,00000077,366,-63948,-140,8,4125,2*ad125dcc
%RAWIMUSA,2124,292420.668;2124,292420.667755000,00000077,383,-63878,-26,0,4156,13*07134d3c
%RAWIMUSA,2124,292420.678;2124,292420.677755000,00000077,306,-63967,-120,-14,4240,15*89b3ee95
%RAWIMUSA,2124,292420.688;2124,292420.687755000,00000077,367,-63927,-81,-7,4323,2*1c8fa51a
%RAWIMUSA,2124,292420.698;2124,292420.697755000,00000077,307,-63922,-92,-9,4335,1*1bc990a7
%RAWIMUSA,2124,292420.708;2124,292420.707755000,00000077,249,-63968,-113,-10,4468,0*5a9b222e
%RAWIMUSA,2124,292420.718;2124,292420.717755000,00000077,232,-63925,-6,-1,4487,7*0cfe3b48
%RAWIMUSA,2124,292420.728;2124,292420.727755000,00000077,335,-63903,-54,-12,4563,0*01802416
%RAWIMUSA,2124,292420.738;2124,292420.737755000,00000077,341,-63966,2,2,4682,-3*103cc14e
%RAWIMUSA,2124,292420.748;2124,292420.747755000,00000077,248,-63876,-72,-20,4708,-5*324281f1
%RAWIMUSA,2124,292420.758;2124,292420.757755000,00000077,342,-63930,-212,0,4845,-1*0a740e78
%RAWIMUSA,2124,292420.768;2124,292420.767755000,00000077,213,-63919,-16,-9,4913,13*ff158c4c
%RAWIMUSA,2124,292420.778;2124,292420.777755000,00000077,315,-63899,-61,-19,4926,4*06fb2407
%RAWIMUSA,2124,292420.788;2124,292420.787755000,00000077,269,-64012,-112,1,5075,1*b1ec2936
%RAWIMUSA,2124,292420.798;2124,292420.797755000,00000077,313,-63983,-77,-19,5111,8*ecf3349f
%RAWIMUSA,2124,292420.808;2124,292420.807755000,00000077,251,-63936,-122,-1,5225,-1*7b1c7d58
%RAWIMUSA,2124,292420.818;2124,292420.817755000,00000077,279,-63908,1,-5,5324,11*ab13afd1
%RAWIMUSA,2124,292420.828;2124,292420.827755000,00000077,237,-64008,-72,-25,5398,12*486d21fc
%RAWIMUSA,2124,292420.838;2124,292420.837755000,00000077,268,-63960,8,-13,5519,5*2e9a9626
%RAWIMUSA,2124,292420.848;2124,292420.847755000,00000077,313,-63974,10,-6,5537,-7*e74f6f99
%RAWIMUSA,2124,292420.858;2124,292420.857755000,00000077,253,-63855,-112,-7,5681,-7*8424ca44
%RAWIMUSA,2124,292420.868;2124,292420.867755000,00000077,357,-63980,35,-3,5769,6*d65cbdc2
%RAWIMUSA,2124,292420.878;2124,292420.877755000,00000077,339,-63973,-96,-10,5803,6*d8dfec02
%RAWIMUSA,2124,292420.888;2124,292420.887755000,00000077,278,-64026,-75,-11,5937,9*284b0051
%RAWIMUSA,2124,292420.898;2124,292420.897755000,00000077,208,-64008,-72,-5,5968,-15*656ac704
%RAWIMUSA,2124,292420.908;2124,292420.907755000,00000077,332,-63972,-92,-7,6109,-4*85af3f3f
%RAWIMUSA,2124,292420.918;2124,292420.917755000,00000077,378,-63998,-58,-17,6170,0*b0568785
%RAWIMUSA,2124,292420.928;2124,292420.927755000,00000077,401,-64108,25,-18,6197,-10*5b9feed4
%RAWIMUSA,2124,292420.938;2124,292420.937755000,00000077,327,-63988,-83,-10,6343,10*c6d8fa87
%RAWIMUSA,2124,292420.948;2124,292420.947755000,00000077,342,-63990,-35,-7,6391,-3*9e83e80a
%RAWIMUSA,2124,292420.958;2124,292420.957755000,00000077,308,-64030,-180,-9,6461,10*631f2f30
%RAWIMUSA,2124,292420.968;2124,292420.967755000,00000077,321,-63979,-53,-19,6535,17*16e49555
%RAWIMUSA,2124,292420.978;2124,292420.977755000,00000077,186,-63986,-92,-16,6569,11*1d526f73
%RAWIMUSA,2124,292420.988;2124,292420.987755000,00000077,378,-63894,-138,-4,6700,7*77b97364
%RAWIMUSA,2124,292420.998;2124,292420.997755000,00000077,324,-63907,76,-13,6716,0*4aab059d
%RAWIMUSA,2124,292421.008;2124,292421.007755000,00000077,278,-64003,-141,-19,6818,16*14a8940e
%RAWIMUSA,2124,292421.018;2124,292421.017755000,00000077,201,-63896,46,-3,6918,6*3b6b8789
%RAWIMUSA,2124,292421.028;2124,292421.027755000,00000077,363,-63944,-116,-22,6926,3*a9e3a9ca
%RAWIMUSA,2124,292421.038;2124,292421.037755000,00000077,281,-63943,-128,-14,7101,7*e862fe04
%RAWIMUSA,2124,292421.048;2124,292421.047755000,00000077,321,-63991,0,-16,7165,8*ea55b759
%RAWIMUSA,2124,292421.058;2124,292421.057755000,00000077,290,-63960,-73,-14,7262,0*900f354b
%RAWIMUSA,2124,292421.068;2124,292421.067755000,00000077,367,-64044,-105,-12,7414,21*aa06ddef
%RAWIMUSA,2124,292421.078;2124,292421.077755000,00000077,315,-63996,53,-22,7437,10*5069510f
%RAWIMUSA,2124,292421.088;2124,292421.087755000,00000077,283,-63893,-97,-23,7584,23*5f2e2545
%RAWIMUSA,2124,292421.098;2124,292421.097755000,00000077,281,-63943,31,-21,7664,19*cd6d082b
%RAWIMUSA,2124,292421.108;2124,292421.107755000,00000077,334,-63925,-101,-8,7731,10*5f8f1335
%RAWIMUSA,2124,292421.118;2124,292421.117755000,00000077,360,-63912,-50,-11,7867,10*852949d6
%RAWIMUSA,2124,292421.128;2124,292421.127755000,00000077,329,-63990,-22,-22,7881,0*18fadeda
%RAWIMUSA,2124,292421.138;2124,292421.137755000,00000077,300,-63948,-161,0,7978,-6*5f57506e
%RAWIMUSA,2124,292421.148;2124,292421.147755000,00000077,408,-63961,-11,-18,8076,14*734cca5e
%RAWIMUSA,2124,292421.158;2124,292421.157755000,00000077,330,-64012,-122,-16,8136,10*02f0781b
%RAWIMUSA,2124,292421.168;2124,292421.167755000,00000077,281,-64031,-81,-26,8265,13*8310c1d4
%RAWIMUSA,2124,292421.178;2124,292421.177755000,00000077,225,-64060,66,-9,8303,5*7d4a0c05
%RAWIMUSA,2124,292421.188;2124,292421.187755000,00000077,272,-64018,-92,-34,8397,15*f3331db6
%RAWIMUSA,2124,292421.198;2124,292421.197755000,00000077,346,-63925,7,-25,8480,4*a4ef9599
%RAWIMUSA,2124,292421.208;2124,292421.207755000,00000077,290,-63988,-64,-13,8493,2*45ec6300
%RAWIMUSA,2124,292421.218;2124,292421.217755000,00000077,340,-63955,-88,-15,8610,-3*ab3766ff
%RAWIMUSA,2124,292421.228;2124,292421.227755000,00000077,345,-64002,-34,-5,8645,3*194d02ec
%RAWIMUSA,2124,292421.238;2124,292421.237755000,00000077,290,-63973,-204,-29,8705,7*832d0144
%RAWIMUSA,2124,292421.248;2124,292421.247755000,00000077,275,-64023,-12,1,8835,12*909dcab4
%RAWIMUSA,2124,292421.258;2124,292421.257755000,00000077,193,-63897,-103,-25,8877,11*c17002e0
%RAWIMUSA,2124,292421.268;2124,292421.267755000,00000077,245,-64113,0,-24,8992,7*2dd2a206
%RAWIMUSA,2124,292421.278;2124,292421.277755000,00000077,239,-63937,-19,-18,9095,16*478aceac
%RAWIMUSA,2124,292421.288;2124,292421.287755000,00000077,231,-63971,-157,-16,9185,-3*3fc58c72
%RAWIMUSA,2124,292421.298;2124,292421.297755000,00000077,335,-63910,9,-11,9284,14*41ab774d
%RAWIMUSA,2124,292421.308;2124,292421.307755000,00000077,293,-63851,-85,-16,9324,12*2dea12fb
%RAWIMUSA,2124,292421.318;2124,292421.317755000,00000077,311,-63930,-97,-13,9465,13*11fe7a5e
%RAWIMUSA,2124,292421.328;2124,292421.327755000,00000077,328,-63924,-21,-20,9458,25*5bffeec1
%RAWIMUSA,2124,292421.338;2124,292421.337755000,00000077,373,-64012,-133,-19,9524,-2*c0c29f32
%RAWIMUSA,2124,292421.348;2124,292421.347755000,00000077,284,-63922,-57,-25,9650,13*f6b71bb8
%RAWIMUSA,2124,292421.358;2124,292421.357755000,00000077,388,-63912,36,-11,9682,3*726931c6
%RAWIMUSA,2124,292421.368;2124,292421.367755000,00000077,267,-63937,-16,-24,9814,-5*74be9625
%RAWIMUSA,2124,292421.378;2124,292421.377755000,00000077,200,-63992,94,-12,9863,10*1d6af1e7
%RAWIMUSA,2124,292421.388;2124,292421.387755000,00000077,272,-63927,-72,-26,9918,3*f115e0d0
%RAWIMUSA,2124,292421.398;2124,292421.397755000,00000077,318,-63994,-121,-24,10064,10*a7f214ea
%RAWIMUSA,2124,292421.408;2124,292421.407755000,00000077,341,-63970,-117,-26,10098,5*6011bedb
%RAWIMUSA,2124,292421.418;2124,292421.417755000,00000077,375,-64025,-203,-28,10249,-5*c558bd06
%RAWIMUSA,2124,292421.428;2124,292421.427755000,00000077,271,-64011,-32,-19,10362,6*1d801f1d
%RAWIMUSA,2124,292421.438;2124,292421.437755000,00000077,301,-64069,-125,-21,10432,16*9277b613
%RAWIMUSA,2124,292421.448;2124,292421.447755000,00000077,335,-64018,-7,-11,10567,-1*58d61102
%RAWIMUSA,2124,292421.458;2124,292421.457755000,00000077,286,-63960,1,-21,10606,-15*ba5e41a6
%RAWIMUSA,2124,292421.468;2124,292421.467755000,00000077,277,-63991,-94,-25,10712,4*496fbd3d
%RAWIMUSA,2124,292421.478;2124,292421.477755000,00000077,255,-64004,21,-15,10786,24*4290edf5
%RAWIMUSA,2124,292421.488;2124,292421.487755000,00000077,329,-64015,-84,-27,10802,0*02c1f2a0
%RAWIMUSA,2124,292421.498;2124,292421.497755000,00000077,248,-63976,-11,-22,10926,-1*9ee325b8
%RAWIMUSA,2124,292421.508;2124,292421.507755000,00000077,338,-63942,-110,-22,10969,12*4e29c28f
%RAWIMUSA,2124,292421.518;2124,292421.517755000,00000077,254,-64024,-124,-29,11064,11*998e4d34
%RAWIMUSA,2124,292421.528;2124,292421.527755000,00000077,264,-63989,29,-24,11126,11*e3bc4834
%RAWIMUSA,2124,292421.538;2124,292421.537755000,00000077,244,-63935,-48,-28,11155,10*51f2e903
%RAWIMUSA,2124,292421.548;2124,292421.547755000,00000077,322,-64068,-31,-17,11305,-1*08f4d454
%RAWIMUSA,2124,292421.558;2124,292421.557755000,00000077,350,-63981,-41,-28,11327,10*d17e4d3d
%RAWIMUSA,2124,292421.568;2124,292421.567755000,00000077,333,-63990,-73,-14,11422,-8*ebdb840c
%RAWIMUSA,2124,292421.578;2124,292421.577755000,00000077,333,-64026,26,-29,11496,-4*471299d8
%RAWIMUSA,2124,292421.588;2124,292421.587755000,00000077,296,-63886,-96,-20,11564,13*58165bcb
%RAWIMUSA,2124,292421.598;2124,292421.597755000,00000077,341,-63995,-54,-19,11692,-4*7ee2f007
%RAWIMUSA,2124,292421.608;2124,292421.607755000,00000077,264,-63968,60,-34,11713,3*92066398
%RAWIMUSA,2124,292421.618;2124,292421.617755000,00000077,265,-64086,-53,-23,11775,8*abfcee17
%RAWIMUSA,2124,292421.628;2124,292421.627755000,00000077,351,-63941,22,-32,11848,26*e46bbd99
%RAWIMUSA,2124,292421.638;2124,292421.637755000,00000077,261,-63943,-27,-30,11885,15*d6095bf5
%RAWIMUSA,2124,292421.648;2124,292421.647755000,00000077,351,-63931,-157,-35,12066,2*48de1a92
%RAWIMUSA,2124,292421.658;2124,292421.657755000,00000077,395,-63975,64,-12,12180,-2*fa62d94f
%RAWIMUSA,2124,292421.668;2124,292421.667755000,00000077,328,-63981,-142,-21,12256,6*89bb6546
%RAWIMUSA,2124,292421.678;2124,292421.677755000,00000077,323,-64027,-105,-29,12395,16*8426e6a1
%RAWIMUSA,2124,292421.688;2124,292421.687755000,00000077,361,-63895,-31,-45,12443,4*c308f814
%RAWIMUSA,2124,292421.698;2124,292421.697755000,00000077,274,-63912,-85,-16,12550,4*bed88771
%RAWIMUSA,2124,292421.708;2124,292421.707755000,00000077,381,-63881,-7,-23,12597,-6*c34a561a
%RAWIMUSA,2124,292421.718;2124,292421.717755000,00000077,363,-63941,-27,-19,12626,17*9ab285ab
%RAWIMUSA,2124,292421.728;2124,292421.727755000,00000077,267,-63969,-52,-22,12759,18*1afa2bcb
%RAWIMUSA,2124,292421.738;2124,292421.737755000,00000077,273,-63971,-34,-20,12762,9*6321833f
%RAWIMUSA,2124,292421.748;2124,292421.747755000,00000077,279,-63945,-165,-33,12850,16*3129bf31
%RAWIMUSA,2124,292421.758;2124,292421.757755000,00000077,256,-63944,-11,-33,12942,3*f5246ce8
%RAWIMUSA,2124,292421.768;2124,292421.767755000,00000077,261,-63974,-146,-14,12993,-4*40252e10
%RAWIMUSA,2124,292421.778;2124,292421.777755000,00000077,284,-63979,-74,-19,13163,-4*0562154a
%RAWIMUSA,2124,292421.788;2124,292421.787755000,00000077,314,-63939,9,-32,13220,8*7fef0a53
%RAWIMUSA,2124,292421.798;2124,292421.797755000,00000077,227,-63947,-119,-38,13362,-1*90e6856b
%RAWIMUSA,2124,292421.808;2124,292421.807755000,00000077,338,-63906,-25,-23,13471,29*6df90a13
%RAWIMUSA,2124,292421.818;2124,292421.817755000,00000077,286,-63993,-118,-25,13517,0*9856e0f7
%RAWIMUSA,2124,292421.828;2124,292421.827755000,00000077,266,-63983,-18,-41,13619,-18*ef58dabe
%RAWIMUSA,2124,292421.838;2124,292421.837755000,00000077,305,-63914,-48,-39,13617,15*00ed1399
%RAWIMUSA,2124,292421.848;2124,292421.847755000,00000077,203,-64026,-105,-19,13737,7*c446bdb3
%RAWIMUSA,2124,292421.858;2124,292421.857755000,00000077,322,-63989,-21,-28,13826,16*a0a811b2
%RAWIMUSA,2124,292421.868;2124,292421.867755000,00000077,390,-64010,-1,-23,13844,14*6d247793
%RAWIMUSA,2124,292421.878;2124,292421.877755000,00000077,192,-63978,-103,-30,13951,-7*3e6a7dd0
%RAWIMUSA,2124,292421.888;2124,292421.887755000,00000077,220,-63993,-15,-29,14086,-11*783512e1
%RAWIMUSA,2124,292421.898;2124,292421.897755000,00000077,183,-63934,-230,-31,14206,5*d3ae60f2
%RAWIMUSA,2124,292421.908;2124,292421.907755000,00000077,260,-64035,-48,-29,14316,8*529c8d92
%RAWIMUSA,2124,292421.918;2124,292421.917755000,00000077,289,-63941,-36,-25,14321,-3*eb06b0bc
%RAWIMUSA,2124,292421.928;2124,292421.927755000,00000077,231,-63917,-133,-37,14441,15*c8f7ccd9
%RAWIMUSA,2124,292421.938;2124,292421.937755000,00000077,243,-64034,20,-46,14489,16*35e26f2c
%RAWIMUSA,2124,292421.948;2124,292421.947755000,00000077,245,-63901,-119,-26,14558,13*27d9f103
%RAWIMUSA,2124,292421.958;2124,292421.957755000,00000077,321,-64018,-11,-36,14668,25*6a3195ec
%RAWIMUSA,2124,292421.968;2124,292421.967755000,00000077,303,-63941,38,-25,14663,5*87e6ce93
%RAWIMUSA,2124,292421.978;2124,292421.977755000,00000077,212,-64000,-109,-19,14782,3*dd4eebd9
%RAWIMUSA,2124,292421.988;2124,292421.987755000,00000077,353,-63990,-67,-33,14812,5*d9dd9d17
%RAWIMUSA,2124,292421.998;2124,292421.997755000,00000077,287,-63937,-156,-39,14876,17*cefbbf86
%RAWIMUSA,2124,292422.008;2124,292422.007755000,00000077,287,-63967,-110,-34,15051,5*18ed0e92
%RAWIMUSA,2124,292422.018;2124,292422.017755000,00000077,239,-63973,-23,-23,15100,11*c60e04ff
%RAWIMUSA,2124,292422.028;2124,292422.027755000,00000077,246,-63904,-154,-17,15232,5*6bc684b8
%RAWIMUSA,2124,292422.038;2124,292422.037755000,00000077,344,-63917,-8,-44,15266,7*c2f63b87
%RAWIMUSA,2124,292422.048;2124,292422.047755000,00000077,280,-63969,-140,-24,15286,3*0ff844a3
%RAWIMUSA,2124,292422.058;2124,292422.057755000,00000077,265,-64027,-83,-21,15384,-3*2e9ea963
%RAWIMUSA,2124,292422.068;2124,292422.067755000,00000077,241,-63982,-30,-40,15392,14*b4bb8cd6
%RAWIMUSA,2124,292422.078;2124,292422.077755000,00000077,258,-63887,-131,-32,15506,-2*bf9381e2
%RAWIMUSA,2124,292422.088;2124,292422.087755000,00000077,302,-63976,-37,-20,15633,13*d0828cb1
%RAWIMUSA,2124,292422.098;2124,292422.097755000,00000077,275,-63999,-109,-36,15699,14*428ffadb
%RAWIMUSA,2124,292422.108;2124,292422.107755000,00000077,360,-64013,-190,-37,15877,0*2f937cf0
%RAWIMUSA,2124,292422.118;2124,292422.117755000,00000077,347,-63934,80,-30,15927,18*845cd30a
%RAWIMUSA,2124,292422.128;2124,292422.127755000,00000077,242,-64006,-68,-32,16048,9*7abd1b90
%RAWIMUSA,2124,292422.138;2124,292422.137755000,00000077,466,-64027,-82,-26,16118,13*64f2adf0
%RAWIMUSA,2124,292422.148;2124,292422.147755000,00000077,266,-63883,-187,-33,16160,-25*484cc585
%RAWIMUSA,2124,292422.158;2124,292422.157755000,00000077,269,-63992,-5,-46,16287,37*75df3f1e
%RAWIMUSA,2124,292422.168;2124,292422.167755000,00000077,312,-63975,-50,-33,16303,-21*a4f35206
%RAWIMUSA,2124,292422.178;2124,292422.177755000,00000077,477,-63936,32,-31,16265,29*1a10dc38
%RAWIMUSA,2124,292422.188;2124,292422.187755000,00000077,268,-63991,9,-24,16213,-12*1b25aa14
%RAWIMUSA,2124,292422.198;2124,292422.197755000,00000077,340,-64012,-32,-48,16164,16*0ca718a2
%RAWIMUSA,2124,292422.208;2124,292422.207755000,00000077,251,-63973,30,-10,16152,-6*dbb8d800
%RAWIMUSA,2124,292422.218;2124,292422.217755000,00000077,268,-63932,-22,-35,16159,29*108aa15b
%RAWIMUSA,2124,292422.228;2124,292422.227755000,00000077,279,-63967,44,-38,16148,-18*45c5fc68
%RAWIMUSA,2124,292422.238;2124,292422.237755000,00000077,187,-63969,-20,-29,16136,37*9c7423aa
%RAWIMUSA,2124,292422.248;2124,292422.247755000,00000077,339,-63901,30,-25,16157,-5*54716fd7
%RAWIMUSA,2124,292422.258;2124,292422.257755000,00000077,230,-63846,-18,-38,16162,33*45ade23c
%RAWIMUSA,2124,292422.268;2124,292422.267755000,00000077,407,-63878,-39,-28,16205,-6*023b689f
%RAWIMUSA,2124,292422.278;2124,292422.277755000,00000077,214,-63923,6,-30,16264,43*7bbcf65c
%RAWIMUSA,2124,292422.288;2124,292422.287755000,00000077,313,-63962,-46,-17,16301,-7*162d2fd4
%RAWIMUSA,2124,292422.298;2124,292422.297755000,00000077,284,-63806,-24,-33,16305,21*10c5f42e
%RAWIMUSA,2124,292422.308;2124,292422.307755000,00000077,398,-63964,-56,-34,16308,-15*6e2cef00
%RAWIMUSA,2124,292422.318;2124,292422.317755000,00000077,253,-63918,-39,-35,16307,30*a72be172
%RAWIMUSA,2124,292422.328;2124,292422.327755000,00000077,367,-64038,55,-12,16298,-22*4471b8ce
%RAWIMUSA,2124,292422.338;2124,292422.337755000,00000077,240,-63903,-10,-39,16269,23*001451b5
%RAWIMUSA,2124,292422.348;2124,292422.347755000,00000077,270,-63890,6,-31,16236,3*04de5474
%RAWIMUSA,2124,292422.358;2124,292422.357755000,00000077,250,-63951,5,-28,16218,19*c2fc045d
%RAWIMUSA,2124,292422.368;2124,292422.367755000,00000077,251,-64052,-5,-33,16199,-8*fcbc36c2
%RAWIMUSA,2124,292422.378;2124,292422.377755000,00000077,259,-63856,-3,-27,16163,8*88e4f30b
%RAWIMUSA,2124,292422.388;2124,292422.387755000,00000077,287,-64020,37,-23,16161,13*f18d020e
%RAWIMUSA,2124,292422.398;2124,292422.397755000,00000077,314,-63947,111,-25,16142,7*8822bc01
%RAWIMUSA,2124,292422.408;2124,292422.407755000,00000077,300,-64067,-43,-34,16163,-2*037f170f
%RAWIMUSA,2124,292422.418;2124,292422.417755000,00000077,327,-63970,28,-28,16146,11*9367fddd
%RAWIMUSA,2124,292422.428;2124,292422.427755000,00000077,351,-64089,-5,-36,16182,18*f4a094a0
%RAWIMUSA,2124,292422.438;2124,292422.437755000,00000077,335,-63904,-66,-28,16183,15*c037a226
%RAWIMUSA,2124,292422.448;2124,292422.447755000,00000077,374,-64025,-21,-28,16215,6*41cc6050
%RAWIMUSA,2124,292422.458;2124,292422.457755000,00000077,324,-64014,0,-30,16244,2*c28f1356
%RAWIMUSA,2124,292422.468;2124,292422.467755000,00000077,304,-64055,81,-10,16235,2*526ed62d
%RAWIMUSA,2124,292422.478;2124,292422.477755000,00000077,230,-63845,3,-40,16278,23*1ad20500
%RAWIMUSA,2124,292422.488;2124,292422.487755000,00000077,283,-64008,18,-30,16300,-12*2da9556b
%RAWIMUSA,2124,292422.498;2124,292422.497755000,00000077,249,-63908,33,-48,16284,11*e7adcff6
%RAWIMUSA,2124,292422.508;2124,292422.507755000,00000077,381,-64006,44,-34,16264,4*72adf944
%RAWIMUSA,2124,292422.518;2124,292422.517755000,00000077,230,-63887,15,-34,16210,10*5e9076c3
%RAWIMUSA,2124,292422.528;2124,292422.527755000,00000077,373,-63972,45,-29,16148,11*ce502911
%RAWIMUSA,2124,292422.538;2124,292422.537755000,00000077,358,-63781,52,-51,16131,21*0799214b
%RAWIMUSA,2124,292422.548;2124,292422.547755000,00000077,268,-63977,-27,-11,16129,7*a5b2957c
%RAWIMUSA,2124,292422.558;2124,292422.557755000,00000077,257,-63922,39,-29,16186,11*6f7d5826
%RAWIMUSA,2124,292422.568;2124,292422.567755000,00000077,300,-64060,-56,-34,16228,4*386a5ee6
%RAWIMUSA,2124,292422.578;2124,292422.577755000,00000077,187,-63925,-71,-43,16259,9*e8cd9d16
%RAWIMUSA,2124,292422.588;2124,292422.587755000,00000077,317,-63977,-16,-30,16308,-13*0665cd04
%RAWIMUSA,2124,292422.598;2124,292422.597755000,00000077,292,-63875,-68,-35,16293,29*6c7ce36f
%RAWIMUSA,2124,292422.608;2124,292422.607755000,00000077,393,-63998,100,-32,16264,-6*4ee0d15d
%RAWIMUSA,2124,292422.618;2124,292422.617755000,00000077,176,-63822,16,-38,16229,31*a134a15c
%RAWIMUSA,2124,292422.628;2124,292422.627755000,00000077,274,-63976,-62,-36,16191,-21*8302d445
%RAWIMUSA,2124,292422.638;2124,292422.637755000,00000077,211,-63958,-14,-44,16215,28*597f3cc3
%RAWIMUSA,2124,292422.648;2124,292422.647755000,00000077,379,-64059,-64,-20,16244,-10*dd9fc576
%RAWIMUSA,2124,292422.658;2124,292422.657755000,00000077,199,-63783,-73,-52,16300,18*89edda85
%RAWIMUSA,2124,292422.668;2124,292422.667755000,00000077,318,-64007,-1,-14,16321,-14*4825ee94
%RAWIMUSA,2124,292422.678;2124,292422.677755000,00000077,326,-63955,55,-40,16316,32*52fb874a
%RAWIMUSA,2124,292422.688;2124,292422.687755000,00000077,310,-64002,-2,-23,16292,-19*d68b2de0
%RAWIMUSA,2124,292422.698;2124,292422.697755000,00000077,228,-63898,46,-48,16284,28*08261875
%RAWIMUSA,2124,292422.708;2124,292422.707755000,00000077,410,-64062,0,-41,16247,-16*2a2d6533
%RAWIMUSA,2124,292422.718;2124,292422.717755000,00000077,318,-63911,-11,-42,16249,7*f66c4139
%RAWIMUSA,2124,292422.728;2124,292422.727755000,00000077,359,-63964,-53,-32,16225,-2*38f1f4ef
%RAWIMUSA,2124,292422.738;2124,292422.737755000,00000077,320,-63851,50,-36,16203,27*a56e0488
%RAWIMUSA,2124,292422.748;2124,292422.747755000,00000077,314,-63992,33,-25,16178,-6*83bf064f
%RAWIMUSA,2124,292422.758;2124,292422.757755000,00000077,251,-63852,22,-38,16163,15*d947925c
%RAWIMUSA,2124,292422.768;2124,292422.767755000,00000077,389,-63921,-8,-25,16156,-12*6c601d61
%RAWIMUSA,2124,292422.778;2124,292422.777755000,00000077,234,-63951,14,-34,16189,27*226c186e
%RAWIMUSA,2124,292422.788;2124,292422.787755000,00000077,248,-63992,48,-23,16184,-12*613ab08b
%RAWIMUSA,2124,292422.798;2124,292422.797755000,00000077,306,-63900,24,-36,16160,29*3f601a68
%RAWIMUSA,2124,292422.808;2124,292422.807755000,00000077,300,-63993,2,-37,16150,-11*c99dccef
%RAWIMUSA,2124,292422.818;2124,292422.817755000,00000077,313,-63864,46,-19,16148,28*22ba792d
%RAWIMUSA,2124,292422.828;2124,292422.827755000,00000077,283,-64111,-42,-23,16180,2*63c67f69
%RAWIMUSA,2124,292422.838;2124,292422.837755000,00000077,340,-63900,-57,-34,16222,21*2bffd951
%RAWIMUSA,2124,292422.848;2124,292422.847755000,00000077,297,-63946,-52,-36,16277,-9*3e6de50e
%RAWIMUSA,2124,292422.858;2124,292422.857755000,00000077,265,-63845,-17,-36,16287,12*8f710e94
%RAWIMUSA,2124,292422.868;2124,292422.867755000,00000077,314,-63956,-29,-24,16310,-8*3f8e3c7f
%RAWIMUSA,2124,292422.878;2124,292422.877755000,00000077,335,-63842,48,-35,16285,16*7bdb587f
%RAWIMUSA,2124,292422.888;2124,292422.887755000,00000077,324,-64006,124,-17,16221,-1*4798601e
%RAWIMUSA,2124,292422.898;2124,292422.897755000,00000077,287,-63891,-17,-42,16198,15*9fa1597c
%RAWIMUSA,2124,292422.908;2124,292422.907755000,00000077,416,-63915,-46,-15,16180,-7*cd6011fe
%RAWIMUSA,2124,292422.918;2124,292422.917755000,00000077,340,-63973,86,-30,16181,16*770ac2d1
%RAWIMUSA,2124,292422.928;2124,292422.927755000,00000077,332,-63995,8,-25,16222,-18*cd95460a
%RAWIMUSA,2124,292422.938;2124,292422.937755000,00000077,326,-64050,83,-47,16224,35*c0a25567
%RAWIMUSA,2124,292422.948;2124,292422.947755000,00000077,336,-63913,21,-22,16241,-19*219ad68b
%RAWIMUSA,2124,292422.958;2124,292422.957755000,00000077,243,-63963,37,-38,16242,47*19da5f57
%RAWIMUSA,2124,292422.968;2124,292422.967755000,00000077,407,-64008,7,-33,16229,-25*2dfa7c5e
%RAWIMUSA,2124,292422.978;2124,292422.977755000,00000077,257,-63878,24,-28,16230,50*d9a989b4
%RAWIMUSA,2124,292422.988;2124,292422.987755000,00000077,399,-64001,22,-24,16236,-18*6ac48ea7
%RAWIMUSA,2124,292422.998;2124,292422.997755000,00000077,279,-63918,-55,-48,16247,23*9095d482
%RAWIMUSA,2124,292423.008;2124,292423.007755000,00000077,288,-64017,54,-20,16275,-11*92690eef
%RAWIMUSA,2124,292423.018;2124,292423.017755000,00000077,154,-64064,-39,-48,16292,35*73cdc983
%RAWIMUSA,2124,292423.028;2124,292423.027755000,00000077,263,-63933,-13,-36,16295,-1*08853df3
%RAWIMUSA,2124,292423.038;2124,292423.037755000,00000077,311,-63978,10,-48,16299,25*dcd24ab3
%RAWIMUSA,2124,292423.048;2124,292423.047755000,00000077,241,-63985,6,-25,16274,0*7420b50c
%RAWIMUSA,2124,292423.058;2124,292423.057755000,00000077,302,-63995,-26,-46,16269,40*61425c16
%RAWIMUSA,2124,292423.068;2124,292423.067755000,00000077,271,-63942,57,-42,16258,-27*a45a6cc0
%RAWIMUSA,2124,292423.078;2124,292423.077755000,00000077,260,-64082,-10,-39,16250,21*4a5c5c07
%RAWIMUSA,2124,292423.088;2124,292423.087755000,00000077,334,-63987,-117,-26,16247,-24*ab2dedfa
%RAWIMUSA,2124,292423.098;2124,292423.097755000,00000077,365,-63987,-69,-41,16246,13*31f21762
%RAWIMUSA,2124,292423.108;2124,292423.107755000,00000077,312,-64109,18,-33,16244,-2*95c156bc
%RAWIMUSA,2124,292423.118;2124,292423.117755000,00000077,359,-64020,50,-30,16217,23*850e8efa
%RAWIMUSA,2124,292423.128;2124,292423.127755000,00000077,280,-63963,14,-31,16207,-12*b06cf0b7
%RAWIMUSA,2124,292423.138;2124,292423.137755000,00000077,286,-64090,0,-39,16174,22*ffd389ad
%RAWIMUSA,2124,292423.148;2124,292423.147755000,00000077,241,-63991,99,-13,16195,-19*44e678df
%RAWIMUSA,2124,292423.158;2124,292423.157755000,00000077,284,-64024,-19,-44,16171,37*c06945e8
%RAWIMUSA,2124,292423.168;2124,292423.167755000,00000077,307,-63868,-37,-25,16192,-23*1dacc4b3
%RAWIMUSA,2124,292423.178;2124,292423.177755000,00000077,265,-63884,-17,-44,16231,34*c07d7286
%RAWIMUSA,2124,292423.188;2124,292423.187755000,00000077,329,-63958,-20,-28,16245,-15*b88dee95
%RAWIMUSA,2124,292423.198;2124,292423.197755000,00000077,304,-63980,-51,-45,16220,25*c0f1a3e5
%RAWIMUSA,2124,292423.208;2124,292423.207755000,00000077,375,-63947,122,-19,16233,-12*cc83f7db
%RAWIMUSA,2124,292423.218;2124,292423.217755000,00000077,277,-63936,-59,-40,16279,32*c5565dab
%RAWIMUSA,2124,292423.228;2124,292423.227755000,00000077,225,-63881,-90,-30,16300,-26*f77f6129
%RAWIMUSA,2124,292423.238;2124,292423.237755000,00000077,263,-63880,-1,-61,16311,18*df0ba1a9
%RAWIMUSA,2124,292423.248;2124,292423.247755000,00000077,216,-64054,-30,-40,16281,-15*e279fe09
%RAWIMUSA,2124,292423.258;2124,292423.257755000,00000077,307,-63943,-45,-34,16259,27*b23d27bc
%RAWIMUSA,2124,292423.268;2124,292423.267755000,00000077,386,-63984,-87,-24,16269,-24*a6d9367c
%RAWIMUSA,2124,292423.278;2124,292423.277755000,00000077,390,-63906,-5,-48,16251,35*1f56f929
%RAWIMUSA,2124,292423.288;2124,292423.287755000,00000077,404,-63983,121,-20,16223,-11*70c110de
%RAWIMUSA,2124,292423.298;2124,292423.297755000,00000077,258,-63974,-38,-35,16235,15*f9762e7d
%RAWIMUSA,2124,292423.308;2124,292423.307755000,00000077,253,-64047,-8,-19,16238,-7*34a8341c
%RAWIMUSA,2124,292423.318;2124,292423.317755000,00000077,271,-63956,97,-48,16164,23*02772f08
%RAWIMUSA,2124,292423.328;2124,292423.327755000,00000077,330,-64082,6,-35,16156,3*709fd584
%RAWIMUSA,2124,292423.338;2124,292423.337755000,00000077,254,-63801,-87,-39,16180,7*e929f1bf
%RAWIMUSA,2124,292423.348;2124,292423.347755000,00000077,330,-64096,43,-18,16165,-4*168c28d1
%RAWIMUSA,2124,292423.358;2124,292423.357755000,00000077,262,-63962,-38,-27,16176,16*1132b905
%RAWIMUSA,2124,292423.368;2124,292423.367755000,00000077,253,-63983,-88,-38,16225,14*d8e3dcff
%RAWIMUSA,2124,292423.378;2124,292423.377755000,00000077,245,-63906,-12,-33,16272,11*1edd7a9a
%RAWIMUSA,2124,292423.388;2124,292423.387755000,00000077,274,-64001,-59,-33,16321,22*6d60cd2f
%RAWIMUSA,2124,292423.398;2124,292423.397755000,00000077,171,-63951,-44,-46,16349,-17*6c2869a3
%RAWIMUSA,2124,292423.408;2124,292423.407755000,00000077,362,-63987,-6,-35,16386,19*e6c7da33
%RAWIMUSA,2124,292423.418;2124,292423.417755000,00000077,261,-63848,-36,-15,16387,-21*2f5764ab
%RAWIMUSA,2124,292423.428;2124,292423.427755000,00000077,273,-64078,102,-43,16330,29*2487d9df
%RAWIMUSA,2124,292423.438;2124,292423.437755000,00000077,321,-63968,0,-17,16292,-30*ee1bda27
%RAWIMUSA,2124,292423.448;2124,292423.447755000,00000077,313,-64001,-8,-42,16243,50*37625e8c
%RAWIMUSA,2124,292423.458;2124,292423.457755000,00000077,223,-64048,-43,-19,16205,-14*251b3975
%RAWIMUSA,2124,292423.468;2124,292423.467755000,00000077,188,-63875,1,-56,16232,30*2653fbfb
%RAWIMUSA,2124,292423.478;2124,292423.477755000,00000077,288,-63980,-15,-31,16231,-15*da04eebe
%RAWIMUSA,2124,292423.488;2124,292423.487755000,00000077,325,-63982,-23,-34,16210,22*9694b4e0
%RAWIMUSA,2124,292423.498;2124,292423.497755000,00000077,292,-64043,-77,-25,16220,3*cf4d0168
%RAWIMUSA,2124,292423.508;2124,292423.507755000,00000077,177,-63962,-53,-38,16208,24*9f288620
%RAWIMUSA,2124,292423.518;2124,292423.517755000,00000077,285,-64077,66,-22,16181,18*9e16ac56
%RAWIMUSA,2124,292423.528;2124,292423.527755000,00000077,289,-63959,-74,-26,16106,1*cffebfa1
%RAWIMUSA,2124,292423.538;2124,292423.537755000,00000077,353,-64066,-44,-46,16133,24*72597f2f
%RAWIMUSA,2124,292423.548;2124,292423.547755000,00000077,273,-63997,-43,-21,16188,-24*33aa4bd7
%RAWIMUSA,2124,292423.558;2124,292423.557755000,00000077,354,-63924,-47,-52,16214,16*7902aa5a
%RAWIMUSA,2124,292423.568;2124,292423.567755000,00000077,226,-63939,65,-37,16249,-4*f2483963
%RAWIMUSA,2124,292423.578;2124,292423.577755000,00000077,330,-63983,12,-46,16233,31*6e606b33
%RAWIMUSA,2124,292423.588;2124,292423.587755000,00000077,300,-64049,99,-32,16265,-19*e315975b
%RAWIMUSA,2124,292423.598;2124,292423.597755000,00000077,253,-63914,-11,-56,16259,38*e1a30256
%RAWIMUSA,2124,292423.608;2124,292423.607755000,00000077,415,-63997,30,-39,16210,-14*f86b136e
%RAWIMUSA,2124,292423.618;2124,292423.617755000,00000077,206,-63863,-21,-45,16190,18*4e9c5027
%RAWIMUSA,2124,292423.628;2124,292423.627755000,00000077,312,-64059,-15,-46,16178,-11*5675ce13
%RAWIMUSA,2124,292423.638;2124,292423.637755000,00000077,291,-63985,25,-52,16185,6*794a4a2a
%RAWIMUSA,2124,292423.648;2124,292423.647755000,00000077,374,-63968,-14,-46,16207,0*cf19a937
%RAWIMUSA,2124,292423.658;2124,292423.657755000,00000077,371,-63961,33,-26,16236,14*d24df875
%RAWIMUSA,2124,292423.668;2124,292423.667755000,00000077,310,-63976,-89,-29,16250,8*7ea3300f
%RAWIMUSA,2124,292423.678;2124,292423.677755000,00000077,211,-64041,-118,-37,16309,-18*a035e81d
%RAWIMUSA,2124,292423.688;2124,292423.687755000,00000077,322,-63969,6,-32,16333,21*505db9ea
%RAWIMUSA,2124,292423.698;2124,292423.697755000,00000077,308,-63992,74,-39,16323,-9*33d5bbdb
%RAWIMUSA,2124,292423.708;2124,292423.707755000,00000077,264,-64002,56,-33,16281,33*d61ebde1
%RAWIMUSA,2124,292423.718;2124,292423.717755000,00000077,265,-64130,156,-18,16244,-35*eaa6ce88
%RAWIMUSA,2124,292423.728;2124,292423.727755000,00000077,282,-63979,26,-45,16225,41*8b6f4cc8
%RAWIMUSA,2124,292423.738;2124,292423.737755000,00000077,318,-64070,-49,-28,16240,-16*690c158e
%RAWIMUSA,2124,292423.748;2124,292423.747755000,00000077,206,-63910,34,-42,16254,23*86a3bc36
%RAWIMUSA,2124,292423.758;2124,292423.757755000,00000077,379,-63876,-22,-28,16275,-12*f2bd36af
%RAWIMUSA,2124,292423.768;2124,292423.767755000,00000077,264,-63985,-24,-42,16324,6*1f00ae5d
%RAWIMUSA,2124,292423.778;2124,292423.777755000,00000077,301,-64028,-24,-59,16300,22*bb689f26
%RAWIMUSA,2124,292423.788;2124,292423.787755000,00000077,347,-63960,21,-34,16325,-15*1b5f51ea
%RAWIMUSA,2124,292423.798;2124,292423.797755000,00000077,336,-64020,107,-47,16295,26*c04252de
%RAWIMUSA,2124,292423.808;2124,292423.807755000,00000077,398,-64117,123,-22,16287,-26*79ac0134
%RAWIMUSA,2124,292423.818;2124,292423.817755000,00000077,230,-63891,56,-33,16236,36*eab94eb9
%RAWIMUSA,2124,292423.828;2124,292423.827755000,00000077,179,-63963,65,-20,16213,-14*fff0538b
%RAWIMUSA,2124,292423.838;2124,292423.837755000,00000077,287,-63875,21,-53,16184,43*c0fb8412
%RAWIMUSA,2124,292423.848;2124,292423.847755000,00000077,221,-63989,6,-35,16224,-6*4d7cea5f
%RAWIMUSA,2124,292423.858;2124,292423.857755000,00000077,354,-63879,-5,-34,16226,6*b63df839
%RAWIMUSA,2124,292423.868;2124,292423.867755000,00000077,326,-63943,60,-34,16192,24*982668c7
%RAWIMUSA,2124,292423.878;2124,292423.877755000,00000077,255,-63940,44,-20,16173,-20*f4d45b14
%RAWIMUSA,2124,292423.888;2124,292423.887755000,00000077,246,-63999,20,-55,16121,27*e193abde
%RAWIMUSA,2124,292423.898;2124,292423.897755000,00000077,321,-64074,71,-35,16118,-12*f8b22008
%RAWIMUSA,2124,292423.908;2124,292423.907755000,00000077,281,-63922,-81,-62,16172,31*0305be50
%RAWIMUSA,2124,292423.918;2124,292423.917755000,00000077,341,-63989,9,-11,16255,-19*44b8d751
%RAWIMUSA,2124,292423.928;2124,292423.927755000,00000077,311,-63947,26,-37,16311,-7*a65bf3bf
%RAWIMUSA,2124,292423.938;2124,292423.937755000,00000077,308,-64012,87,-40,16340,20*8dd5db52
%RAWIMUSA,2124,292423.948;2124,292423.947755000,00000077,277,-63852,-19,-20,16348,-7*ac12a69c
%RAWIMUSA,2124,292423.958;2124,292423.957755000,00000077,290,-63978,116,-39,16331,12*a687a090
%RAWIMUSA,2124,292423.968;2124,292423.967755000,00000077,420,-63998,134,-23,16304,-19*65b0dcf8
%RAWIMUSA,2124,292423.978;2124,292423.977755000,00000077,325,-63840,71,-56,16215,26*776989b7
%RAWIMUSA,2124,292423.988;2124,292423.987755000,00000077,348,-63994,86,-35,16140,-7*2585c57e
%RAWIMUSA,2124,292423.998;2124,292423.997755000,00000077,278,-63878,-65,-34,16109,0*1f634768
%RAWIMUSA,2124,292424.008;2124,292424.007755000,00000077,387,-64099,-57,-40,16132,27*070cd968
%RAWIMUSA,2124,292424.018;2124,292424.017755000,00000077,282,-63952,-28,-28,16169,-6*f6e37228
%RAWIMUSA,2124,292424.028;2124,292424.027755000,00000077,260,-63922,-85,-50,16235,39*5595bef5
%RAWIMUSA,2124,292424.038;2124,292424.037755000,00000077,256,-64106,-64,-31,16271,-12*24fab2a3
%RAWIMUSA,2124,292424.048;2124,292424.047755000,00000077,304,-63966,-23,-30,16295,23*71f481ee
%RAWIMUSA,2124,292424.058;2124,292424.057755000,00000077,349,-64023,67,-38,16278,5*80e2ecc2
%RAWIMUSA,2124,292424.068;2124,292424.067755000,00000077,339,-63974,8,-31,16265,-8*e85d1596
%RAWIMUSA,2124,292424.078;2124,292424.077755000,00000077,269,-63904,110,-48,16243,27*bf6c6fef
%RAWIMUSA,2124,292424.088;2124,292424.087755000,00000077,332,-64005,-31,-18,16305,-18*86a07cfc
%RAWIMUSA,2124,292424.098;2124,292424.097755000,00000077,304,-63857,67,-41,16298,27*0c4d904a
%RAWIMUSA,2124,292424.108;2124,292424.107755000,00000077,231,-64009,-26,-33,16311,-11*e914970b
%RAWIMUSA,2124,292424.118;2124,292424.117755000,00000077,281,-63955,40,-32,16293,17*6b8fe481
%RAWIMUSA,2124,292424.128;2124,292424.127755000,00000077,275,-63936,7,-44,16280,12*9ed3113a
%RAWIMUSA,2124,292424.138;2124,292424.137755000,00000077,291,-63976,104,-15,16240,-11*6898fb27
%RAWIMUSA,2124,292424.148;2124,292424.147755000,00000077,361,-64088,23,-45,16225,25*c243289a
%RAWIMUSA,2124,292424.158;2124,292424.157755000,00000077,297,-63925,-13,0,16234,-10*aa465d64
%RAWIMUSA,2124,292424.168;2124,292424.167755000,00000077,297,-63808,-20,-55,16216,15*4554044a
%RAWIMUSA,2124,292424.178;2124,292424.177755000,00000077,259,-64042,-2,-47,16200,-6*864bee2a
%RAWIMUSA,2124,292424.188;2124,292424.187755000,00000077,329,-64009,13,-36,16218,15*698777fd
%RAWIMUSA,2124,292424.198;2124,292424.197755000,00000077,312,-63963,26,-50,16241,25*db65976e
%RAWIMUSA,2124,292424.208;2124,292424.207755000,00000077,277,-64012,-45,-38,16279,-35*268da274
%RAWIMUSA,2124,292424.218;2124,292424.217755000,00000077,373,-63974,-25,-52,16248,40*3d7b5b99
%RAWIMUSA,2124,292424.228;2124,292424.227755000,00000077,315,-63940,18,-26,16227,9*d575e383
%RAWIMUSA,2124,292424.238;2124,292424.237755000,00000077,309,-63920,32,-38,16170,1*5a052661
%RAWIMUSA,2124,292424.248;2124,292424.247755000,00000077,309,-64025,-2,-51,16104,29*caec7f55
%RAWIMUSA,2124,292424.258;2124,292424.257755000,00000077,270,-64016,-162,-21,16129,0*d7078342
%RAWIMUSA,2124,292424.268;2124,292424.267755000,00000077,307,-64018,-152,-39,16178,43*ee18c23a
%RAWIMUSA,2124,292424.278;2124,292424.277755000,00000077,212,-64097,-72,-34,16249,2*9b628157
%RAWIMUSA,2124,292424.288;2124,292424.287755000,00000077,277,-63905,-45,-14,16293,9*c30276fc
%RAWIMUSA,2124,292424.298;2124,292424.297755000,00000077,238,-63959,19,-49,16288,16*b6b0c68d
%RAWIMUSA,2124,292424.308;2124,292424.307755000,00000077,239,-63988,-28,-23,16308,-29*cf0da5b8
%RAWIMUSA,2124,292424.318;2124,292424.317755000,00000077,288,-63870,-13,-48,16302,20*58cef844
%RAWIMUSA,2124,292424.328;2124,292424.327755000,00000077,280,-64019,41,-22,16289,8*8f146e3b
%RAWIMUSA,2124,292424.338;2124,292424.337755000,00000077,289,-63865,-34,-42,16243,9*0bca44ef
%RAWIMUSA,2124,292424.348;2124,292424.347755000,00000077,290,-63932,110,-52,16192,21*d7c01816
%RAWIMUSA,2124,292424.358;2124,292424.357755000,00000077,238,-63932,9,-36,16187,-19*ffe469df
%RAWIMUSA,2124,292424.368;2124,292424.367755000,00000077,226,-63963,3,-52,16176,33*9cb98d7d
%RAWIMUSA,2124,292424.378;2124,292424.377755000,00000077,262,-63936,3,-27,16187,-11*f0956944
%RAWIMUSA,2124,292424.388;2124,292424.387755000,00000077,306,-63906,105,-36,16215,15*98c95156
%RAWIMUSA,2124,292424.398;2124,292424.397755000,00000077,356,-64000,-38,-20,16248,8*dd57b056
%RAWIMUSA,2124,292424.408;2124,292424.407755000,00000077,242,-64012,8,-30,16277,-10*4b99650d
%RAWIMUSA,2124,292424.418;2124,292424.417755000,00000077,328,-63906,14,-51,16281,6*8c86eb5e
%RAWIMUSA,2124,292424.428;2124,292424.427755000,00000077,203,-63879,-7,-29,16317,20*9d8cd67c
%RAWIMUSA,2124,292424.438;2124,292424.437755000,00000077,258,-64018,80,-28,16309,13*5a1c5fe2
%RAWIMUSA,2124,292424.448;2124,292424.447755000,00000077,355,-63973,5,-41,16297,7*c06ef7c9
%RAWIMUSA,2124,292424.458;2124,292424.457755000,00000077,253,-64010,1,-55,16292,7*6e6c5c78
%RAWIMUSA,2124,292424.468;2124,292424.467755000,00000077,302,-64022,21,-40,16286,18*d0a3f7bc
%RAWIMUSA,2124,292424.478;2124,292424.477755000,00000077,316,-64014,103,-37,16299,1*12d8e9b2
%RAWIMUSA,2124,292424.488;2124,292424.487755000,00000077,273,-63946,-26,-39,16273,0*73cfee4d
%RAWIMUSA,2124,292424.498;2124,292424.497755000,00000077,222,-64007,43,-33,16290,13*7d8b456e
%RAWIMUSA,2124,292424.508;2124,292424.507755000,00000077,262,-63956,7,-50,16274,8*3bd4c2ca
%RAWIMUSA,2124,292424.518;2124,292424.517755000,00000077,243,-64024,-15,-56,16257,4*4ebd602d
%RAWIMUSA,2124,292424.528;2124,292424.527755000,00000077,291,-63943,7,-39,16255,16*879ec685
%RAWIMUSA,2124,292424.538;2124,292424.537755000,00000077,242,-63940,-29,-27,16280,12*ad64d621
%RAWIMUSA,2124,292424.548;2124,292424.547755000,00000077,313,-63988,5,-42,16309,6*c8fe7977
%RAWIMUSA,2124,292424.558;2124,292424.557755000,00000077,254,-63936,-37,-34,16282,6*533e5f37
%RAWIMUSA,2124,292424.568;2124,292424.567755000,00000077,248,-63916,71,-44,16253,-9*dbb50848
%RAWIMUSA,2124,292424.578;2124,292424.577755000,00000077,386,-63980,137,-26,16208,6*57c00b3a
%RAWIMUSA,2124,292424.588;2124,292424.587755000,00000077,270,-64006,94,-27,16152,-4*835873e5
%RAWIMUSA,2124,292424.598;2124,292424.597755000,00000077,300,-63927,81,-38,16141,1*e7f39759
%RAWIMUSA,2124,292424.608;2124,292424.607755000,00000077,213,-63941,-7,-35,16117,4*cc332748
%RAWIMUSA,2124,292424.618;2124,292424.617755000,00000077,225,-63827,115,-37,16135,16*d94b359c
%RAWIMUSA,2124,292424.628;2124,292424.627755000,00000077,290,-63973,29,-23,16151,5*4aaef7d5
%RAWIMUSA,2124,292424.638;2124,292424.637755000,00000077,264,-63890,-66,-43,16168,11*5811dec3
%RAWIMUSA,2124,292424.648;2124,292424.647755000,00000077,266,-64018,-73,-22,16185,4*74546849
%RAWIMUSA,2124,292424.658;2124,292424.657755000,00000077,325,-64074,9,-44,16214,9*ea68c4a8
%RAWIMUSA,2124,292424.668;2124,292424.667755000,00000077,300,-63925,-34,-22,16226,3*45f6e680
%RAWIMUSA,2124,292424.678;2124,292424.677755000,00000077,300,-63915,-76,-40,16266,2*edf6485f
%RAWIMUSA,2124,292424.688;2124,292424.687755000,00000077,317,-64042,-41,-42,16264,14*7e23775e
%RAWIMUSA,2124,292424.698;2124,292424.697755000,00000077,293,-63988,79,-43,16287,22*7ab7b8a0
%RAWIMUSA,2124,292424.708;2124,292424.707755000,00000077,219,-63895,88,-26,16259,22*fc69a391
%RAWIMUSA,2124,292424.718;2124,292424.717755000,00000077,340,-63967,-13,-36,16226,-3*faabf422
%RAWIMUSA,2124,292424.728;2124,292424.727755000,00000077,328,-63991,-42,-27,16212,-4*cb63aa9c
%RAWIMUSA,2124,292424.738;2124,292424.737755000,00000077,287,-63954,49,-41,16205,3*1f6db375
%RAWIMUSA,2124,292424.748;2124,292424.747755000,00000077,311,-63932,57,-45,16222,12*fe94687a
%RAWIMUSA,2124,292424.758;2124,292424.757755000,00000077,264,-63977,-54,-33,16244,-6*3e063aa2
%RAWIMUSA,2124,292424.768;2124,292424.767755000,00000077,261,-63897,19,-37,16248,-4*7f56e874
%RAWIMUSA,2124,292424.778;2124,292424.777755000,00000077,253,-63930,-85,-46,16250,8*4d4be499
%RAWIMUSA,2124,292424.788;2124,292424.787755000,00000077,306,-63860,21,-36,16256,12*4ebb664a
%RAWIMUSA,2124,292424.798;2124,292424.797755000,00000077,382,-63919,-34,-20,16250,-4*0af966bb
%RAWIMUSA,2124,292424.808;2124,292424.807755000,00000077,258,-63894,67,-28,16272,2*ab2bd012
%RAWIMUSA,2124,292424.818;2124,292424.817755000,00000077,240,-63995,71,-38,16291,-6*1bf9cec8
%RAWIMUSA,2124,292424.828;2124,292424.827755000,00000077,202,-63958,-30,-41,16312,1*6392fad6
%RAWIMUSA,2124,292424.838;2124,292424.837755000,00000077,297,-64040,-109,-35,16329,-7*983d2e97
%RAWIMUSA,2124,292424.848;2124,292424.847755000,00000077,388,-64032,-64,-33,16287,18*80249b83
%RAWIMUSA,2124,292424.858;2124,292424.857755000,00000077,185,-63940,81,-59,16273,23*1fc41b4e
%RAWIMUSA,2124,292424.868;2124,292424.867755000,00000077,267,-63938,59,-37,16264,-1*34f3b555
%RAWIMUSA,2124,292424.878;2124,292424.877755000,00000077,466,-63978,-64,-43,16274,-2*138041f3
%RAWIMUSA,2124,292424.888;2124,292424.887755000,00000077,430,-63961,13,-37,16255,7*c05025c9
%RAWIMUSA,2124,292424.898;2124,292424.897755000,00000077,264,-63917,-9,-45,16253,15*979bad5c
%RAWIMUSA,2124,292424.908;2124,292424.907755000,00000077,326,-64050,76,-49,16264,-5*4141c9db
%RAWIMUSA,2124,292424.918;2124,292424.917755000,00000077,280,-63952,-45,-36,16232,-2*832e1ad7
%RAWIMUSA,2124,292424.928;2124,292424.927755000,00000077,280,-64010,20,-29,16231,4*5555336e
%RAWIMUSA,2124,292424.938;2124,292424.937755000,00000077,334,-64007,113,-35,16203,4*34f70670
%RAWIMUSA,2124,292424.948;2124,292424.947755000,00000077,203,-63883,12,-27,16215,11*856dc90e
%RAWIMUSA,2124,292424.958;2124,292424.957755000,00000077,315,-63891,-56,-44,16187,-5*11ad22e6
%RAWIMUSA,2124,292424.968;2124,292424.967755000,00000077,352,-63911,22,-36,16174,-1*3416d013
%RAWIMUSA,2124,292424.978;2124,292424.977755000,00000077,318,-63910,-57,-34,16193,8*26b61a0a
%RAWIMUSA,2124,292424.988;2124,292424.987755000,00000077,332,-63988,-37,-48,16173,8*1a68eb51
%RAWIMUSA,2124,292424.998;2124,292424.997755000,00000077,224,-63984,-26,-34,16188,6*6adf530a
%RAWIMUSA,2124,292425.008;2124,292425.007755000,00000077,305,-63961,-52,-18,16216,-4*74142bc8
%RAWIMUSA,2124,292425.018;2124,292425.017755000,00000077,285,-63927,1,-23,16233,16*9f62585b
%RAWIMUSA,2124,292425.028;2124,292425.027755000,00000077,302,-63976,-118,-36,16262,2*8f430cc8
%RAWIMUSA,2124,292425.038;2124,292425.037755000,00000077,302,-63956,-87,-37,16268,5*513448de
%RAWIMUSA,2124,292425.048;2124,292425.047755000,00000077,322,-63971,-26,-31,16260,14*e08b4982
%RAWIMUSA,2124,292425.058;2124,292425.057755000,00000077,307,-63928,-60,-43,16244,1*9b3111a2
%RAWIMUSA,2124,292425.068;2124,292425.067755000,00000077,218,-63991,4,-35,16253,5*9106f9df
%RAWIMUSA,2124,292425.078;2124,292425.077755000,00000077,296,-64029,-58,-25,16244,-4*58f285f8
%RAWIMUSA,2124,292425.088;2124,292425.087755000,00000077,314,-63932,28,-36,16233,-2*6a49bd9f
%RAWIMUSA,2124,292425.098;2124,292425.097755000,00000077,383,-63968,92,-37,16241,-13*e18845cb
%RAWIMUSA,2124,292425.108;2124,292425.107755000,00000077,286,-64004,-36,-35,16213,8*8ba8f0c1
%RAWIMUSA,2124,292425.118;2124,292425.117755000,00000077,343,-64016,-21,-34,16261,7*715ee682
%RAWIMUSA,2124,292425.128;2124,292425.127755000,00000077,220,-63993,57,-35,16276,16*efbe5215
%RAWIMUSA,2124,292425.138;2124,292425.137755000,00000077,366,-63928,-61,-40,16280,22*1cdcb200
%RAWIMUSA,2124,292425.148;2124,292425.147755000,00000077,295,-63997,-68,-28,16297,24*fc2c879d
%RAWIMUSA,2124,292425.158;2124,292425.157755000,00000077,295,-63948,33,-33,16281,5*e8a42a5d
%RAWIMUSA,2124,292425.168;2124,292425.167755000,00000077,264,-63956,-98,-56,16287,1*2a977047
%RAWIMUSA,2124,292425.178;2124,292425.177755000,00000077,270,-64040,-27,-48,16299,0*fbedd6d1
%RAWIMUSA,2124,292425.188;2124,292425.187755000,00000077,333,-64016,-5,-41,16306,-3*fc65f566
%RAWIMUSA,2124,292425.198;2124,292425.197755000,00000077,306,-64013,-88,-39,16291,1*e99a97a6
%RAWIMUSA,2124,292425.208;2124,292425.207755000,00000077,275,-64003,0,-51,16295,-5*5afaebb7
%RAWIMUSA,2124,292425.218;2124,292425.217755000,00000077,218,-63932,2,-41,16313,7*95c43f4d
%RAWIMUSA,2124,292425.228;2124,292425.227755000,00000077,240,-64102,6,-52,16305,-1*569a4dc4
%RAWIMUSA,2124,292425.238;2124,292425.237755000,00000077,181,-63892,-111,-27,16253,-7*796348d6
%RAWIMUSA,2124,292425.248;2124,292425.247755000,00000077,346,-63986,59,-47,16236,0*bfd5f6c0
