%RAWIMUSA,2124,292226.688;2124,292226.687755000,00000077,270,-63844,0,-7,-2773,19*64a5ccdd
%RAWIMUSA,2124,292226.698;2124,292226.697755000,00000077,356,-64063,67,14,-2863,3*3cdd660a
%RAWIMUSA,2124,292226.708;2124,292226.707755000,00000077,407,-63933,111,5,-2988,39*5d076490
%RAWIMUSA,2124,292226.718;2124,292226.717755000,00000077,401,-63930,174,1,-3001,-17*7897a412
%RAWIMUSA,2124,292226.728;2124,292226.727755000,00000077,452,-63891,211,27,-3128,31*b28de315
%RAWIMUSA,2124,292226.738;2124,292226.737755000,00000077,498,-64081,0,16,-3198,-10*a9ef1de1
%RAWIMUSA,2124,292226.748;2124,292226.747755000,00000077,322,-63881,156,18,-3249,21*d1fe614b
%RAWIMUSA,2124,292226.758;2124,292226.757755000,00000077,332,-64006,-59,0,-3367,6*ccd0ca53
%RAWIMUSA,2124,292226.768;2124,292226.767755000,00000077,345,-63983,11,10,-3385,-9*77b68ae2
%RAWIMUSA,2124,292226.778;2124,292226.777755000,00000077,367,-63992,77,8,-3507,14*cd097d72
%RAWIMUSA,2124,292226.788;2124,292226.787755000,00000077,310,-63872,-68,13,-3557,-2*2cc14889
%RAWIMUSA,2124,292226.798;2124,292226.797755000,00000077,466,-64016,98,10,-3614,8*e82f5c8c
%RAWIMUSA,2124,292226.808;2124,292226.807755000,00000077,244,-63932,83,0,-3739,-17*ba6b378f
%RAWIMUSA,2124,292226.818;2124,292226.817755000,00000077,302,-64066,-54,3,-3732,19*10e03fd6
%RAWIMUSA,2124,292226.828;2124,292226.827755000,00000077,373,-63857,137,0,-3845,-19*599dcd97
%RAWIMUSA,2124,292226.838;2124,292226.837755000,00000077,322,-63989,15,11,-3945,16*4a11ee3d
%RAWIMUSA,2124,292226.848;2124,292226.847755000,00000077,358,-63975,30,16,-3951,-8*9149d2d4
%RAWIMUSA,2124,292226.858;2124,292226.857755000,00000077,427,-63994,46,20,-4093,30*df0dc6f4
%RAWIMUSA,2124,292226.868;2124,292226.867755000,00000077,357,-64030,70,12,-4105,-7*ee141003
%RAWIMUSA,2124,292226.878;2124,292226.877755000,00000077,389,-63951,103,4,-4238,17*976cede2
%RAWIMUSA,2124,292226.888;2124,292226.887755000,00000077,342,-63934,-14,23,-4322,-23*661461f4
%RAWIMUSA,2124,292226.898;2124,292226.897755000,00000077,363,-63929,88,16,-4311,24*92428e8d
%RAWIMUSA,2124,292226.908;2124,292226.907755000,00000077,354,-63955,43,8,-4451,-25*ace2c2e9
%RAWIMUSA,2124,292226.918;2124,292226.917755000,00000077,342,-63810,18,3,-4479,38*23eaeadc
%RAWIMUSA,2124,292226.928;2124,292226.927755000,00000077,384,-64078,189,13,-4575,-20*13e45b5c
%RAWIMUSA,2124,292226.938;2124,292226.937755000,00000077,367,-63964,62,19,-4694,38*ba97bb61
%RAWIMUSA,2124,292226.948;2124,292226.947755000,00000077,361,-63949,89,18,-4718,-27*ead20d8b
%RAWIMUSA,2124,292226.958;2124,292226.957755000,00000077,376,-63914,142,13,-4862,17*9fb9c969
%RAWIMUSA,2124,292226.968;2124,292226.967755000,00000077,429,-64081,-38,8,-4892,-4*5de6c6e3
%RAWIMUSA,2124,292226.978;2124,292226.977755000,00000077,296,-63951,97,8,-4936,20*4ccad2ab
%RAWIMUSA,2124,292226.988;2124,292226.987755000,00000077,504,-64073,102,18,-5099,10*7956680e
%RAWIMUSA,2124,292226.998;2124,292226.997755000,00000077,289,-63829,107,8,-5158,-10*669d374f
%RAWIMUSA,2124,292227.008;2124,292227.007755000,00000077,424,-64015,181,7,-5299,8*7cb1e863
%RAWIMUSA,2124,292227.018;2124,292227.017755000,00000077,248,-63856,73,10,-5369,0*84d4b16a
%RAWIMUSA,2124,292227.028;2124,292227.027755000,00000077,372,-63923,126,24,-5424,22*4979058f
%RAWIMUSA,2124,292227.038;2124,292227.037755000,00000077,539,-63927,11,20,-5540,-34*490dd9e7
%RAWIMUSA,2124,292227.048;2124,292227.047755000,00000077,308,-63955,-17,0,-5540,50*76dac70b
%RAWIMUSA,2124,292227.058;2124,292227.057755000,00000077,324,-64045,163,0,-5680,-25*181ec4c3
%RAWIMUSA,2124,292227.068;2124,292227.067755000,00000077,311,-63927,12,5,-5749,36*74e07843
%RAWIMUSA,2124,292227.078;2124,292227.077755000,00000077,515,-64009,152,19,-5782,-38*d1d071ba
%RAWIMUSA,2124,292227.088;2124,292227.087755000,00000077,316,-63889,55,15,-5920,11*d0c9848d
%RAWIMUSA,2124,292227.098;2124,292227.097755000,00000077,349,-64015,9,22,-5941,3*720d988e
%RAWIMUSA,2124,292227.108;2124,292227.107755000,00000077,376,-63815,225,6,-6058,-1*6f4b02f9
%RAWIMUSA,2124,292227.118;2124,292227.117755000,00000077,322,-64002,94,16,-6134,17*948b662d
%RAWIMUSA,2124,292227.128;2124,292227.127755000,00000077,406,-63897,128,11,-6141,-18*9a06fc6b
%RAWIMUSA,2124,292227.138;2124,292227.137755000,00000077,455,-63980,80,12,-6315,46*43d15054
%RAWIMUSA,2124,292227.148;2124,292227.147755000,00000077,256,-64011,109,1,-6369,-29*a032527b
%RAWIMUSA,2124,292227.158;2124,292227.157755000,00000077,410,-63940,99,9,-6438,41*0e056209
%RAWIMUSA,2124,292227.168;2124,292227.167755000,00000077,439,-64110,83,35,-6526,-20*3343b60e
%RAWIMUSA,2124,292227.178;2124,292227.177755000,00000077,327,-63935,136,24,-6602,14*c06c81e9
%RAWIMUSA,2124,292227.188;2124,292227.187755000,00000077,403,-63999,40,16,-6750,9*99f1177b
%RAWIMUSA,2124,292227.198;2124,292227.197755000,00000077,296,-63819,29,18,-6761,-14*a8c5a2c3
%RAWIMUSA,2124,292227.208;2124,292227.207755000,00000077,385,-63894,190,10,-6876,35*31b46e12
%RAWIMUSA,2124,292227.218;2124,292227.217755000,00000077,328,-64020,-34,15,-6956,-22*7e8ec39f
%RAWIMUSA,2124,292227.228;2124,292227.227755000,00000077,355,-63971,86,17,-6977,31*22722974
%RAWIMUSA,2124,292227.238;2124,292227.237755000,00000077,421,-64045,47,17,-7146,-17*5ce3dfd3
%RAWIMUSA,2124,292227.248;2124,292227.247755000,00000077,338,-63892,-30,16,-7196,31*67df507d
%RAWIMUSA,2124,292227.258;2124,292227.257755000,00000077,474,-63975,185,30,-7293,-4*e29fa529
%RAWIMUSA,2124,292227.268;2124,292227.267755000,00000077,278,-63814,95,17,-7429,-16*5c3b2c3b
%RAWIMUSA,2124,292227.278;2124,292227.277755000,00000077,392,-63968,-9,16,-7422,-5*3e659960
%RAWIMUSA,2124,292227.288;2124,292227.287755000,00000077,420,-63930,100,19,-7545,-23*efe3c50e
%RAWIMUSA,2124,292227.298;2124,292227.297755000,00000077,238,-63946,10,12,-7651,47*9f6da643
%RAWIMUSA,2124,292227.308;2124,292227.307755000,00000077,325,-64031,148,22,-7706,-23*3681cc00
%RAWIMUSA,2124,292227.318;2124,292227.317755000,00000077,337,-63915,94,20,-7845,23*6f3de3d3
%RAWIMUSA,2124,292227.328;2124,292227.327755000,00000077,381,-64048,95,7,-7848,4*b4dc9701
%RAWIMUSA,2124,292227.338;2124,292227.337755000,00000077,264,-63846,122,26,-7972,-1*991099fa
%RAWIMUSA,2124,292227.348;2124,292227.347755000,00000077,500,-64040,-25,18,-8056,25*d6b35fab
%RAWIMUSA,2124,292227.358;2124,292227.357755000,00000077,418,-63884,131,10,-8107,-27*55832974
%RAWIMUSA,2124,292227.368;2124,292227.367755000,00000077,339,-63896,186,14,-8224,49*570ffbf3
%RAWIMUSA,2124,292227.378;2124,292227.377755000,00000077,437,-64064,46,6,-8253,-30*f1e04573
%RAWIMUSA,2124,292227.388;2124,292227.387755000,00000077,273,-63803,164,17,-8370,15*b14829aa
%RAWIMUSA,2124,292227.398;2124,292227.397755000,00000077,396,-63997,90,32,-8442,17*029977c0
%RAWIMUSA,2124,292227.408;2124,292227.407755000,00000077,317,-63975,94,5,-8494,-15*d3bc739b
%RAWIMUSA,2124,292227.418;2124,292227.417755000,00000077,352,-63938,146,24,-8609,47*cc7296d8
%RAWIMUSA,2124,292227.428;2124,292227.427755000,00000077,323,-64057,79,27,-8639,-17*006ccb9a
%RAWIMUSA,2124,292227.438;2124,292227.437755000,00000077,244,-63894,125,24,-8737,15*ce72d85b
%RAWIMUSA,2124,292227.448;2124,292227.447755000,00000077,415,-64063,111,34,-8824,0*b89fcc6d
%RAWIMUSA,2124,292227.458;2124,292227.457755000,00000077,282,-63914,117,32,-8875,-23*5d28bae8
%RAWIMUSA,2124,292227.468;2124,292227.467755000,00000077,229,-64003,67,21,-8973,36*f6363559
%RAWIMUSA,2124,292227.478;2124,292227.477755000,00000077,409,-63943,66,23,-9082,-27*f3a316c2
%RAWIMUSA,2124,292227.488;2124,292227.487755000,00000077,319,-63948,203,22,-9187,23*f41a1907
%RAWIMUSA,2124,292227.498;2124,292227.497755000,00000077,318,-63942,36,31,-9309,-5*921e969f
%RAWIMUSA,2124,292227.508;2124,292227.507755000,00000077,442,-64008,120,27,-9349,-6*0636c263
%RAWIMUSA,2124,292227.518;2124,292227.517755000,00000077,292,-63986,96,29,-9497,7*bd3722df
%RAWIMUSA,2124,292227.528;2124,292227.527755000,00000077,343,-63858,-25,32,-9500,-10*bd0f117f
%RAWIMUSA,2124,292227.538;2124,292227.537755000,00000077,291,-63940,118,24,-9571,17*33611044
%RAWIMUSA,2124,292227.548;2124,292227.547755000,00000077,456,-63880,30,20,-9691,9*e6c0c3c8
%RAWIMUSA,2124,292227.558;2124,292227.557755000,00000077,299,-63884,83,13,-9718,8*29ef65a0
%RAWIMUSA,2124,292227.568;2124,292227.567755000,00000077,362,-63999,175,39,-9846,22*9fe3d34a
%RAWIMUSA,2124,292227.578;2124,292227.577755000,00000077,441,-63956,-33,20,-9894,-5*313ade4b
%RAWIMUSA,2124,292227.588;2124,292227.587755000,00000077,435,-63905,136,36,-9961,-4*5d998c1c
%RAWIMUSA,2124,292227.598;2124,292227.597755000,00000077,430,-63887,75,46,-10080,8*75f4f13e
%RAWIMUSA,2124,292227.608;2124,292227.607755000,00000077,357,-64017,22,19,-10109,1*cb00cb11
%RAWIMUSA,2124,292227.618;2124,292227.617755000,00000077,290,-64007,74,24,-10237,3*f31f9c00
%RAWIMUSA,2124,292227.628;2124,292227.627755000,00000077,303,-64002,42,30,-10271,0*7de79b41
%RAWIMUSA,2124,292227.638;2124,292227.637755000,00000077,500,-64018,106,29,-10323,17*9b14c19c
%RAWIMUSA,2124,292227.648;2124,292227.647755000,00000077,388,-63955,94,21,-10439,-4*1509557d
%RAWIMUSA,2124,292227.658;2124,292227.657755000,00000077,384,-63934,53,26,-10462,25*6b9c1669
%RAWIMUSA,2124,292227.668;2124,292227.667755000,00000077,274,-63980,76,32,-10595,17*0cd9f805
%RAWIMUSA,2124,292227.678;2124,292227.677755000,00000077,273,-63874,4,29,-10672,3*1284bdd2
%RAWIMUSA,2124,292227.688;2124,292227.687755000,00000077,419,-63957,136,25,-10737,23*f60fb349
%RAWIMUSA,2124,292227.698;2124,292227.697755000,00000077,318,-63946,117,31,-10895,16*33e79cb2
%RAWIMUSA,2124,292227.708;2124,292227.707755000,00000077,318,-64011,157,15,-10963,6*fc964a1c
%RAWIMUSA,2124,292227.718;2124,292227.717755000,00000077,352,-63963,177,29,-11052,12*ae1e760e
%RAWIMUSA,2124,292227.728;2124,292227.727755000,00000077,331,-63906,96,19,-11143,30*cd4e6010
%RAWIMUSA,2124,292227.738;2124,292227.737755000,00000077,271,-63968,144,33,-11198,-1*705ca6d4
%RAWIMUSA,2124,292227.748;2124,292227.747755000,00000077,386,-63986,77,24,-11379,4*e78b6610
%RAWIMUSA,2124,292227.758;2124,292227.757755000,00000077,378,-63971,12,39,-11412,20*68829af9
%RAWIMUSA,2124,292227.768;2124,292227.767755000,00000077,383,-63971,74,26,-11488,-15*029db12c
%RAWIMUSA,2124,292227.778;2124,292227.777755000,00000077,375,-63954,52,29,-11579,10*10b96a60
%RAWIMUSA,2124,292227.788;2124,292227.787755000,00000077,416,-63904,-35,18,-11604,12*ecf0ce6d
%RAWIMUSA,2124,292227.798;2124,292227.797755000,00000077,427,-63910,164,20,-11725,-1*edb3ebef
%RAWIMUSA,2124,292227.808;2124,292227.807755000,00000077,356,-63912,121,38,-11753,-13*ed3534d0
%RAWIMUSA,2124,292227.818;2124,292227.817755000,00000077,324,-63981,178,21,-11848,12*36fcaba6
%RAWIMUSA,2124,292227.828;2124,292227.827755000,00000077,427,-64066,67,42,-11946,8*286482d6
%RAWIMUSA,2124,292227.838;2124,292227.837755000,00000077,324,-63967,135,27,-11965,-8*5b5dfe32
%RAWIMUSA,2124,292227.848;2124,292227.847755000,00000077,312,-64058,185,23,-12110,18*a0af3a68
%RAWIMUSA,2124,292227.858;2124,292227.857755000,00000077,375,-64036,69,28,-12151,14*50ae7bf9
%RAWIMUSA,2124,292227.868;2124,292227.867755000,00000077,368,-63869,160,30,-12240,-12*75cb1580
%RAWIMUSA,2124,292227.878;2124,292227.877755000,00000077,387,-64042,101,13,-12362,9*633279f3
%RAWIMUSA,2124,292227.888;2124,292227.887755000,00000077,381,-63832,26,30,-12374,-13*864767da
%RAWIMUSA,2124,292227.898;2124,292227.897755000,00000077,378,-64025,195,25,-12534,0*36dd8d3e
%RAWIMUSA,2124,292227.908;2124,292227.907755000,00000077,370,-63930,10,26,-12563,7*57111560
%RAWIMUSA,2124,292227.918;2124,292227.917755000,00000077,310,-63900,133,19,-12627,20*01cc1ded
%RAWIMUSA,2124,292227.928;2124,292227.927755000,00000077,344,-64034,125,25,-12744,8*38042a41
%RAWIMUSA,2124,292227.938;2124,292227.937755000,00000077,350,-64018,-7,30,-12757,20*32d30617
%RAWIMUSA,2124,292227.948;2124,292227.947755000,00000077,360,-63946,146,35,-12908,0*57ee2fdb
%RAWIMUSA,2124,292227.958;2124,292227.957755000,00000077,396,-63966,81,31,-12981,3*99a0db87
%RAWIMUSA,2124,292227.968;2124,292227.967755000,00000077,287,-63956,95,27,-13057,0*3f83ea86
%RAWIMUSA,2124,292227.978;2124,292227.977755000,00000077,477,-63925,107,27,-13230,7*832a19d1
%RAWIMUSA,2124,292227.988;2124,292227.987755000,00000077,319,-63959,49,44,-13226,10*53ea7478
%RAWIMUSA,2124,292227.998;2124,292227.997755000,00000077,363,-64017,149,24,-13351,-2*b88239da
%RAWIMUSA,2124,292228.008;2124,292228.007755000,00000077,350,-64010,33,22,-13450,16*00d0a02d
%RAWIMUSA,2124,292228.018;2124,292228.017755000,00000077,456,-63947,129,38,-13479,-1*ab4d6201
%RAWIMUSA,2124,292228.028;2124,292228.027755000,00000077,283,-64002,127,29,-13625,10*3be96c9c
%RAWIMUSA,2124,292228.038;2124,292228.037755000,00000077,338,-64043,-33,31,-13639,23*363accf3
%RAWIMUSA,2124,292228.048;2124,292228.047755000,00000077,358,-64026,206,34,-13744,-2*bbde53be
%RAWIMUSA,2124,292228.058;2124,292228.057755000,00000077,388,-63842,75,51,-13826,4*04f3d99f
%RAWIMUSA,2124,292228.068;2124,292228.067755000,00000077,428,-63959,137,12,-13852,11*cc024549
%RAWIMUSA,2124,292228.078;2124,292228.077755000,00000077,402,-63977,172,22,-13953,2*09a367a5
%RAWIMUSA,2124,292228.088;2124,292228.087755000,00000077,320,-63983,-66,25,-13982,9*62a51c0a
%RAWIMUSA,2124,292228.098;2124,292228.097755000,00000077,307,-63844,167,38,-14106,10*75ab686a
%RAWIMUSA,2124,292228.108;2124,292228.107755000,00000077,416,-63957,65,30,-14212,3*579b9e0a
%RAWIMUSA,2124,292228.118;2124,292228.117755000,00000077,385,-63921,126,41,-14228,10*253478e5
%RAWIMUSA,2124,292228.128;2124,292228.127755000,00000077,370,-63996,61,41,-14359,18*3d2d7fae
%RAWIMUSA,2124,292228.138;2124,292228.137755000,00000077,331,-63988,35,30,-14387,4*8499b82a
%RAWIMUSA,2124,292228.148;2124,292228.147755000,00000077,404,-63985,178,33,-14492,14*7d9bfeaa
%RAWIMUSA,2124,292228.158;2124,292228.157755000,00000077,338,-63972,-32,34,-14591,3*edc328cb
%RAWIMUSA,2124,292228.168;2124,292228.167755000,00000077,336,-63996,49,40,-14618,12*e4d4795c
%RAWIMUSA,2124,292228.178;2124,292228.177755000,00000077,377,-63998,107,44,-14750,1*52d49d91
%RAWIMUSA,2124,292228.188;2124,292228.187755000,00000077,351,-63941,-38,37,-14811,5*d6edc0eb
%RAWIMUSA,2124,292228.198;2124,292228.197755000,00000077,308,-63924,147,40,-14889,2*a4686956
%RAWIMUSA,2124,292228.208;2124,292228.207755000,00000077,328,-63857,182,46,-15048,11*2d733cec
%RAWIMUSA,2124,292228.218;2124,292228.217755000,00000077,347,-63885,19,25,-15093,5*00ac0d75
%RAWIMUSA,2124,292228.228;2124,292228.227755000,00000077,341,-64050,-18,26,-15219,7*4345f1e9
%RAWIMUSA,2124,292228.238;2124,292228.237755000,00000077,363,-63961,53,19,-15243,11*db6b1072
%RAWIMUSA,2124,292228.248;2124,292228.247755000,00000077,306,-63980,111,30,-15289,4*c4554999
%RAWIMUSA,2124,292228.258;2124,292228.257755000,00000077,353,-63834,46,37,-15400,9*c6982fff
%RAWIMUSA,2124,292228.268;2124,292228.267755000,00000077,360,-63966,-33,44,-15427,-1*5a908ec0
%RAWIMUSA,2124,292228.278;2124,292228.277755000,00000077,398,-63943,157,27,-15557,8*43822aa5
%RAWIMUSA,2124,292228.288;2124,292228.287755000,00000077,445,-64018,52,41,-15637,-3*1dcd9bb7
%RAWIMUSA,2124,292228.298;2124,292228.297755000,00000077,276,-63953,144,43,-15692,-21*6d12d23b
%RAWIMUSA,2124,292228.308;2124,292228.307755000,00000077,292,-63921,94,30,-15841,1*56ec9885
%RAWIMUSA,2124,292228.318;2124,292228.317755000,00000077,273,-63956,81,37,-15889,3*94acadbb
%RAWIMUSA,2124,292228.328;2124,292228.327755000,00000077,352,-63923,127,41,-16017,3*4c7018b0
%RAWIMUSA,2124,292228.338;2124,292228.337755000,00000077,332,-63946,37,39,-16110,27*876fa636
%RAWIMUSA,2124,292228.348;2124,292228.347755000,00000077,388,-63991,106,32,-16160,-16*c786e4ad
%RAWIMUSA,2124,292228.358;2124,292228.357755000,00000077,374,-63905,23,49,-16347,-8*2a823603
%RAWIMUSA,2124,292228.368;2124,292228.367755000,00000077,365,-63926,-26,41,-16367,6*ff3bfbe6
%RAWIMUSA,2124,292228.378;2124,292228.377755000,00000077,221,-63989,-66,28,-16309,9*0c27c8b7
%RAWIMUSA,2124,292228.388;2124,292228.387755000,00000077,229,-63985,-21,47,-16270,6*ace217ee
%RAWIMUSA,2124,292228.398;2124,292228.397755000,00000077,375,-64033,-51,58,-16254,17*4924b616
%RAWIMUSA,2124,292228.408;2124,292228.407755000,00000077,390,-64010,19,22,-16253,2*c154719a
%RAWIMUSA,2124,292228.418;2124,292228.417755000,00000077,295,-64027,-62,36,-16252,11*d9886c1e
%RAWIMUSA,2124,292228.428;2124,292228.427755000,00000077,210,-64013,-60,36,-16241,4*53211534
%RAWIMUSA,2124,292228.438;2124,292228.437755000,00000077,331,-63961,-25,28,-16218,17*486e0640
%RAWIMUSA,2124,292228.448;2124,292228.447755000,00000077,379,-64040,23,32,-16182,8*a6122b3b
%RAWIMUSA,2124,292228.458;2124,292228.457755000,00000077,365,-63947,-19,29,-16156,6*334b8d2c
%RAWIMUSA,2124,292228.468;2124,292228.467755000,00000077,415,-63985,108,53,-16162,-1*a790881a
%RAWIMUSA,2124,292228.478;2124,292228.477755000,00000077,279,-63869,-72,39,-16110,5*8f21f008
%RAWIMUSA,2124,292228.488;2124,292228.487755000,00000077,282,-63885,13,33,-16101,8*605ed08d
%RAWIMUSA,2124,292228.498;2124,292228.497755000,00000077,252,-63929,51,36,-16112,2*cb859f07
%RAWIMUSA,2124,292228.508;2124,292228.507755000,00000077,370,-63967,-23,40,-16159,-3*3ecd4b7e
%RAWIMUSA,2124,292228.518;2124,292228.517755000,00000077,303,-64058,111,52,-16178,13*9f1e7561
%RAWIMUSA,2124,292228.528;2124,292228.527755000,00000077,390,-63893,86,39,-16236,0*92410d11
%RAWIMUSA,2124,292228.538;2124,292228.537755000,00000077,344,-64038,9,36,-16244,-5*66f19eca
%RAWIMUSA,2124,292228.548;2124,292228.547755000,00000077,327,-64054,-50,30,-16220,1*4f9ed4ec
%RAWIMUSA,2124,292228.558;2124,292228.557755000,00000077,355,-63857,72,41,-16229,-11*24095aa0
%RAWIMUSA,2124,292228.568;2124,292228.567755000,00000077,274,-64041,-33,31,-16236,4*c940934e
%RAWIMUSA,2124,292228.578;2124,292228.577755000,00000077,318,-63947,-42,32,-16251,-10*eac4d754
%RAWIMUSA,2124,292228.588;2124,292228.587755000,00000077,295,-63968,-85,41,-16230,-3*fc0ecb96
%RAWIMUSA,2124,292228.598;2124,292228.597755000,00000077,331,-63941,-83,39,-16209,0*e5c74ceb
%RAWIMUSA,2124,292228.608;2124,292228.607755000,00000077,413,-63946,91,38,-16211,0*797655a3
%RAWIMUSA,2124,292228.618;2124,292228.617755000,00000077,311,-63999,-74,41,-16209,1*d5933a34
%RAWIMUSA,2124,292228.628;2124,292228.627755000,00000077,325,-64022,0,38,-16190,0*15a738e2
%RAWIMUSA,2124,292228.638;2124,292228.637755000,00000077,446,-63948,31,39,-16165,-11*98232fcb
%RAWIMUSA,2124,292228.648;2124,292228.647755000,00000077,274,-63954,7,47,-16171,2*f8dad5cf
%RAWIMUSA,2124,292228.658;2124,292228.657755000,00000077,354,-63980,18,42,-16170,8*1e37c7f0
%RAWIMUSA,2124,292228.668;2124,292228.667755000,00000077,323,-63973,-83,26,-16187,0*0336abcf
%RAWIMUSA,2124,292228.678;2124,292228.677755000,00000077,369,-64010,0,26,-16187,12*dc400fe2
%RAWIMUSA,2124,292228.688;2124,292228.687755000,00000077,309,-64080,17,58,-16221,17*e97b08f1
%RAWIMUSA,2124,292228.698;2124,292228.697755000,00000077,280,-63955,15,39,-16225,-8*9fcba39a
%RAWIMUSA,2124,292228.708;2124,292228.707755000,00000077,420,-63892,74,49,-16252,-2*a707e296
%RAWIMUSA,2124,292228.718;2124,292228.717755000,00000077,354,-64072,12,35,-16260,8*ba084d4c
%RAWIMUSA,2124,292228.728;2124,292228.727755000,00000077,375,-64015,40,52,-16259,4*2a29e3a2
%RAWIMUSA,2124,292228.738;2124,292228.737755000,00000077,296,-64132,-52,25,-16261,11*1af5d35e
%RAWIMUSA,2124,292228.748;2124,292228.747755000,00000077,371,-63931,87,22,-16265,-10*e9c7080d
%RAWIMUSA,2124,292228.758;2124,292228.757755000,00000077,333,-63947,-49,46,-16288,6*4695dcf9
%RAWIMUSA,2124,292228.768;2124,292228.767755000,00000077,275,-63888,-16,40,-16267,18*2c1f5890
%RAWIMUSA,2124,292228.778;2124,292228.777755000,00000077,292,-64004,-40,44,-16302,3*e73adc27
%RAWIMUSA,2124,292228.788;2124,292228.787755000,00000077,265,-63891,35,26,-16284,3*a81c3ad7
%RAWIMUSA,2124,292228.798;2124,292228.797755000,00000077,243,-64066,-137,47,-16283,6*8c783388
%RAWIMUSA,2124,292228.808;2124,292228.807755000,00000077,275,-63991,-54,48,-16254,19*d598a29e
%RAWIMUSA,2124,292228.818;2124,292228.817755000,00000077,324,-64029,106,40,-16195,4*8eb724a4
%RAWIMUSA,2124,292228.828;2124,292228.827755000,00000077,320,-64046,26,27,-16199,13*55ce24fb
%RAWIMUSA,2124,292228.838;2124,292228.837755000,00000077,355,-64022,-47,53,-16193,2*6c341fdb
%RAWIMUSA,2124,292228.848;2124,292228.847755000,00000077,358,-64058,-129,33,-16171,17*e766732a
%RAWIMUSA,2124,292228.858;2124,292228.857755000,00000077,311,-63929,27,33,-16152,-8*0ca9799f
%RAWIMUSA,2124,292228.868;2124,292228.867755000,00000077,277,-64056,-99,34,-16152,18*257f1f96
%RAWIMUSA,2124,292228.878;2124,292228.877755000,00000077,382,-63942,-136,42,-16157,-6*b86c95af
%RAWIMUSA,2124,292228.888;2124,292228.887755000,00000077,429,-63927,47,40,-16175,-5*9b66f36d
%RAWIMUSA,2124,292228.898;2124,292228.897755000,00000077,366,-63958,65,26,-16177,19*97f28547
%RAWIMUSA,2124,292228.908;2124,292228.907755000,00000077,319,-63947,-116,28,-16196,6*fe51a614
%RAWIMUSA,2124,292228.918;2124,292228.917755000,00000077,361,-63996,-13,41,-16192,0*2b7756cd
%RAWIMUSA,2124,292228.928;2124,292228.927755000,00000077,298,-63981,66,52,-16253,29*cc9d25f2
%RAWIMUSA,2124,292228.938;2124,292228.937755000,00000077,320,-63935,-2,25,-16270,7*0b666b14
%RAWIMUSA,2124,292228.948;2124,292228.947755000,00000077,363,-63928,12,43,-16240,10*bad3fa84
%RAWIMUSA,2124,292228.958;2124,292228.957755000,00000077,351,-64044,-42,45,-16241,14*31cddd87
%RAWIMUSA,2124,292228.968;2124,292228.967755000,00000077,365,-63932,-46,37,-16195,15*e79b41b9
%RAWIMUSA,2124,292228.978;2124,292228.977755000,00000077,403,-63997,-11,38,-16184,16*ff98562a
%RAWIMUSA,2124,292228.988;2124,292228.987755000,00000077,423,-63994,55,41,-16165,-17*8c902c90
%RAWIMUSA,2124,292228.998;2124,292228.997755000,00000077,337,-63921,97,36,-16194,16*055b961e
%RAWIMUSA,2124,292229.008;2124,292229.007755000,00000077,298,-64092,19,42,-16220,0*60224915
%RAWIMUSA,2124,292229.018;2124,292229.017755000,00000077,271,-63924,2,53,-16247,-10*d576a326
%RAWIMUSA,2124,292229.028;2124,292229.027755000,00000077,367,-64074,-117,50,-16235,29*ac2bcb88
%RAWIMUSA,2124,292229.038;2124,292229.037755000,00000077,369,-63974,-102,27,-16237,-20*409f8ec4
%RAWIMUSA,2124,292229.048;2124,292229.047755000,00000077,396,-63879,-75,47,-16224,43*0e9b816d
%RAWIMUSA,2124,292229.058;2124,292229.057755000,00000077,341,-64094,9,28,-16203,-27*f9170aea
%RAWIMUSA,2124,292229.068;2124,292229.067755000,00000077,307,-63916,50,40,-16200,26*6febe1fc
%RAWIMUSA,2124,292229.078;2124,292229.077755000,00000077,259,-64061,60,53,-16224,11*f9614abc
%RAWIMUSA,2124,292229.088;2124,292229.087755000,00000077,356,-63801,28,52,-16262,10*61df2942
%RAWIMUSA,2124,292229.098;2124,292229.097755000,00000077,283,-64092,55,53,-16289,27*8f562cfc
%RAWIMUSA,2124,292229.108;2124,292229.107755000,00000077,329,-63979,49,46,-16329,-22*868efbc0
%RAWIMUSA,2124,292229.118;2124,292229.117755000,00000077,384,-63906,-44,57,-16343,39*19483419
%RAWIMUSA,2124,292229.128;2124,292229.127755000,00000077,298,-64037,-101,46,-16322,-15*7ecf6d13
%RAWIMUSA,2124,292229.138;2124,292229.137755000,00000077,314,-63969,-71,29,-16306,17*03f80304
%RAWIMUSA,2124,292229.148;2124,292229.147755000,00000077,421,-64071,13,36,-16275,-6*60d35a77
%RAWIMUSA,2124,292229.158;2124,292229.157755000,00000077,326,-63950,-88,32,-16247,4*2d482d8d
%RAWIMUSA,2124,292229.168;2124,292229.167755000,00000077,309,-64068,-117,36,-16230,16*dc8e1e17
%RAWIMUSA,2124,292229.178;2124,292229.177755000,00000077,311,-64008,0,29,-16232,5*4dd1d24f
%RAWIMUSA,2124,292229.188;2124,292229.187755000,00000077,389,-63952,5,42,-16210,26*7d03c131
%RAWIMUSA,2124,292229.198;2124,292229.197755000,00000077,258,-63995,-112,17,-16189,-27*44894901
%RAWIMUSA,2124,292229.208;2124,292229.207755000,00000077,357,-63885,-20,56,-16226,40*d29ef774
%RAWIMUSA,2124,292229.218;2124,292229.217755000,00000077,250,-64035,22,36,-16222,-12*884bc869
%RAWIMUSA,2124,292229.228;2124,292229.227755000,00000077,266,-64010,-63,41,-16224,1*cab3df94
%RAWIMUSA,2124,292229.238;2124,292229.237755000,00000077,390,-64104,-57,19,-16194,11*9248fc26
%RAWIMUSA,2124,292229.248;2124,292229.247755000,00000077,296,-64016,28,31,-16203,-3*70decf1b
%RAWIMUSA,2124,292229.258;2124,292229.257755000,00000077,336,-63998,-83,47,-16200,38*4745eb28
%RAWIMUSA,2124,292229.268;2124,292229.267755000,00000077,314,-64012,21,33,-16152,-22*5a79578d
%RAWIMUSA,2124,292229.278;2124,292229.277755000,00000077,275,-63948,28,34,-16162,42*238c33cc
%RAWIMUSA,2124,292229.288;2124,292229.287755000,00000077,503,-64033,3,42,-16226,-17*8da9dc69
%RAWIMUSA,2124,292229.298;2124,292229.297755000,00000077,320,-63924,20,30,-16233,12*a44c7189
%RAWIMUSA,2124,292229.308;2124,292229.307755000,00000077,335,-64068,190,32,-16234,22*c83644b7
%RAWIMUSA,2124,292229.318;2124,292229.317755000,00000077,245,-63959,-22,34,-16258,-24*528b792d
%RAWIMUSA,2124,292229.328;2124,292229.327755000,00000077,321,-63931,-165,62,-16285,19*1e1ccfa8
%RAWIMUSA,2124,292229.338;2124,292229.337755000,00000077,411,-63975,20,29,-16275,-17*f8280c3d
%RAWIMUSA,2124,292229.348;2124,292229.347755000,00000077,331,-63942,-101,40,-16250,19*abb3ae6e
%RAWIMUSA,2124,292229.358;2124,292229.357755000,00000077,251,-63983,-84,43,-16229,-4*348beff9
%RAWIMUSA,2124,292229.368;2124,292229.367755000,00000077,391,-63999,-101,34,-16201,1*990751cf
%RAWIMUSA,2124,292229.378;2124,292229.377755000,00000077,305,-63932,-36,47,-16194,47*c0351d71
%RAWIMUSA,2124,292229.388;2124,292229.387755000,00000077,433,-63984,41,22,-16190,-6*ee88b917
%RAWIMUSA,2124,292229.398;2124,292229.397755000,00000077,293,-63990,9,60,-16196,19*245cefe6
%RAWIMUSA,2124,292229.408;2124,292229.407755000,00000077,377,-64056,23,32,-16197,0*5f5722b7
%RAWIMUSA,2124,292229.418;2124,292229.417755000,00000077,388,-63982,-49,41,-16175,18*3a569f5f
%RAWIMUSA,2124,292229.428;2124,292229.427755000,00000077,261,-63944,31,34,-16231,17*41d717ac
%RAWIMUSA,2124,292229.438;2124,292229.437755000,00000077,332,-64030,40,28,-16233,-4*affe9646
%RAWIMUSA,2124,292229.448;2124,292229.447755000,00000077,281,-63943,6,50,-16256,6*63919990
%RAWIMUSA,2124,292229.458;2124,292229.457755000,00000077,309,-63887,44,52,-16269,27*76bfb33d
%RAWIMUSA,2124,292229.468;2124,292229.467755000,00000077,277,-64059,53,29,-16279,10*9e7326c2
%RAWIMUSA,2124,292229.478;2124,292229.477755000,00000077,328,-63907,13,35,-16288,-2*973932b5
%RAWIMUSA,2124,292229.488;2124,292229.487755000,00000077,334,-64035,-68,35,-16289,-2*b3510973
%RAWIMUSA,2124,292229.498;2124,292229.497755000,00000077,288,-63923,-60,41,-16310,-5*e9b3d6fe
%RAWIMUSA,2124,292229.508;2124,292229.507755000,00000077,276,-64113,-71,44,-16301,12*8f68938c
%RAWIMUSA,2124,292229.518;2124,292229.517755000,00000077,265,-63997,-93,47,-16273,-2*d50b5ce8
%RAWIMUSA,2124,292229.528;2124,292229.527755000,00000077,384,-63998,-60,36,-16234,-7*beda90e9
%RAWIMUSA,2124,292229.538;2124,292229.537755000,00000077,319,-63945,25,29,-16190,2*fe9b821c
%RAWIMUSA,2124,292229.548;2124,292229.547755000,00000077,417,-64022,4,52,-16149,3*9eb93c7c
%RAWIMUSA,2124,292229.558;2124,292229.557755000,00000077,385,-63960,-35,28,-16157,-4*c513c66a
%RAWIMUSA,2124,292229.568;2124,292229.567755000,00000077,382,-63932,30,35,-16169,2*9d845c70
%RAWIMUSA,2124,292229.578;2124,292229.577755000,00000077,348,-63999,-16,40,-16203,8*74466529
%RAWIMUSA,2124,292229.588;2124,292229.587755000,00000077,392,-64007,166,42,-16230,0*50827610
%RAWIMUSA,2124,292229.598;2124,292229.597755000,00000077,364,-63925,48,30,-16218,5*96063be1
%RAWIMUSA,2124,292229.608;2124,292229.607755000,00000077,335,-63957,-5,45,-16238,0*a5718299
%RAWIMUSA,2124,292229.618;2124,292229.617755000,00000077,319,-63914,39,43,-16249,1*d9af0e5c
%RAWIMUSA,2124,292229.628;2124,292229.627755000,00000077,266,-63988,7,39,-16262,-2*743cfb58
%RAWIMUSA,2124,292229.638;2124,292229.637755000,00000077,319,-63925,-81,31,-16215,9*91e013c2
%RAWIMUSA,2124,292229.648;2124,292229.647755000,00000077,315,-63971,63,59,-16255,0*3df65000
%RAWIMUSA,2124,292229.658;2124,292229.657755000,00000077,331,-63963,39,38,-16294,0*38575c0f
%RAWIMUSA,2124,292229.668;2124,292229.667755000,00000077,370,-63922,17,23,-16290,22*32762f4d
%RAWIMUSA,2124,292229.678;2124,292229.677755000,00000077,350,-63932,-10,26,-16281,-4*fb27bca9
%RAWIMUSA,2124,292229.688;2124,292229.687755000,00000077,348,-63946,19,40,-16254,5*e370f485
%RAWIMUSA,2124,292229.698;2124,292229.697755000,00000077,381,-63964,12,37,-16242,7*c063729a
%RAWIMUSA,2124,292229.708;2124,292229.707755000,00000077,281,-64031,-46,36,-16197,-6*4ced0b18
%RAWIMUSA,2124,292229.718;2124,292229.717755000,00000077,352,-63915,86,43,-16134,-4*c32a0e0f
%RAWIMUSA,2124,292229.728;2124,292229.727755000,00000077,317,-63884,-18,48,-16134,8*e830033d
%RAWIMUSA,2124,292229.738;2124,292229.737755000,00000077,276,-63989,10,38,-16145,8*eee79ad6
%RAWIMUSA,2124,292229.748;2124,292229.747755000,00000077,314,-63981,67,37,-16186,3*98bce264
%RAWIMUSA,2124,292229.758;2124,292229.757755000,00000077,312,-63955,102,36,-16253,21*feaef24e
%RAWIMUSA,2124,292229.768;2124,292229.767755000,00000077,361,-64023,-26,45,-16297,14*73854bc5
%RAWIMUSA,2124,292229.778;2124,292229.777755000,00000077,396,-63938,77,47,-16312,8*9e119ba2
%RAWIMUSA,2124,292229.788;2124,292229.787755000,00000077,370,-63909,-12,40,-16308,2*b853da7b
%RAWIMUSA,2124,292229.798;2124,292229.797755000,00000077,371,-64081,-72,40,-16298,2*af61fee1
%RAWIMUSA,2124,292229.808;2124,292229.807755000,00000077,375,-63916,0,49,-16287,2*e199f9c9
%RAWIMUSA,2124,292229.818;2124,292229.817755000,00000077,307,-64062,-15,27,-16257,3*7a8ae7f8
%RAWIMUSA,2124,292229.828;2124,292229.827755000,00000077,384,-64024,-65,51,-16224,-1*af761358
%RAWIMUSA,2124,292229.838;2124,292229.837755000,00000077,473,-63934,-37,38,-16235,3*f408060a
%RAWIMUSA,2124,292229.848;2124,292229.847755000,00000077,404,-63946,-14,45,-16263,7*457c23ff
%RAWIMUSA,2124,292229.858;2124,292229.857755000,00000077,289,-64105,84,46,-16293,7*5fe20e5e
%RAWIMUSA,2124,292229.868;2124,292229.867755000,00000077,297,-64047,-54,34,-16310,-11*62674434
%RAWIMUSA,2124,292229.878;2124,292229.877755000,00000077,400,-63929,-17,33,-16293,7*df75f6da
%RAWIMUSA,2124,292229.888;2124,292229.887755000,00000077,361,-63970,-136,46,-16269,11*e1e4a8d2
%RAWIMUSA,2124,292229.898;2124,292229.897755000,00000077,368,-64058,-49,32,-16254,7*7c629592
%RAWIMUSA,2124,292229.908;2124,292229.907755000,00000077,324,-64068,-18,33,-16250,3*34786d0b
%RAWIMUSA,2124,292229.918;2124,292229.917755000,00000077,370,-63882,4,31,-16200,4*6cdd723e
%RAWIMUSA,2124,292229.928;2124,292229.927755000,00000077,257,-64061,0,47,-16188,14*2675c5ec
%RAWIMUSA,2124,292229.938;2124,292229.937755000,00000077,303,-64016,-31,33,-16152,-6*97c57886
%RAWIMUSA,2124,292229.948;2124,292229.947755000,00000077,339,-63934,-52,49,-16176,-7*05dea253
%RAWIMUSA,2124,292229.958;2124,292229.957755000,00000077,284,-64113,-88,37,-16163,2*be508540
%RAWIMUSA,2124,292229.968;2124,292229.967755000,00000077,363,-63976,3,38,-16151,15*c33fb2de
%RAWIMUSA,2124,292229.978;2124,292229.977755000,00000077,366,-64053,-11,36,-16216,-4*ff99b54f
%RAWIMUSA,2124,292229.988;2124,292229.987755000,00000077,374,-63907,-20,30,-16218,0*2283776c
%RAWIMUSA,2124,292229.998;2124,292229.997755000,00000077,297,-63946,41,46,-16217,20*5f449456
%RAWIMUSA,2124,292230.008;2124,292230.007755000,00000077,349,-63999,22,32,-16247,0*169b50b7
%RAWIMUSA,2124,292230.018;2124,292230.017755000,00000077,266,-63996,-26,42,-16275,-3*07e66a1f
%RAWIMUSA,2124,292230.028;2124,292230.027755000,00000077,317,-63967,42,34,-16317,6*bf75febf
%RAWIMUSA,2124,292230.038;2124,292230.037755000,00000077,426,-63931,-119,29,-16324,-2*2785b2fe
%RAWIMUSA,2124,292230.048;2124,292230.047755000,00000077,262,-63969,29,45,-16299,9*ce8c757a
%RAWIMUSA,2124,292230.058;2124,292230.057755000,00000077,281,-64020,-59,44,-16254,2*c4ee46b4
%RAWIMUSA,2124,292230.068;2124,292230.067755000,00000077,258,-63922,-96,48,-16208,15*16280699
%RAWIMUSA,2124,292230.078;2124,292230.077755000,00000077,359,-63925,-16,39,-16162,1*786415ad
%RAWIMUSA,2124,292230.088;2124,292230.087755000,00000077,369,-63964,-25,47,-16156,-1*5a96d437
%RAWIMUSA,2124,292230.098;2124,292230.097755000,00000077,355,-64011,-3,47,-16156,11*cc90b8a4
%RAWIMUSA,2124,292230.108;2124,292230.107755000,00000077,329,-64042,79,27,-16198,4*41334b60
%RAWIMUSA,2124,292230.118;2124,292230.117755000,00000077,424,-63930,-27,39,-16245,9*f93e06e4
%RAWIMUSA,2124,292230.128;2124,292230.127755000,00000077,400,-63944,27,38,-16238,1*663646c8
%RAWIMUSA,2124,292230.138;2124,292230.137755000,00000077,322,-64068,-2,38,-16213,16*bd451086
%RAWIMUSA,2124,292230.148;2124,292230.147755000,00000077,378,-63966,-70,35,-16199,9*0dc56130
%RAWIMUSA,2124,292230.158;2124,292230.157755000,00000077,366,-63995,-66,45,-16219,6*891ab257
%RAWIMUSA,2124,292230.168;2124,292230.167755000,00000077,362,-64022,16,39,-16236,0*39863047
%RAWIMUSA,2124,292230.178;2124,292230.177755000,00000077,356,-63942,48,35,-16236,15*d844c787
%RAWIMUSA,2124,292230.188;2124,292230.187755000,00000077,370,-63934,-33,50,-16270,13*e1b20c91
%RAWIMUSA,2124,292230.198;2124,292230.197755000,00000077,414,-63934,-83,45,-16304,1*495020f6
%RAWIMUSA,2124,292230.208;2124,292230.207755000,00000077,255,-64068,-57,42,-16281,1*1a0d9336
%RAWIMUSA,2124,292230.218;2124,292230.217755000,00000077,414,-63919,-18,44,-16288,-2*717fa8e9
%RAWIMUSA,2124,292230.228;2124,292230.227755000,00000077,359,-63974,77,38,-16308,-3*f5c2db8d
%RAWIMUSA,2124,292230.238;2124,292230.237755000,00000077,361,-64010,107,33,-16290,15*58ce47bf
%RAWIMUSA,2124,292230.248;2124,292230.247755000,00000077,389,-63858,20,38,-16264,-4*29bfb5bd
%RAWIMUSA,2124,292230.258;2124,292230.257755000,00000077,304,-64049,-12,48,-16231,9*bffde89a
%RAWIMUSA,2124,292230.268;2124,292230.267755000,00000077,431,-63758,-60,35,-16237,-12*4c9136f0
%RAWIMUSA,2124,292230.278;2124,292230.277755000,00000077,361,-63845,-65,35,-16188,3*e0a0da73
%RAWIMUSA,2124,292230.288;2124,292230.287755000,00000077,356,-63883,49,28,-16179,21*42044b92
%RAWIMUSA,2124,292230.298;2124,292230.297755000,00000077,361,-64004,-19,29,-16198,1*b3af45dd
%RAWIMUSA,2124,292230.308;2124,292230.307755000,00000077,314,-63819,61,26,-16214,-3*0fac750d
%RAWIMUSA,2124,292230.318;2124,292230.317755000,00000077,283,-64052,4,44,-16211,2*952d429a
%RAWIMUSA,2124,292230.328;2124,292230.327755000,00000077,305,-63917,27,28,-16199,16*5519dec2
%RAWIMUSA,2124,292230.338;2124,292230.337755000,00000077,353,-64048,49,10,-16195,-6*ce0bd9d4
%RAWIMUSA,2124,292230.348;2124,292230.347755000,00000077,295,-63841,89,60,-16228,4*2d20bb97
%RAWIMUSA,2124,292230.358;2124,292230.357755000,00000077,378,-64059,-34,31,-16235,-5*a9ce776f
%RAWIMUSA,2124,292230.368;2124,292230.367755000,00000077,309,-63844,135,45,-16213,28*4964c278
%RAWIMUSA,2124,292230.378;2124,292230.377755000,00000077,252,-64033,-47,38,-16217,-14*f3740393
%RAWIMUSA,2124,292230.388;2124,292230.387755000,00000077,282,-63857,-9,52,-16233,27*b1371f5b
%RAWIMUSA,2124,292230.398;2124,292230.397755000,00000077,382,-64018,1,23,-16244,-19*d72c4f6f
%RAWIMUSA,2124,292230.408;2124,292230.407755000,00000077,334,-63823,12,44,-16234,33*cfc33bae
%RAWIMUSA,2124,292230.418;2124,292230.417755000,00000077,333,-63944,-62,23,-16232,-11*4466969f
%RAWIMUSA,2124,292230.428;2124,292230.427755000,00000077,315,-63768,-77,42,-16211,23*8cc90a45
%RAWIMUSA,2124,292230.438;2124,292230.437755000,00000077,364,-64072,-113,53,-16204,-4*9e1b705b
%RAWIMUSA,2124,292230.448;2124,292230.447755000,00000077,218,-63924,141,52,-16177,3*efdeb815
%RAWIMUSA,2124,292230.458;2124,292230.457755000,00000077,365,-64050,9,36,-16178,8*16a657ed
%RAWIMUSA,2124,292230.468;2124,292230.467755000,00000077,355,-63880,-86,51,-16215,23*d2c352bc
%RAWIMUSA,2124,292230.478;2124,292230.477755000,00000077,284,-63972,-87,43,-16254,1*c0ccb35f
%RAWIMUSA,2124,292230.488;2124,292230.487755000,00000077,468,-63905,-40,32,-16251,23*556c86b4
%RAWIMUSA,2124,292230.498;2124,292230.497755000,00000077,347,-64056,43,40,-16263,5*350a845e
%RAWIMUSA,2124,292230.508;2124,292230.507755000,00000077,311,-63971,-56,42,-16251,-10*9305da20
%RAWIMUSA,2124,292230.518;2124,292230.517755000,00000077,317,-64020,11,40,-16246,-2*f5b3ca5c
%RAWIMUSA,2124,292230.528;2124,292230.527755000,00000077,394,-63854,108,50,-16227,2*c56b938c
%RAWIMUSA,2124,292230.538;2124,292230.537755000,00000077,234,-64034,-29,40,-16235,6*d8cdb2de
%RAWIMUSA,2124,292230.548;2124,292230.547755000,00000077,358,-63970,25,28,-16295,11*2b657663
%RAWIMUSA,2124,292230.558;2124,292230.557755000,00000077,328,-64144,-59,27,-16315,5*59d2db4c
%RAWIMUSA,2124,292230.568;2124,292230.567755000,00000077,237,-63904,50,56,-16333,26*e49400ed
%RAWIMUSA,2124,292230.578;2124,292230.577755000,00000077,387,-64085,7,15,-16333,-1*32c86092
%RAWIMUSA,2124,292230.588;2124,292230.587755000,00000077,323,-63978,-42,47,-16335,17*c713eba3
%RAWIMUSA,2124,292230.598;2124,292230.597755000,00000077,335,-64076,-30,18,-16337,-12*57a16460
%RAWIMUSA,2124,292230.608;2124,292230.607755000,00000077,407,-63791,-41,67,-16319,33*dec9a613
%RAWIMUSA,2124,292230.618;2124,292230.617755000,00000077,291,-64061,-56,40,-16299,-6*e829662f
%RAWIMUSA,2124,292230.628;2124,292230.627755000,00000077,332,-63907,16,46,-16243,24*4ac97447
%RAWIMUSA,2124,292230.638;2124,292230.637755000,00000077,314,-64060,-38,33,-16228,-7*b95f987f
%RAWIMUSA,2124,292230.648;2124,292230.647755000,00000077,419,-63924,11,58,-16182,16*635e378c
%RAWIMUSA,2124,292230.658;2124,292230.657755000,00000077,384,-64038,-61,42,-16156,-10*9efba2cd
%RAWIMUSA,2124,292230.668;2124,292230.667755000,00000077,246,-63954,125,62,-16175,26*b227a62a
%RAWIMUSA,2124,292230.678;2124,292230.677755000,00000077,262,-63959,-11,26,-16217,-18*dd76b450
%RAWIMUSA,2124,292230.688;2124,292230.687755000,00000077,378,-63958,-26,56,-16201,38*26a5fbec
%RAWIMUSA,2124,292230.698;2124,292230.697755000,00000077,365,-63875,68,33,-16221,-30*1b75f432
%RAWIMUSA,2124,292230.708;2124,292230.707755000,00000077,324,-64068,-12,56,-16240,32*26137d0b
%RAWIMUSA,2124,292230.718;2124,292230.717755000,00000077,348,-64009,-32,25,-16248,-13*f17b4c9b
%RAWIMUSA,2124,292230.728;2124,292230.727755000,00000077,395,-63861,23,46,-16199,19*b6b6656d
%RAWIMUSA,2124,292230.738;2124,292230.737755000,00000077,390,-63993,50,39,-16246,-21*dba7c45f
%RAWIMUSA,2124,292230.748;2124,292230.747755000,00000077,357,-63936,-58,60,-16267,24*62418549
%RAWIMUSA,2124,292230.758;2124,292230.757755000,00000077,387,-63922,22,12,-16272,-22*b1ab3b31
%RAWIMUSA,2124,292230.768;2124,292230.767755000,00000077,324,-63991,17,39,-16241,30*250f6a55
%RAWIMUSA,2124,292230.778;2124,292230.777755000,00000077,446,-64011,-29,17,-16242,-9*ea07f8aa
%RAWIMUSA,2124,292230.788;2124,292230.787755000,00000077,297,-63983,24,66,-16217,44*3ef73aef
%RAWIMUSA,2124,292230.798;2124,292230.797755000,00000077,322,-63906,-30,22,-16197,-9*efbeb5f5
%RAWIMUSA,2124,292230.808;2124,292230.807755000,00000077,370,-63977,-18,35,-16160,28*e91901f9
%RAWIMUSA,2124,292230.818;2124,292230.817755000,00000077,409,-64032,-8,32,-16126,-13*b72aabd5
%RAWIMUSA,2124,292230.828;2124,292230.827755000,00000077,414,-63968,114,51,-16093,17*6dca3773
%RAWIMUSA,2124,292230.838;2124,292230.837755000,00000077,302,-63963,3,22,-16111,-11*89d4d084
%RAWIMUSA,2124,292230.848;2124,292230.847755000,00000077,367,-64052,43,51,-16164,16*b1399ce4
%RAWIMUSA,2124,292230.858;2124,292230.857755000,00000077,406,-63882,91,18,-16215,-12*8de18c6b
%RAWIMUSA,2124,292230.868;2124,292230.867755000,00000077,318,-63971,-7,44,-16231,20*9519175b
%RAWIMUSA,2124,292230.878;2124,292230.877755000,00000077,267,-63999,36,40,-16299,0*ae52f139
%RAWIMUSA,2124,292230.888;2124,292230.887755000,00000077,314,-64043,22,39,-16300,0*bd244ade
%RAWIMUSA,2124,292230.898;2124,292230.897755000,00000077,324,-63965,-88,39,-16297,6*559311e7
%RAWIMUSA,2124,292230.908;2124,292230.907755000,00000077,365,-64096,22,46,-16269,2*1739a344
%RAWIMUSA,2124,292230.918;2124,292230.917755000,00000077,281,-63898,-41,36,-16267,3*15c3914e
%RAWIMUSA,2124,292230.928;2124,292230.927755000,00000077,373,-64023,-30,36,-16250,8*ab08867b
%RAWIMUSA,2124,292230.938;2124,292230.937755000,00000077,322,-63993,16,29,-16282,-8*73aaf036
%RAWIMUSA,2124,292230.948;2124,292230.947755000,00000077,319,-64105,-36,39,-16311,10*e9693a27
%RAWIMUSA,2124,292230.958;2124,292230.957755000,00000077,271,-63914,17,40,-16329,6*ae59adf6
%RAWIMUSA,2124,292230.968;2124,292230.967755000,00000077,327,-64029,-30,52,-16341,11*bd3a7620
%RAWIMUSA,2124,292230.978;2124,292230.977755000,00000077,339,-63887,0,38,-16324,1*6bb8c852
%RAWIMUSA,2124,292230.988;2124,292230.987755000,00000077,407,-64051,-35,47,-16301,11*503d173a
%RAWIMUSA,2124,292230.998;2124,292230.997755000,00000077,237,-63955,-56,46,-16239,13*62c8b083
%RAWIMUSA,2124,292231.008;2124,292231.007755000,00000077,287,-64084,17,35,-16181,18*175abb75
%RAWIMUSA,2124,292231.018;2124,292231.017755000,00000077,460,-63915,49,44,-16150,14*fa85c214
%RAWIMUSA,2124,292231.028;2124,292231.027755000,00000077,418,-63959,-78,42,-16159,1*8f2bca7d
%RAWIMUSA,2124,292231.038;2124,292231.037755000,00000077,326,-63851,111,48,-16172,9*105958a9
%RAWIMUSA,2124,292231.048;2124,292231.047755000,00000077,354,-63955,-5,33,-16192,-11*7a760ae6
%RAWIMUSA,2124,292231.058;2124,292231.057755000,00000077,293,-63962,44,41,-16201,18*b27d7202
%RAWIMUSA,2124,292231.068;2124,292231.067755000,00000077,366,-63976,3,48,-16225,-3*d34468f2
%RAWIMUSA,2124,292231.078;2124,292231.077755000,00000077,309,-63964,-58,61,-16210,32*d6f302c2
%RAWIMUSA,2124,292231.088;2124,292231.087755000,00000077,362,-64091,-13,23,-16186,-25*e41ec7c5
%RAWIMUSA,2124,292231.098;2124,292231.097755000,00000077,334,-64039,57,61,-16177,31*9ae32a09
%RAWIMUSA,2124,292231.108;2124,292231.107755000,00000077,347,-63980,20,13,-16224,0*78c3ef49
%RAWIMUSA,2124,292231.118;2124,292231.117755000,00000077,305,-63998,77,45,-16249,12*4efd1719
%RAWIMUSA,2124,292231.128;2124,292231.127755000,00000077,330,-64033,-35,31,-16261,-16*cb10190d
%RAWIMUSA,2124,292231.138;2124,292231.137755000,00000077,405,-63948,-4,82,-16261,24*7114dab6
%RAWIMUSA,2124,292231.148;2124,292231.147755000,00000077,384,-63946,56,29,-16257,-7*1fa727be
%RAWIMUSA,2124,292231.158;2124,292231.157755000,00000077,339,-64047,-29,51,-16235,20*4e4327e2
%RAWIMUSA,2124,292231.168;2124,292231.167755000,00000077,316,-63908,-178,27,-16238,-15*5e996a3c
%RAWIMUSA,2124,292231.178;2124,292231.177755000,00000077,377,-63980,56,53,-16213,16*99f71faa
%RAWIMUSA,2124,292231.188;2124,292231.187755000,00000077,222,-63913,57,45,-16178,-4*febd24d1
%RAWIMUSA,2124,292231.198;2124,292231.197755000,00000077,296,-64042,-60,42,-16198,16*37810d72
%RAWIMUSA,2124,292231.208;2124,292231.207755000,00000077,326,-63966,-30,38,-16198,8*1e0e947a
%RAWIMUSA,2124,292231.218;2124,292231.217755000,00000077,351,-64125,7,64,-16212,21*aa5d3878
%RAWIMUSA,2124,292231.228;2124,292231.227755000,00000077,274,-63906,74,30,-16247,2*de9274da
%RAWIMUSA,2124,292231.238;2124,292231.237755000,00000077,369,-64019,-149,47,-16257,-7*3af079ed
%RAWIMUSA,2124,292231.248;2124,292231.247755000,00000077,302,-63888,-71,30,-16253,-1*263faae5
%RAWIMUSA,2124,292231.258;2124,292231.257755000,00000077,384,-63963,50,32,-16262,6*0073ec4a
%RAWIMUSA,2124,292231.268;2124,292231.267755000,00000077,356,-63971,53,41,-16283,1*a59249b2
%RAWIMUSA,2124,292231.278;2124,292231.277755000,00000077,301,-64086,23,38,-16290,20*f500c5ca
%RAWIMUSA,2124,292231.288;2124,292231.287755000,00000077,330,-63847,23,33,-16299,13*7b17717a
%RAWIMUSA,2124,292231.298;2124,292231.297755000,00000077,369,-64045,-13,42,-16271,14*1b57671e
%RAWIMUSA,2124,292231.308;2124,292231.307755000,00000077,267,-64058,6,35,-16277,10*92ba9151
%RAWIMUSA,2124,292231.318;2124,292231.317755000,00000077,385,-64035,75,33,-16278,-12*11c627bf
%RAWIMUSA,2124,292231.328;2124,292231.327755000,00000077,309,-63835,-31,51,-16301,3*9fdfcbdc
%RAWIMUSA,2124,292231.338;2124,292231.337755000,00000077,284,-63886,-30,32,-16291,-1*f04bb110
%RAWIMUSA,2124,292231.348;2124,292231.347755000,00000077,272,-63999,22,50,-16281,9*cc4518e7
%RAWIMUSA,2124,292231.358;2124,292231.357755000,00000077,368,-63947,-6,29,-16251,-13*1ba5a019
%RAWIMUSA,2124,292231.368;2124,292231.367755000,00000077,377,-63961,-158,54,-16206,15*36baa0df
%RAWIMUSA,2124,292231.378;2124,292231.377755000,00000077,329,-63919,0,33,-16179,10*61bad6fa
%RAWIMUSA,2124,292231.388;2124,292231.387755000,00000077,383,-63899,22,49,-16141,27*caf3f6ef
%RAWIMUSA,2124,292231.398;2124,292231.397755000,00000077,325,-63888,92,33,-16158,-5*6553c467
%RAWIMUSA,2124,292231.408;2124,292231.407755000,00000077,229,-63938,-20,47,-16184,23*aed2b667
%RAWIMUSA,2124,292231.418;2124,292231.417755000,00000077,319,-63932,15,6,-16196,-11*1e4b65dc
%RAWIMUSA,2124,292231.428;2124,292231.427755000,00000077,358,-63918,-56,38,-16221,19*1ac4f55d
%RAWIMUSA,2124,292231.438;2124,292231.437755000,00000077,334,-63886,47,20,-16237,-18*0247f653
%RAWIMUSA,2124,292231.448;2124,292231.447755000,00000077,452,-63974,-31,54,-16225,30*3b8925a5
%RAWIMUSA,2124,292231.458;2124,292231.457755000,00000077,333,-63967,98,20,-16243,-20*eaa6086e
%RAWIMUSA,2124,292231.468;2124,292231.467755000,00000077,266,-64045,0,48,-16238,16*aeda2e7e
%RAWIMUSA,2124,292231.478;2124,292231.477755000,00000077,303,-63882,27,17,-16259,-11*7011a036
%RAWIMUSA,2124,292231.488;2124,292231.487755000,00000077,398,-63977,73,47,-16238,35*5ec46c08
%RAWIMUSA,2124,292231.498;2124,292231.497755000,00000077,414,-64088,8,27,-16273,-4*82a899c9
%RAWIMUSA,2124,292231.508;2124,292231.507755000,00000077,421,-64045,-38,60,-16277,17*aa0fbf71
%RAWIMUSA,2124,292231.518;2124,292231.517755000,00000077,315,-63936,36,22,-16238,-28*d247430c
%RAWIMUSA,2124,292231.528;2124,292231.527755000,00000077,382,-63984,-3,62,-16243,18*6cffc675
%RAWIMUSA,2124,292231.538;2124,292231.537755000,00000077,316,-63979,21,29,-16213,-18*cab4692e
%RAWIMUSA,2124,292231.548;2124,292231.547755000,00000077,426,-64062,-9,61,-16181,32*bf98d4a6
%RAWIMUSA,2124,292231.558;2124,292231.557755000,00000077,333,-63959,-24,23,-16122,-17*54e536dc
%RAWIMUSA,2124,292231.568;2124,292231.567755000,00000077,364,-64072,61,60,-16141,28*e4763917
%RAWIMUSA,2124,292231.578;2124,292231.577755000,00000077,289,-64044,-71,27,-16175,-15*e776cc60
%RAWIMUSA,2124,292231.588;2124,292231.587755000,00000077,363,-63941,27,60,-16255,17*eb5c0dc7
%RAWIMUSA,2124,292231.598;2124,292231.597755000,00000077,352,-64040,76,22,-16306,-15*b98ae547
%RAWIMUSA,2124,292231.608;2124,292231.607755000,00000077,357,-63878,9,67,-16318,27*0ce6f638
%RAWIMUSA,2124,292231.618;2124,292231.617755000,00000077,373,-63994,-45,26,-16309,-10*4b666004
%RAWIMUSA,2124,292231.628;2124,292231.627755000,00000077,422,-63867,-10,47,-16267,25*5ae24d9d
%RAWIMUSA,2124,292231.638;2124,292231.637755000,00000077,276,-64014,34,46,-16284,-19*487b5816
%RAWIMUSA,2124,292231.648;2124,292231.647755000,00000077,267,-63889,51,57,-16298,10*3a5d70ed
%RAWIMUSA,2124,292231.658;2124,292231.657755000,00000077,355,-64016,-6,43,-16306,-5*72dd2335
%RAWIMUSA,2124,292231.668;2124,292231.667755000,00000077,286,-63844,-42,60,-16280,22*a7b29cee
%RAWIMUSA,2124,292231.678;2124,292231.677755000,00000077,362,-64058,-16,61,-16272,-3*c0a97e90
%RAWIMUSA,2124,292231.688;2124,292231.687755000,00000077,345,-63862,-97,54,-16270,20*c6341a30
%RAWIMUSA,2124,292231.698;2124,292231.697755000,00000077,450,-64044,30,38,-16267,5*3a764082
%RAWIMUSA,2124,292231.708;2124,292231.707755000,00000077,340,-63859,109,39,-16224,17*61b1e325
%RAWIMUSA,2124,292231.718;2124,292231.717755000,00000077,380,-63980,35,44,-16208,15*521bf948
%RAWIMUSA,2124,292231.728;2124,292231.727755000,00000077,246,-63909,-74,41,-16202,1*13bc9551
%RAWIMUSA,2124,292231.738;2124,292231.737755000,00000077,367,-63972,-67,58,-16217,9*fc4f8c21
%RAWIMUSA,2124,292231.748;2124,292231.747755000,00000077,300,-63994,26,30,-16243,6*78e72f8a
%RAWIMUSA,2124,292231.758;2124,292231.757755000,00000077,391,-64053,-22,41,-16239,27*2730cac8
%RAWIMUSA,2124,292231.768;2124,292231.767755000,00000077,378,-64025,-37,34,-16221,-8*a43f457e
%RAWIMUSA,2124,292231.778;2124,292231.777755000,00000077,262,-64037,45,58,-16165,20*4c62cd2a
%RAWIMUSA,2124,292231.788;2124,292231.787755000,00000077,145,-63952,-18,22,-16194,-8*64b86c37
%RAWIMUSA,2124,292231.798;2124,292231.797755000,00000077,346,-64062,-110,61,-16211,21*222cb56d
%RAWIMUSA,2124,292231.808;2124,292231.807755000,00000077,393,-63899,21,21,-16231,-11*61aa7ee2
%RAWIMUSA,2124,292231.818;2124,292231.817755000,00000077,313,-63867,65,65,-16211,28*54630f94
%RAWIMUSA,2124,292231.828;2124,292231.827755000,00000077,301,-64027,26,20,-16229,-6*1d5944d0
%RAWIMUSA,2124,292231.838;2124,292231.837755000,00000077,354,-63924,52,51,-16250,14*d7c0aadf
%RAWIMUSA,2124,292231.848;2124,292231.847755000,00000077,346,-64040,-109,31,-16217,16*9b707802
%RAWIMUSA,2124,292231.858;2124,292231.857755000,00000077,290,-63907,50,39,-16234,14*431b250e
%RAWIMUSA,2124,292231.868;2124,292231.867755000,00000077,327,-64005,-46,55,-16255,20*c1adec49
%RAWIMUSA,2124,292231.878;2124,292231.877755000,00000077,308,-63917,-7,27,-16291,6*5f02bfe7
%RAWIMUSA,2124,292231.888;2124,292231.887755000,00000077,285,-64021,-55,57,-16254,30*d04f1693
%RAWIMUSA,2124,292231.898;2124,292231.897755000,00000077,364,-63924,-63,12,-16212,-22*72ac6896
%RAWIMUSA,2124,292231.908;2124,292231.907755000,00000077,349,-63874,23,55,-16181,30*1a6f4ea2
%RAWIMUSA,2124,292231.918;2124,292231.917755000,00000077,384,-64070,-26,23,-16202,-5*f3f627fa
%RAWIMUSA,2124,292231.928;2124,292231.927755000,00000077,325,-63933,34,49,-16191,1*55223ea7
%RAWIMUSA,2124,292231.938;2124,292231.937755000,00000077,359,-64138,-5,36,-16234,2*5264e117
%RAWIMUSA,2124,292231.948;2124,292231.947755000,00000077,267,-63899,-27,40,-16266,12*d81750d7
%RAWIMUSA,2124,292231.958;2124,292231.957755000,00000077,371,-63937,-119,54,-16279,2*201094a8
%RAWIMUSA,2124,292231.968;2124,292231.967755000,00000077,280,-63828,-7,28,-16258,-8*4858e4c2
%RAWIMUSA,2124,292231.978;2124,292231.977755000,00000077,314,-63953,-10,69,-16254,44*ef794211
%RAWIMUSA,2124,292231.988;2124,292231.987755000,00000077,285,-64134,34,30,-16253,9*7b3f5c52
%RAWIMUSA,2124,292231.998;2124,292231.997755000,00000077,266,-63925,107,61,-16260,31*b12da025
%RAWIMUSA,2124,292232.008;2124,292232.007755000,00000077,318,-63981,-18,40,-16236,-10*2d29c8fd
%RAWIMUSA,2124,292232.018;2124,292232.017755000,00000077,406,-63928,-21,53,-16260,-5*55f8a2c7
%RAWIMUSA,2124,292232.028;2124,292232.027755000,00000077,320,-64040,2,51,-16293,27*38ad548b
%RAWIMUSA,2124,292232.038;2124,292232.037755000,00000077,292,-63914,-15,32,-16289,-7*72140251
%RAWIMUSA,2124,292232.048;2124,292232.047755000,00000077,440,-63939,-68,68,-16280,20*4f4619dc
%RAWIMUSA,2124,292232.058;2124,292232.057755000,00000077,400,-64044,-65,28,-16285,-2*333111d9
%RAWIMUSA,2124,292232.068;2124,292232.067755000,00000077,384,-63951,-22,43,-16262,20*76b117b2
%RAWIMUSA,2124,292232.078;2124,292232.077755000,00000077,376,-64047,-45,27,-16249,8*e3cae489
%RAWIMUSA,2124,292232.088;2124,292232.087755000,00000077,277,-63911,-8,21,-16232,-10*7b57e20d
%RAWIMUSA,2124,292232.098;2124,292232.097755000,00000077,406,-64022,9,54,-16220,17*49d155a1
%RAWIMUSA,2124,292232.108;2124,292232.107755000,00000077,372,-64061,28,44,-16193,-11*97ab5dd4
%RAWIMUSA,2124,292232.118;2124,292232.117755000,00000077,266,-63945,-29,63,-16185,28*888c1fb2
%RAWIMUSA,2124,292232.128;2124,292232.127755000,00000077,337,-63998,-32,39,-16196,-10*27e6c307
%RAWIMUSA,2124,292232.138;2124,292232.137755000,00000077,399,-63960,89,44,-16226,-9*c4dabc19
%RAWIMUSA,2124,292232.148;2124,292232.147755000,00000077,348,-63916,42,63,-16240,16*ad87d4f5
%RAWIMUSA,2124,292232.158;2124,292232.157755000,00000077,235,-63907,25,17,-16226,-6*f9c1915d
%RAWIMUSA,2124,292232.168;2124,292232.167755000,00000077,375,-64017,-13,64,-16222,-3*09ec89f9
%RAWIMUSA,2124,292232.178;2124,292232.177755000,00000077,369,-63992,-76,35,-16214,0*7600afaf
%RAWIMUSA,2124,292232.188;2124,292232.187755000,00000077,388,-63976,-62,38,-16214,-2*78b33f6a
%RAWIMUSA,2124,292232.198;2124,292232.197755000,00000077,339,-64006,0,54,-16228,16*558c563d
%RAWIMUSA,2124,292232.208;2124,292232.207755000,00000077,333,-64012,-32,36,-16240,5*0f2441d2
%RAWIMUSA,2124,292232.218;2124,292232.217755000,00000077,290,-64007,-81,27,-16241,7*c43fffc1
%RAWIMUSA,2124,292232.228;2124,292232.227755000,00000077,311,-63928,-53,53,-16247,4*e2d24c49
%RAWIMUSA,2124,292232.238;2124,292232.237755000,00000077,291,-63915,-98,44,-16224,1*882e4ec9
%RAWIMUSA,2124,292232.248;2124,292232.247755000,00000077,235,-64146,-84,40,-16229,9*c5ec0ddf
%RAWIMUSA,2124,292232.258;2124,292232.257755000,00000077,393,-63984,-31,62,-16204,4*3c946ea3
%RAWIMUSA,2124,292232.268;2124,292232.267755000,00000077,279,-64003,-59,45,-16196,15*e95744e9
%RAWIMUSA,2124,292232.278;2124,292232.277755000,00000077,248,-64014,-8,45,-16187,-10*547e1eed
%RAWIMUSA,2124,292232.288;2124,292232.287755000,00000077,364,-64033,40,48,-16147,14*7527cacb
%RAWIMUSA,2124,292232.298;2124,292232.297755000,00000077,390,-63962,-19,35,-16140,-15*cda00763
%RAWIMUSA,2124,292232.308;2124,292232.307755000,00000077,357,-64052,37,47,-16167,-21*7f57a128
%RAWIMUSA,2124,292232.318;2124,292232.317755000,00000077,254,-64065,55,26,-16187,-2*fa575f18
%RAWIMUSA,2124,292232.328;2124,292232.327755000,00000077,417,-63964,-36,36,-16246,24*7dce8938
%RAWIMUSA,2124,292232.338;2124,292232.337755000,00000077,348,-63998,15,45,-16261,13*b396c495
%RAWIMUSA,2124,292232.348;2124,292232.347755000,00000077,270,-64068,-45,53,-16278,12*09c86adf
%RAWIMUSA,2124,292232.358;2124,292232.357755000,00000077,409,-63977,-9,50,-16281,6*697464d6
%RAWIMUSA,2124,292232.368;2124,292232.367755000,00000077,392,-64044,-104,40,-16296,0*5cb19d77
%RAWIMUSA,2124,292232.378;2124,292232.377755000,00000077,332,-64030,-70,42,-16299,1*ed351860
%RAWIMUSA,2124,292232.388;2124,292232.387755000,00000077,288,-64021,19,46,-16301,2*1f13ae67
%RAWIMUSA,2124,292232.398;2124,292232.397755000,00000077,353,-63946,44,22,-16309,-10*25d0934e
%RAWIMUSA,2124,292232.408;2124,292232.407755000,00000077,398,-64059,-70,49,-16319,12*a2eb83d7
%RAWIMUSA,2124,292232.418;2124,292232.417755000,00000077,382,-64039,40,40,-16319,2*5325bfee
%RAWIMUSA,2124,292232.428;2124,292232.427755000,00000077,296,-63956,19,40,-16307,4*c6a33601
%RAWIMUSA,2124,292232.438;2124,292232.437755000,00000077,355,-64031,10,49,-16297,0*54ec9103
%RAWIMUSA,2124,292232.448;2124,292232.447755000,00000077,294,-63880,-149,62,-16280,7*119cd03b
%RAWIMUSA,2124,292232.458;2124,292232.457755000,00000077,305,-63963,-37,55,-16266,5*1eed1de0
%RAWIMUSA,2124,292232.468;2124,292232.467755000,00000077,240,-64115,-7,52,-16214,8*5261eb44
%RAWIMUSA,2124,292232.478;2124,292232.477755000,00000077,314,-63974,51,30,-16223,3*fc9f566f
%RAWIMUSA,2124,292232.488;2124,292232.487755000,00000077,321,-63913,97,30,-16215,-2*48d36357
%RAWIMUSA,2124,292232.498;2124,292232.497755000,00000077,248,-63992,4,50,-16202,13*44439aa5
%RAWIMUSA,2124,292232.508;2124,292232.507755000,00000077,355,-64140,-84,61,-16179,20*3048fcff
%RAWIMUSA,2124,292232.518;2124,292232.517755000,00000077,374,-63951,133,21,-16179,-1*d139c0a1
%RAWIMUSA,2124,292232.528;2124,292232.527755000,00000077,379,-63816,0,51,-16212,0*c24ba391
%RAWIMUSA,2124,292232.538;2124,292232.537755000,00000077,277,-63959,-54,44,-16225,12*194adb5f
%RAWIMUSA,2124,292232.548;2124,292232.547755000,00000077,348,-63965,-3,36,-16247,-5*74fe9a01
%RAWIMUSA,2124,292232.558;2124,292232.557755000,00000077,350,-63879,78,55,-16254,-3*9217e78a
%RAWIMUSA,2124,292232.568;2124,292232.567755000,00000077,345,-64059,-23,50,-16272,13*62f88142
%RAWIMUSA,2124,292232.578;2124,292232.577755000,00000077,310,-63977,-129,45,-16268,-2*ac8b39af
%RAWIMUSA,2124,292232.588;2124,292232.587755000,00000077,310,-63948,65,36,-16242,19*0af15ec2
%RAWIMUSA,2124,292232.598;2124,292232.597755000,00000077,335,-63954,-67,41,-16224,-1*c6bfcf6e
%RAWIMUSA,2124,292232.608;2124,292232.607755000,00000077,370,-64009,-118,46,-16200,0*3ffc5fd8
%RAWIMUSA,2124,292232.618;2124,292232.617755000,00000077,274,-63976,-75,31,-16186,6*596a6f34
%RAWIMUSA,2124,292232.628;2124,292232.627755000,00000077,329,-63824,4,53,-16163,-1*22d423bf
%RAWIMUSA,2124,292232.638;2124,292232.637755000,00000077,385,-64097,11,30,-16155,0*13b37d29
%RAWIMUSA,2124,292232.648;2124,292232.647755000,00000077,315,-64028,-24,44,-16160,3*19b895e7
%RAWIMUSA,2124,292232.658;2124,292232.657755000,00000077,308,-64033,-66,39,-16161,23*955084aa
%RAWIMUSA,2124,292232.668;2124,292232.667755000,00000077,383,-63890,110,49,-16171,12*34b8b94a
%RAWIMUSA,2124,292232.678;2124,292232.677755000,00000077,320,-64031,16,50,-16194,6*6cd900eb
%RAWIMUSA,2124,292232.688;2124,292232.687755000,00000077,251,-64011,32,26,-16238,19*84d1c479
%RAWIMUSA,2124,292232.698;2124,292232.697755000,00000077,388,-63907,-4,49,-16276,-8*7c7adfed
%RAWIMUSA,2124,292232.708;2124,292232.707755000,00000077,438,-63889,-34,50,-16263,17*67de6aff
%RAWIMUSA,2124,292232.718;2124,292232.717755000,00000077,356,-64005,-10,34,-16261,-4*c983734b
%RAWIMUSA,2124,292232.728;2124,292232.727755000,00000077,320,-63888,-37,25,-16286,-7*e1bf1007
%RAWIMUSA,2124,292232.738;2124,292232.737755000,00000077,331,-63977,36,47,-16291,-2*a1650e27
%RAWIMUSA,2124,292232.748;2124,292232.747755000,00000077,392,-63927,-47,50,-16252,5*11eaa068
%RAWIMUSA,2124,292232.758;2124,292232.757755000,00000077,296,-63844,-25,57,-16226,11*f8705191
%RAWIMUSA,2124,292232.768;2124,292232.767755000,00000077,393,-63976,40,46,-16250,-10*88d8307b
%RAWIMUSA,2124,292232.778;2124,292232.777755000,00000077,324,-64066,5,32,-16280,6*76723404
%RAWIMUSA,2124,292232.788;2124,292232.787755000,00000077,302,-63814,63,43,-16288,5*14c04e2a
%RAWIMUSA,2124,292232.798;2124,292232.797755000,00000077,278,-63938,68,42,-16299,-7*6fcd01df
%RAWIMUSA,2124,292232.808;2124,292232.807755000,00000077,366,-63921,-28,55,-16309,4*72856663
%RAWIMUSA,2124,292232.818;2124,292232.817755000,00000077,293,-63981,-41,38,-16277,3*3bcf8efc
%RAWIMUSA,2124,292232.828;2124,292232.827755000,00000077,326,-63995,-1,46,-16224,-5*f9593f00
%RAWIMUSA,2124,292232.838;2124,292232.837755000,00000077,374,-63987,-10,60,-16211,-2*2df51bf4
%RAWIMUSA,2124,292232.848;2124,292232.847755000,00000077,351,-64010,-90,40,-16208,-1*447f2379
%RAWIMUSA,2124,292232.858;2124,292232.857755000,00000077,317,-63979,-57,33,-16205,9*0730d9d6
%RAWIMUSA,2124,292232.868;2124,292232.867755000,00000077,308,-64054,3,36,-16232,0*e24f1229
%RAWIMUSA,2124,292232.878;2124,292232.877755000,00000077,318,-64015,65,36,-16208,14*05e1cd12
%RAWIMUSA,2124,292232.888;2124,292232.887755000,00000077,358,-63935,5,43,-16225,0*e6326600
%RAWIMUSA,2124,292232.898;2124,292232.897755000,00000077,306,-63971,-42,39,-16251,-1*56945077
%RAWIMUSA,2124,292232.908;2124,292232.907755000,00000077,346,-64031,26,55,-16244,-9*f943e1b7
%RAWIMUSA,2124,292232.918;2124,292232.917755000,00000077,378,-63876,-96,34,-16217,6*4bf1423a
%RAWIMUSA,2124,292232.928;2124,292232.927755000,00000077,298,-63909,-65,38,-16214,0*fb485cf9
%RAWIMUSA,2124,292232.938;2124,292232.937755000,00000077,342,-63954,-90,50,-16240,8*fd346a0b
%RAWIMUSA,2124,292232.948;2124,292232.947755000,00000077,321,-63948,-14,42,-16215,-1*acad6096
%RAWIMUSA,2124,292232.958;2124,292232.957755000,00000077,414,-63902,-21,38,-16204,-3*9f9426e5
%RAWIMUSA,2124,292232.968;2124,292232.967755000,00000077,339,-63927,-80,38,-16181,4*bd5bbbbb
%RAWIMUSA,2124,292232.978;2124,292232.977755000,00000077,319,-63975,-27,47,-16151,2*917d350e
%RAWIMUSA,2124,292232.988;2124,292232.987755000,00000077,399,-63984,25,52,-16143,-2*edc70a3b
%RAWIMUSA,2124,292232.998;2124,292232.997755000,00000077,316,-64007,41,44,-16149,3*8b4d5156
%RAWIMUSA,2124,292233.008;2124,292233.007755000,00000077,351,-63992,55,45,-16142,-6*ffb285d1
%RAWIMUSA,2124,292233.018;2124,292233.017755000,00000077,434,-64006,7,55,-16173,13*cdb10abb
%RAWIMUSA,2124,292233.028;2124,292233.027755000,00000077,313,-64040,26,48,-16206,-7*78a718b5
%RAWIMUSA,2124,292233.038;2124,292233.037755000,00000077,310,-63888,21,44,-16196,-3*31706633
%RAWIMUSA,2124,292233.048;2124,292233.047755000,00000077,392,-63987,88,28,-16227,19*7975a5ae
