%RAWIMUSA,2124,309397.468;2124,309397.467755000,00000077,237,64404,201,0,0,26*882a1262
%RAWIMUSA,2124,309397.478;2124,309397.477755000,00000077,244,64600,187,20,0,4*0d33c819
%RAWIMUSA,2124,309397.488;2124,309397.487755000,00000077,299,64556,269,7,17,13*7091acc9
%RAWIMUSA,2124,309397.498;2124,309397.497755000,00000077,270,64551,172,0,-9,-10*9065aac9
%RAWIMUSA,2124,309397.508;2124,309397.507755000,00000077,290,64491,191,2,6,21*48f35565
%RAWIMUSA,2124,309397.518;2124,309397.517755000,00000077,365,64566,116,18,-9,-8*4f3b28db
%RAWIMUSA,2124,309397.528;2124,309397.527755000,00000077,251,64553,153,1,9,29*1bf085bb
%RAWIMUSA,2124,309397.538;2124,309397.537755000,00000077,200,64566,264,4,-9,-4*028d40ae
%RAWIMUSA,2124,309397.548;2124,309397.547755000,00000077,166,64551,196,-6,-8,33*94b1de75
%RAWIMUSA,2124,309397.558;2124,309397.557755000,00000077,378,64516,190,1,-40,-6*4334c375
%RAWIMUSA,2124,309397.568;2124,309397.567755000,00000077,283,64560,302,-6,-140,25*90d7f08b
%RAWIMUSA,2124,309397.578;2124,309397.577755000,00000077,383,64518,377,10,-333,4*b4350b43
%RAWIMUSA,2124,309397.588;2124,309397.587755000,00000077,258,64450,279,2,-460,37*cf5a1007
%RAWIMUSA,2124,309397.598;2124,309397.597755000,00000077,449,64606,305,8,-584,-5*213bd2f6
%RAWIMUSA,2124,309397.608;2124,309397.607755000,00000077,197,64494,143,-10,-647,25*1b1cbbf6
%RAWIMUSA,2124,309397.618;2124,309397.617755000,00000077,251,64490,192,4,-703,-28*1721857e
%RAWIMUSA,2124,309397.628;2124,309397.627755000,00000077,305,64491,286,23,-772,40*ca0238c6
%RAWIMUSA,2124,309397.638;2124,309397.637755000,00000077,245,64522,262,-4,-895,-27*da5eb6cd
%RAWIMUSA,2124,309397.648;2124,309397.647755000,00000077,171,64533,213,10,-913,28*ee90a44e
%RAWIMUSA,2124,309397.658;2124,309397.657755000,00000077,222,64430,245,3,-1031,-28*8a56fa22
%RAWIMUSA,2124,309397.668;2124,309397.667755000,00000077,361,64606,259,-2,-1093,42*2a41d34a
%RAWIMUSA,2124,309397.678;2124,309397.677755000,00000077,306,64450,271,-6,-1160,0*b46a267a
%RAWIMUSA,2124,309397.688;2124,309397.687755000,00000077,386,64531,349,11,-1285,15*c63bd7b7
%RAWIMUSA,2124,309397.698;2124,309397.697755000,00000077,176,64544,239,12,-1344,0*f1822fea
%RAWIMUSA,2124,309397.708;2124,309397.707755000,00000077,357,64646,419,-14,-1421,-9*46c38819
%RAWIMUSA,2124,309397.718;2124,309397.717755000,00000077,274,64462,255,12,-1548,-1*f4675a12
%RAWIMUSA,2124,309397.728;2124,309397.727755000,00000077,374,64588,285,3,-1590,-5*04290ce2
%RAWIMUSA,2124,309397.738;2124,309397.737755000,00000077,264,64473,290,8,-1658,29*79630672
%RAWIMUSA,2124,309397.748;2124,309397.747755000,00000077,421,64571,239,7,-1790,-20*1a09aa90
%RAWIMUSA,2124,309397.758;2124,309397.757755000,00000077,271,64505,182,11,-1835,47*914f21ac
%RAWIMUSA,2124,309397.768;2124,309397.767755000,00000077,298,64526,391,11,-1963,-14*f09f7fb4
%RAWIMUSA,2124,309397.778;2124,309397.777755000,00000077,271,64609,276,7,-2041,34*45d7b76f
%RAWIMUSA,2124,309397.788;2124,309397.787755000,00000077,336,64452,310,7,-2061,-33*6a949e89
%RAWIMUSA,2124,309397.798;2124,309397.797755000,00000077,372,64506,237,15,-2204,18*c96c0e45
%RAWIMUSA,2124,309397.808;2124,309397.807755000,00000077,238,64481,165,6,-2259,-15*657f09fa
%RAWIMUSA,2124,309397.818;2124,309397.817755000,00000077,364,64652,278,-7,-2304,9*81661638
%RAWIMUSA,2124,309397.828;2124,309397.827755000,00000077,237,64528,249,24,-2475,-7*e73e448e
%RAWIMUSA,2124,309397.838;2124,309397.837755000,00000077,230,64548,173,6,-2486,-23*1f315b25
%RAWIMUSA,2124,309397.848;2124,309397.847755000,00000077,299,64398,438,7,-2576,0*c7efc702
%RAWIMUSA,2124,309397.858;2124,309397.857755000,00000077,274,64639,161,-2,-2730,-19*bec4596d
%RAWIMUSA,2124,309397.868;2124,309397.867755000,00000077,204,64530,297,0,-2720,19*708e7b87
%RAWIMUSA,2124,309397.878;2124,309397.877755000,00000077,305,64545,207,18,-2796,-31*ff3f5d5c
%RAWIMUSA,2124,309397.888;2124,309397.887755000,00000077,343,64524,240,22,-2919,22*5d6b8b48
%RAWIMUSA,2124,309397.898;2124,309397.897755000,00000077,197,64414,335,22,-2942,-38*e055088f
%RAWIMUSA,2124,309397.908;2124,309397.907755000,00000077,247,64626,261,8,-3079,17*7e682c86
%RAWIMUSA,2124,309397.918;2124,309397.917755000,00000077,246,64409,209,5,-3166,-31*a0cb0c76
%RAWIMUSA,2124,309397.928;2124,309397.927755000,00000077,311,64630,307,23,-3189,4*4e0f3703
%RAWIMUSA,2124,309397.938;2124,309397.937755000,00000077,262,64444,284,23,-3361,1*ce96d677
%RAWIMUSA,2124,309397.948;2124,309397.947755000,00000077,241,64605,239,8,-3389,-26*bfb1eeec
%RAWIMUSA,2124,309397.958;2124,309397.957755000,00000077,262,64508,249,2,-3476,22*dd6ebfda
%RAWIMUSA,2124,309397.968;2124,309397.967755000,00000077,286,64462,242,2,-3579,-56*c98aa847
%RAWIMUSA,2124,309397.978;2124,309397.977755000,00000077,230,64497,216,11,-3594,-3*bb39461d
%RAWIMUSA,2124,309397.988;2124,309397.987755000,00000077,283,64419,310,-13,-3746,-16*ef57c579
%RAWIMUSA,2124,309397.998;2124,309397.997755000,00000077,328,64504,313,0,-3822,-14*e2f585dd
%RAWIMUSA,2124,309398.008;2124,309398.007755000,00000077,230,64527,288,12,-3850,0*a27f35ae
%RAWIMUSA,2124,309398.018;2124,309398.017755000,00000077,424,64517,416,4,-3975,-3*34176761
%RAWIMUSA,2124,309398.028;2124,309398.027755000,00000077,277,64622,260,6,-4068,-7*46fc7101
%RAWIMUSA,2124,309398.038;2124,309398.037755000,00000077,241,64631,349,-3,-4077,-10*29be5933
%RAWIMUSA,2124,309398.048;2124,309398.047755000,00000077,423,64563,289,17,-4247,-35*fe079b98
%RAWIMUSA,2124,309398.058;2124,309398.057755000,00000077,366,64534,246,-3,-4278,-6*cae505dc
%RAWIMUSA,2124,309398.068;2124,309398.067755000,00000077,356,64539,294,15,-4339,-6*0a91eba3
%RAWIMUSA,2124,309398.078;2124,309398.077755000,00000077,260,64500,320,0,-4487,-17*8f533d2a
%RAWIMUSA,2124,309398.088;2124,309398.087755000,00000077,224,64485,199,15,-4495,-4*25cb4cf3
%RAWIMUSA,2124,309398.098;2124,309398.097755000,00000077,383,64482,296,4,-4536,-2*cbe20cc9
%RAWIMUSA,2124,309398.108;2124,309398.107755000,00000077,297,64547,189,8,-4751,-12*2f1ae210
%RAWIMUSA,2124,309398.118;2124,309398.117755000,00000077,412,64494,240,5,-4737,-8*ec32641d
%RAWIMUSA,2124,309398.128;2124,309398.127755000,00000077,319,64430,273,15,-4865,-23*e5768d8a
%RAWIMUSA,2124,309398.138;2124,309398.137755000,00000077,279,64555,289,-2,-4947,-17*8ea36219
%RAWIMUSA,2124,309398.148;2124,309398.147755000,00000077,233,64564,232,13,-4943,-4*23ccfb89
%RAWIMUSA,2124,309398.158;2124,309398.157755000,00000077,429,64545,278,-2,-5135,-6*d38c8e3b
%RAWIMUSA,2124,309398.168;2124,309398.167755000,00000077,346,64591,243,14,-5166,1*d8862b47
%RAWIMUSA,2124,309398.178;2124,309398.177755000,00000077,304,64554,209,14,-5232,-27*59d580e1
%RAWIMUSA,2124,309398.188;2124,309398.187755000,00000077,284,64466,260,6,-5378,0*d6a7fe4b
%RAWIMUSA,2124,309398.198;2124,309398.197755000,00000077,217,64506,220,4,-5390,-6*6eec6460
%RAWIMUSA,2124,309398.208;2124,309398.207755000,00000077,183,64512,356,12,-5522,-14*5f64c340
%RAWIMUSA,2124,309398.218;2124,309398.217755000,00000077,310,64537,203,10,-5567,-21*a21361d9
%RAWIMUSA,2124,309398.228;2124,309398.227755000,00000077,290,64543,152,14,-5641,-31*0f0c3238
%RAWIMUSA,2124,309398.238;2124,309398.237755000,00000077,340,64511,336,14,-5731,-24*2f7c0d71
%RAWIMUSA,2124,309398.248;2124,309398.247755000,00000077,262,64489,229,33,-5860,-17*4ffefc63
%RAWIMUSA,2124,309398.258;2124,309398.257755000,00000077,184,64507,236,10,-5891,-20*3c9df4f8
%RAWIMUSA,2124,309398.268;2124,309398.267755000,00000077,379,64535,340,20,-6001,-19*dff6d3f4
%RAWIMUSA,2124,309398.278;2124,309398.277755000,00000077,336,64511,171,12,-6042,-8*db36877d
%RAWIMUSA,2124,309398.288;2124,309398.287755000,00000077,255,64556,321,11,-6120,-21*db835525
%RAWIMUSA,2124,309398.298;2124,309398.297755000,00000077,289,64468,319,9,-6272,-31*5c408f20
%RAWIMUSA,2124,309398.308;2124,309398.307755000,00000077,322,64583,153,18,-6288,-32*02d6c03a
%RAWIMUSA,2124,309398.318;2124,309398.317755000,00000077,336,64568,227,9,-6359,-23*cf49c0d4
%RAWIMUSA,2124,309398.328;2124,309398.327755000,00000077,263,64467,222,23,-6500,-45*ccbf2350
%RAWIMUSA,2124,309398.338;2124,309398.337755000,00000077,306,64443,262,25,-6536,-12*bfb33ccb
%RAWIMUSA,2124,309398.348;2124,309398.347755000,00000077,348,64557,281,15,-6619,-31*e3a18ea7
%RAWIMUSA,2124,309398.358;2124,309398.357755000,00000077,264,64493,196,23,-6733,-13*56ce8a9f
%RAWIMUSA,2124,309398.368;2124,309398.367755000,00000077,317,64495,165,23,-6747,-23*38dd3b86
%RAWIMUSA,2124,309398.378;2124,309398.377755000,00000077,377,64451,246,24,-6881,-27*852f92bc
%RAWIMUSA,2124,309398.388;2124,309398.387755000,00000077,308,64526,237,9,-6972,-32*da0235de
%RAWIMUSA,2124,309398.398;2124,309398.397755000,00000077,348,64465,173,17,-6975,-18*f5e339ac
%RAWIMUSA,2124,309398.408;2124,309398.407755000,00000077,321,64538,385,23,-7137,-17*fba113bb
%RAWIMUSA,2124,309398.418;2124,309398.417755000,00000077,262,64506,227,18,-7167,1*144c2b39
%RAWIMUSA,2124,309398.428;2124,309398.427755000,00000077,320,64594,289,20,-7263,-36*cd05663e
%RAWIMUSA,2124,309398.438;2124,309398.437755000,00000077,275,64578,160,17,-7380,-19*b96ec3e6
%RAWIMUSA,2124,309398.448;2124,309398.447755000,00000077,365,64469,213,6,-7408,-25*fb79e445
%RAWIMUSA,2124,309398.458;2124,309398.457755000,00000077,216,64373,359,23,-7483,-12*36ccd880
%RAWIMUSA,2124,309398.468;2124,309398.467755000,00000077,334,64491,203,41,-7615,-14*3c266b61
%RAWIMUSA,2124,309398.478;2124,309398.477755000,00000077,294,64525,130,17,-7652,-26*9bc55377
%RAWIMUSA,2124,309398.488;2124,309398.487755000,00000077,323,64464,272,-2,-7768,-13*99981cee
%RAWIMUSA,2124,309398.498;2124,309398.497755000,00000077,207,64512,187,18,-7882,-29*196fea00
%RAWIMUSA,2124,309398.508;2124,309398.507755000,00000077,332,64437,235,19,-7895,-20*55509e6e
%RAWIMUSA,2124,309398.518;2124,309398.517755000,00000077,257,64520,250,11,-8023,-29*e8eb1266
%RAWIMUSA,2124,309398.528;2124,309398.527755000,00000077,261,64612,250,33,-8082,-24*c870dac6
%RAWIMUSA,2124,309398.538;2124,309398.537755000,00000077,284,64517,229,16,-8160,-26*6ca3de60
%RAWIMUSA,2124,309398.548;2124,309398.547755000,00000077,269,64461,304,25,-8306,-20*8784a674
%RAWIMUSA,2124,309398.558;2124,309398.557755000,00000077,268,64510,150,20,-8337,-46*fe40924e
%RAWIMUSA,2124,309398.568;2124,309398.567755000,00000077,217,64569,338,22,-8422,-30*35132c30
%RAWIMUSA,2124,309398.578;2124,309398.577755000,00000077,257,64451,194,20,-8517,-21*eb1c44e1
%RAWIMUSA,2124,309398.588;2124,309398.587755000,00000077,263,64535,310,11,-8542,-27*7757ffab
%RAWIMUSA,2124,309398.598;2124,309398.597755000,00000077,305,64531,395,14,-8644,-29*c392cab3
%RAWIMUSA,2124,309398.608;2124,309398.607755000,00000077,269,64577,184,16,-8765,-24*7363fbdf
%RAWIMUSA,2124,309398.618;2124,309398.617755000,00000077,314,64459,230,21,-8790,-28*0830d41f
%RAWIMUSA,2124,309398.628;2124,309398.627755000,00000077,342,64489,387,2,-8919,-47*23c291a5
%RAWIMUSA,2124,309398.638;2124,309398.637755000,00000077,282,64543,256,16,-8986,-28*fca83304
%RAWIMUSA,2124,309398.648;2124,309398.647755000,00000077,288,64536,302,25,-9023,-40*94dcf146
%RAWIMUSA,2124,309398.658;2124,309398.657755000,00000077,263,64601,247,17,-9149,-37*30cbeee9
%RAWIMUSA,2124,309398.668;2124,309398.667755000,00000077,267,64601,280,22,-9215,-28*a8309aa9
%RAWIMUSA,2124,309398.678;2124,309398.677755000,00000077,272,64500,255,17,-9284,-45*09787d89
%RAWIMUSA,2124,309398.688;2124,309398.687755000,00000077,331,64577,270,25,-9402,-24*61f77ce4
%RAWIMUSA,2124,309398.698;2124,309398.697755000,00000077,268,64596,143,27,-9454,-22*3a76cc32
%RAWIMUSA,2124,309398.708;2124,309398.707755000,00000077,213,64469,275,15,-9519,-40*68ac64ab
%RAWIMUSA,2124,309398.718;2124,309398.717755000,00000077,394,64463,261,36,-9666,-20*4db5a381
%RAWIMUSA,2124,309398.728;2124,309398.727755000,00000077,226,64540,153,19,-9683,-23*a6a61e9b
%RAWIMUSA,2124,309398.738;2124,309398.737755000,00000077,420,64484,311,7,-9836,-46*c1858bf8
%RAWIMUSA,2124,309398.748;2124,309398.747755000,00000077,327,64481,130,17,-9900,-35*24c63a49
%RAWIMUSA,2124,309398.758;2124,309398.757755000,00000077,301,64512,266,20,-9935,-29*57358558
%RAWIMUSA,2124,309398.768;2124,309398.767755000,00000077,349,64515,380,18,-10072,-43*0c1d8faa
%RAWIMUSA,2124,309398.778;2124,309398.777755000,00000077,254,64474,138,25,-10110,-34*5c31222e
%RAWIMUSA,2124,309398.788;2124,309398.787755000,00000077,311,64529,274,23,-10189,-53*385ba826
%RAWIMUSA,2124,309398.798;2124,309398.797755000,00000077,296,64477,216,35,-10270,-35*88f32e8d
%RAWIMUSA,2124,309398.808;2124,309398.807755000,00000077,301,64601,187,22,-10354,-29*e07ed986
%RAWIMUSA,2124,309398.818;2124,309398.817755000,00000077,284,64450,405,35,-10429,-39*fc060859
%RAWIMUSA,2124,309398.828;2124,309398.827755000,00000077,284,64577,238,22,-10589,-30*ff7c0e5e
%RAWIMUSA,2124,309398.838;2124,309398.837755000,00000077,298,64527,198,11,-10590,-21*ff2b2b7c
%RAWIMUSA,2124,309398.848;2124,309398.847755000,00000077,338,64538,335,22,-10691,-42*5421e834
%RAWIMUSA,2124,309398.858;2124,309398.857755000,00000077,287,64477,221,15,-10785,-7*c8178fb6
%RAWIMUSA,2124,309398.868;2124,309398.867755000,00000077,288,64429,264,30,-10807,-26*0ba5f11b
%RAWIMUSA,2124,309398.878;2124,309398.877755000,00000077,288,64507,289,27,-10942,-35*14016568
%RAWIMUSA,2124,309398.888;2124,309398.887755000,00000077,410,64535,123,38,-10996,-47*5872f7f0
%RAWIMUSA,2124,309398.898;2124,309398.897755000,00000077,199,64561,289,17,-11069,-35*ce3a3059
%RAWIMUSA,2124,309398.908;2124,309398.907755000,00000077,243,64497,211,35,-11204,-38*2d6fc4d1
%RAWIMUSA,2124,309398.918;2124,309398.917755000,00000077,253,64544,282,15,-11266,-30*90eced0c
%RAWIMUSA,2124,309398.928;2124,309398.927755000,00000077,363,64474,315,37,-11314,-42*a89e02e1
%RAWIMUSA,2124,309398.938;2124,309398.937755000,00000077,187,64442,230,38,-11470,-65*03dbee97
%RAWIMUSA,2124,309398.948;2124,309398.947755000,00000077,362,64547,229,25,-11478,-36*726c7cf8
%RAWIMUSA,2124,309398.958;2124,309398.957755000,00000077,356,64522,264,26,-11572,-32*ab7f9590
%RAWIMUSA,2124,309398.968;2124,309398.967755000,00000077,272,64547,288,38,-11673,-44*d34b63f5
%RAWIMUSA,2124,309398.978;2124,309398.977755000,00000077,244,64397,225,32,-11709,-40*c0d54346
%RAWIMUSA,2124,309398.988;2124,309398.987755000,00000077,310,64426,294,37,-11845,-68*c9200981
%RAWIMUSA,2124,309398.998;2124,309398.997755000,00000077,280,64530,188,28,-11924,-36*6c26720d
%RAWIMUSA,2124,309399.008;2124,309399.007755000,00000077,245,64437,195,26,-11923,-47*b03d7ad4
%RAWIMUSA,2124,309399.018;2124,309399.017755000,00000077,316,64548,380,35,-12086,-55*a32d3bdc
%RAWIMUSA,2124,309399.028;2124,309399.027755000,00000077,243,64533,312,43,-12155,-36*d998d63b
%RAWIMUSA,2124,309399.038;2124,309399.037755000,00000077,364,64612,350,15,-12232,-31*9137302f
%RAWIMUSA,2124,309399.048;2124,309399.047755000,00000077,279,64503,316,32,-12329,-66*cef4818b
%RAWIMUSA,2124,309399.058;2124,309399.057755000,00000077,350,64480,272,37,-12386,-59*1d0f2edb
%RAWIMUSA,2124,309399.068;2124,309399.067755000,00000077,311,64458,380,16,-12453,-38*5ecb4b0b
%RAWIMUSA,2124,309399.078;2124,309399.077755000,00000077,301,64557,237,24,-12603,-47*b4e98bc6
%RAWIMUSA,2124,309399.088;2124,309399.087755000,00000077,319,64489,272,29,-12626,-47*0c45f49d
%RAWIMUSA,2124,309399.098;2124,309399.097755000,00000077,223,64490,265,28,-12714,-65*615b8f16
%RAWIMUSA,2124,309399.108;2124,309399.107755000,00000077,307,64504,362,26,-12830,-56*357bbe1a
%RAWIMUSA,2124,309399.118;2124,309399.117755000,00000077,304,64546,273,46,-12858,-32*635a1536
%RAWIMUSA,2124,309399.128;2124,309399.127755000,00000077,266,64643,283,37,-12973,-42*e5747372
%RAWIMUSA,2124,309399.138;2124,309399.137755000,00000077,346,64581,194,18,-13027,-53*7a2d630a
%RAWIMUSA,2124,309399.148;2124,309399.147755000,00000077,287,64551,237,21,-13075,-57*b582be54
%RAWIMUSA,2124,309399.158;2124,309399.157755000,00000077,328,64529,338,27,-13247,-40*9f2f4b87
%RAWIMUSA,2124,309399.168;2124,309399.167755000,00000077,327,64619,240,42,-13286,-40*d76dfcd2
%RAWIMUSA,2124,309399.178;2124,309399.177755000,00000077,274,64474,215,33,-13378,-47*116fb364
%RAWIMUSA,2124,309399.188;2124,309399.187755000,00000077,252,64556,260,39,-13496,-50*9f8888eb
%RAWIMUSA,2124,309399.198;2124,309399.197755000,00000077,371,64506,280,39,-13506,-54*82e5b334
%RAWIMUSA,2124,309399.208;2124,309399.207755000,00000077,245,64547,261,23,-13612,-45*a84ecd35
%RAWIMUSA,2124,309399.218;2124,309399.217755000,00000077,269,64499,309,48,-13716,-51*8e57e41f
%RAWIMUSA,2124,309399.228;2124,309399.227755000,00000077,273,64527,273,41,-13729,-54*a1393587
%RAWIMUSA,2124,309399.238;2124,309399.237755000,00000077,313,64360,424,29,-13864,-57*301b9803
%RAWIMUSA,2124,309399.248;2124,309399.247755000,00000077,366,64562,127,38,-13969,-46*d16fd7b0
%RAWIMUSA,2124,309399.258;2124,309399.257755000,00000077,214,64580,205,30,-13988,-36*76cadee0
%RAWIMUSA,2124,309399.268;2124,309399.267755000,00000077,295,64509,307,25,-14117,-57*ab5143d9
%RAWIMUSA,2124,309399.278;2124,309399.277755000,00000077,207,64506,222,30,-14163,-54*13ff24ee
%RAWIMUSA,2124,309399.288;2124,309399.287755000,00000077,271,64482,260,33,-14252,-32*47ff0331
%RAWIMUSA,2124,309399.298;2124,309399.297755000,00000077,341,64512,172,43,-14375,-51*dcd203de
%RAWIMUSA,2124,309399.308;2124,309399.307755000,00000077,323,64520,113,40,-14390,-56*0aea821b
%RAWIMUSA,2124,309399.318;2124,309399.317755000,00000077,226,64468,340,31,-14460,-54*bfacd376
%RAWIMUSA,2124,309399.328;2124,309399.327755000,00000077,262,64515,224,29,-14623,-60*7c93c53f
%RAWIMUSA,2124,309399.338;2124,309399.337755000,00000077,253,64475,242,27,-14658,-56*de2c5aa6
%RAWIMUSA,2124,309399.348;2124,309399.347755000,00000077,353,64445,319,34,-14770,-61*8e9fa077
%RAWIMUSA,2124,309399.358;2124,309399.357755000,00000077,339,64399,278,22,-14871,-39*0beb1dc9
%RAWIMUSA,2124,309399.368;2124,309399.367755000,00000077,257,64506,270,39,-14871,-39*8a66420c
%RAWIMUSA,2124,309399.378;2124,309399.377755000,00000077,340,64452,384,35,-15001,-53*9c318c20
%RAWIMUSA,2124,309399.388;2124,309399.387755000,00000077,329,64375,129,41,-15091,-61*b1dd2b17
%RAWIMUSA,2124,309399.398;2124,309399.397755000,00000077,221,64618,300,45,-15101,-58*e64b64f2
%RAWIMUSA,2124,309399.408;2124,309399.407755000,00000077,242,64520,298,29,-15272,-54*e9b762e0
%RAWIMUSA,2124,309399.418;2124,309399.417755000,00000077,359,64605,148,38,-15287,-50*0af993ff
%RAWIMUSA,2124,309399.428;2124,309399.427755000,00000077,390,64539,316,41,-15378,-47*80e4be81
%RAWIMUSA,2124,309399.438;2124,309399.437755000,00000077,295,64526,258,38,-15477,-58*d8909139
%RAWIMUSA,2124,309399.448;2124,309399.447755000,00000077,235,64463,175,44,-15517,-59*5639bd00
%RAWIMUSA,2124,309399.458;2124,309399.457755000,00000077,245,64598,376,43,-15653,-65*d5a83954
%RAWIMUSA,2124,309399.468;2124,309399.467755000,00000077,318,64452,216,34,-15764,-53*01a44947
%RAWIMUSA,2124,309399.478;2124,309399.477755000,00000077,274,64542,209,52,-15768,-62*8f442d35
%RAWIMUSA,2124,309399.488;2124,309399.487755000,00000077,201,64479,255,35,-15918,-43*42928688
%RAWIMUSA,2124,309399.498;2124,309399.497755000,00000077,304,64549,198,53,-15966,-57*672d17e7
%RAWIMUSA,2124,309399.508;2124,309399.507755000,00000077,339,64535,252,40,-16033,-59*e810a03f
%RAWIMUSA,2124,309399.518;2124,309399.517755000,00000077,271,64480,345,26,-16157,-66*0e5161f6
%RAWIMUSA,2124,309399.528;2124,309399.527755000,00000077,249,64412,287,35,-16221,-45*cf0113ba
%RAWIMUSA,2124,309399.538;2124,309399.537755000,00000077,353,64436,295,44,-16250,-70*9c1ad1e8
%RAWIMUSA,2124,309399.548;2124,309399.547755000,00000077,418,64534,221,36,-16366,-64*10fa3e5a
%RAWIMUSA,2124,309399.558;2124,309399.557755000,00000077,218,64562,243,30,-16319,-52*8d9ff1e8
%RAWIMUSA,2124,309399.568;2124,309399.567755000,00000077,188,64442,132,49,-16248,-79*f9cb47ab
%RAWIMUSA,2124,309399.578;2124,309399.577755000,00000077,369,64482,120,23,-16217,-72*efb181e4
%RAWIMUSA,2124,309399.588;2124,309399.587755000,00000077,283,64489,41,27,-16200,-60*c166dc27
%RAWIMUSA,2124,309399.598;2124,309399.597755000,00000077,263,64520,135,52,-16202,-66*0bfea78a
%RAWIMUSA,2124,309399.608;2124,309399.607755000,00000077,194,64596,167,43,-16215,-57*fef6fe57
%RAWIMUSA,2124,309399.618;2124,309399.617755000,00000077,200,64396,64,38,-16202,-55*7c76fc7e
%RAWIMUSA,2124,309399.628;2124,309399.627755000,00000077,204,64481,135,21,-16223,-58*2f7810d1
%RAWIMUSA,2124,309399.638;2124,309399.637755000,00000077,314,64487,97,37,-16227,-71*c9e4b5db
%RAWIMUSA,2124,309399.648;2124,309399.647755000,00000077,276,64519,276,50,-16231,-58*60cedc24
%RAWIMUSA,2124,309399.658;2124,309399.657755000,00000077,263,64464,151,33,-16232,-57*01546b96
%RAWIMUSA,2124,309399.668;2124,309399.667755000,00000077,265,64530,162,51,-16216,-54*db01393f
%RAWIMUSA,2124,309399.678;2124,309399.677755000,00000077,270,64460,144,34,-16218,-54*2a0d9492
%RAWIMUSA,2124,309399.688;2124,309399.687755000,00000077,158,64460,204,35,-16204,-72*5b52c7b1
%RAWIMUSA,2124,309399.698;2124,309399.697755000,00000077,271,64437,170,45,-16235,-65*ae04a3b5
%RAWIMUSA,2124,309399.708;2124,309399.707755000,00000077,278,64409,169,26,-16224,-62*288e3578
%RAWIMUSA,2124,309399.718;2124,309399.717755000,00000077,326,64399,138,29,-16224,-57*692ad17d
%RAWIMUSA,2124,309399.728;2124,309399.727755000,00000077,270,64448,166,46,-16228,-64*22b3551d
%RAWIMUSA,2124,309399.738;2124,309399.737755000,00000077,271,64501,111,37,-16223,-66*4fe7b81f
%RAWIMUSA,2124,309399.748;2124,309399.747755000,00000077,238,64544,93,29,-16233,-54*b9cd8210
%RAWIMUSA,2124,309399.758;2124,309399.757755000,00000077,322,64460,175,34,-16237,-58*e1663b68
%RAWIMUSA,2124,309399.768;2124,309399.767755000,00000077,201,64465,220,44,-16223,-63*cd4f3814
%RAWIMUSA,2124,309399.778;2124,309399.777755000,00000077,285,64506,247,45,-16223,-56*0d5d2f1f
%RAWIMUSA,2124,309399.788;2124,309399.787755000,00000077,279,64427,136,35,-16235,-60*0b337f76
%RAWIMUSA,2124,309399.798;2124,309399.797755000,00000077,224,64523,232,22,-16229,-55*396d7a77
%RAWIMUSA,2124,309399.808;2124,309399.807755000,00000077,280,64524,136,39,-16238,-53*d08f39c1
%RAWIMUSA,2124,309399.818;2124,309399.817755000,00000077,234,64555,238,27,-16225,-47*c3455be0
%RAWIMUSA,2124,309399.828;2124,309399.827755000,00000077,266,64499,194,33,-16234,-61*9a36dd26
%RAWIMUSA,2124,309399.838;2124,309399.837755000,00000077,310,64530,165,51,-16223,-53*48e5ca23
%RAWIMUSA,2124,309399.848;2124,309399.847755000,00000077,237,64516,112,42,-16232,-85*ba73f6d7
%RAWIMUSA,2124,309399.858;2124,309399.857755000,00000077,369,64532,189,40,-16244,-68*3e989e47
%RAWIMUSA,2124,309399.868;2124,309399.867755000,00000077,249,64551,159,35,-16215,-53*e67f7d98
%RAWIMUSA,2124,309399.878;2124,309399.877755000,00000077,284,64568,128,36,-16232,-61*4d198445
%RAWIMUSA,2124,309399.888;2124,309399.887755000,00000077,229,64521,146,36,-16233,-59*7be05ac7
%RAWIMUSA,2124,309399.898;2124,309399.897755000,00000077,232,64469,221,36,-16222,-64*bb7c2194
%RAWIMUSA,2124,309399.908;2124,309399.907755000,00000077,177,64459,142,40,-16227,-58*e9474cc2
%RAWIMUSA,2124,309399.918;2124,309399.917755000,00000077,294,64417,131,50,-16245,-57*0c365986
%RAWIMUSA,2124,309399.928;2124,309399.927755000,00000077,248,64468,135,49,-16242,-57*20045ed1
%RAWIMUSA,2124,309399.938;2124,309399.937755000,00000077,218,64534,213,41,-16236,-65*ba253071
%RAWIMUSA,2124,309399.948;2124,309399.947755000,00000077,316,64447,184,44,-16220,-54*add72f1f
%RAWIMUSA,2124,309399.958;2124,309399.957755000,00000077,267,64504,187,42,-16222,-55*e1aef804
%RAWIMUSA,2124,309399.968;2124,309399.967755000,00000077,332,64507,176,23,-16216,-63*bb5c2b7c
%RAWIMUSA,2124,309399.978;2124,309399.977755000,00000077,226,64624,119,33,-16234,-78*66e3a2ba
%RAWIMUSA,2124,309399.988;2124,309399.987755000,00000077,218,64526,225,51,-16239,-48*4e77a0a4
%RAWIMUSA,2124,309399.998;2124,309399.997755000,00000077,213,64450,200,32,-16228,-53*71214a34
%RAWIMUSA,2124,309400.008;2124,309400.007755000,00000077,316,64539,175,39,-16229,-53*a6ba3c10
%RAWIMUSA,2124,309400.018;2124,309400.017755000,00000077,171,64509,183,47,-16226,-62*1df69138
%RAWIMUSA,2124,309400.028;2124,309400.027755000,00000077,280,64655,243,32,-16229,-51*aedefd8c
%RAWIMUSA,2124,309400.038;2124,309400.037755000,00000077,301,64588,212,18,-16246,-74*4b539368
%RAWIMUSA,2124,309400.048;2124,309400.047755000,00000077,307,64448,131,44,-16248,-67*f83745b7
%RAWIMUSA,2124,309400.058;2124,309400.057755000,00000077,284,64456,200,38,-16236,-60*5ebfe987
%RAWIMUSA,2124,309400.068;2124,309400.067755000,00000077,215,64595,181,29,-16223,-56*01954340
%RAWIMUSA,2124,309400.078;2124,309400.077755000,00000077,302,64542,169,42,-16234,-57*54679477
%RAWIMUSA,2124,309400.088;2124,309400.087755000,00000077,287,64511,182,39,-16256,-74*7e645bc8
%RAWIMUSA,2124,309400.098;2124,309400.097755000,00000077,239,64503,106,44,-16243,-64*5156ac57
%RAWIMUSA,2124,309400.108;2124,309400.107755000,00000077,208,64645,155,31,-16230,-65*5e14259c
%RAWIMUSA,2124,309400.118;2124,309400.117755000,00000077,211,64515,174,44,-16249,-64*02df5aa1
%RAWIMUSA,2124,309400.128;2124,309400.127755000,00000077,268,64587,206,32,-16238,-57*60e2ca46
%RAWIMUSA,2124,309400.138;2124,309400.137755000,00000077,288,64466,128,39,-16210,-51*598e9afa
%RAWIMUSA,2124,309400.148;2124,309400.147755000,00000077,258,64475,205,32,-16239,-59*66a9e9d7
%RAWIMUSA,2124,309400.158;2124,309400.157755000,00000077,223,64406,204,32,-16225,-66*37005942
%RAWIMUSA,2124,309400.168;2124,309400.167755000,00000077,308,64520,120,37,-16235,-62*2ea00075
%RAWIMUSA,2124,309400.178;2124,309400.177755000,00000077,249,64485,166,44,-16239,-49*7b1fcc5b
%RAWIMUSA,2124,309400.188;2124,309400.187755000,00000077,316,64507,193,38,-16220,-54*1a7bb196
%RAWIMUSA,2124,309400.198;2124,309400.197755000,00000077,323,64551,198,49,-16227,-58*5da34416
%RAWIMUSA,2124,309400.208;2124,309400.207755000,00000077,281,64550,158,46,-16210,-52*2e2d4f52
%RAWIMUSA,2124,309400.218;2124,309400.217755000,00000077,224,64529,301,38,-16220,-54*f286f52a
%RAWIMUSA,2124,309400.228;2124,309400.227755000,00000077,289,64517,127,38,-16220,-62*f1b8bf93
%RAWIMUSA,2124,309400.238;2124,309400.237755000,00000077,331,64479,166,37,-16238,-47*e3b09cf8
%RAWIMUSA,2124,309400.248;2124,309400.247755000,00000077,263,64598,139,49,-16228,-69*5341be7b
%RAWIMUSA,2124,309400.258;2124,309400.257755000,00000077,259,64584,125,44,-16228,-47*e632de25
%RAWIMUSA,2124,309400.268;2124,309400.267755000,00000077,333,64503,128,34,-16232,-53*7b93131a
%RAWIMUSA,2124,309400.278;2124,309400.277755000,00000077,337,64524,174,44,-16220,-69*e63e89e7
%RAWIMUSA,2124,309400.288;2124,309400.287755000,00000077,350,64517,155,42,-16237,-73*78e6eb5b
%RAWIMUSA,2124,309400.298;2124,309400.297755000,00000077,275,64560,187,37,-16230,-54*7259809a
%RAWIMUSA,2124,309400.308;2124,309400.307755000,00000077,255,64453,140,49,-16242,-63*dd3c0569
%RAWIMUSA,2124,309400.318;2124,309400.317755000,00000077,189,64457,135,45,-16223,-65*dfa3e065
%RAWIMUSA,2124,309400.328;2124,309400.327755000,00000077,313,64523,221,38,-16232,-51*6ca6ac12
%RAWIMUSA,2124,309400.338;2124,309400.337755000,00000077,241,64514,164,53,-16241,-57*b2943fb3
%RAWIMUSA,2124,309400.348;2124,309400.347755000,00000077,240,64448,187,44,-16237,-49*c182a947
%RAWIMUSA,2124,309400.358;2124,309400.357755000,00000077,352,64525,108,31,-16222,-49*eb0ba884
%RAWIMUSA,2124,309400.368;2124,309400.367755000,00000077,296,64474,171,36,-16240,-63*5ac00525
%RAWIMUSA,2124,309400.378;2124,309400.377755000,00000077,345,64482,136,45,-16236,-77*6ff70cf6
%RAWIMUSA,2124,309400.388;2124,309400.387755000,00000077,163,64560,193,38,-16235,-66*01c1afe4
%RAWIMUSA,2124,309400.398;2124,309400.397755000,00000077,241,64543,232,39,-16233,-59*311fb79e
%RAWIMUSA,2124,309400.408;2124,309400.407755000,00000077,343,64535,210,37,-16214,-69*2b2676f2
%RAWIMUSA,2124,309400.418;2124,309400.417755000,00000077,326,64582,86,27,-16222,-69*e8c954d8
%RAWIMUSA,2124,309400.428;2124,309400.427755000,00000077,279,64529,192,47,-16237,-67*f15557f9
%RAWIMUSA,2124,309400.438;2124,309400.437755000,00000077,250,64442,103,38,-16240,-69*2130728b
%RAWIMUSA,2124,309400.448;2124,309400.447755000,00000077,250,64475,206,41,-16233,-73*9118cf61
%RAWIMUSA,2124,309400.458;2124,309400.457755000,00000077,197,64594,132,37,-16231,-56*4606647a
%RAWIMUSA,2124,309400.468;2124,309400.467755000,00000077,205,64513,169,40,-16235,-63*ba388551
%RAWIMUSA,2124,309400.478;2124,309400.477755000,00000077,246,64569,143,55,-16233,-65*24f2db3d
%RAWIMUSA,2124,309400.488;2124,309400.487755000,00000077,281,64482,139,42,-16240,-67*0ce45548
%RAWIMUSA,2124,309400.498;2124,309400.497755000,00000077,224,64469,114,36,-16244,-48*2d37efcd
%RAWIMUSA,2124,309400.508;2124,309400.507755000,00000077,208,64499,210,37,-16244,-62*5013de96
%RAWIMUSA,2124,309400.518;2124,309400.517755000,00000077,272,64345,221,37,-16251,-48*94f55de8
%RAWIMUSA,2124,309400.528;2124,309400.527755000,00000077,290,64373,129,44,-16232,-70*c77c6522
%RAWIMUSA,2124,309400.538;2124,309400.537755000,00000077,235,64411,225,34,-16227,-37*0caa5941
%RAWIMUSA,2124,309400.548;2124,309400.547755000,00000077,343,64542,250,35,-16234,-47*264d8511
%RAWIMUSA,2124,309400.558;2124,309400.557755000,00000077,265,64563,83,37,-16243,-50*6bd6456a
%RAWIMUSA,2124,309400.568;2124,309400.567755000,00000077,236,64565,220,41,-16239,-63*6744a99b
%RAWIMUSA,2124,309400.578;2124,309400.577755000,00000077,252,64464,148,49,-16243,-68*3cad21ec
%RAWIMUSA,2124,309400.588;2124,309400.587755000,00000077,282,64473,247,32,-16234,-66*fa4773b3
%RAWIMUSA,2124,309400.598;2124,309400.597755000,00000077,257,64460,127,47,-16262,-91*0711c278
%RAWIMUSA,2124,309400.608;2124,309400.607755000,00000077,350,64476,103,29,-16246,-78*5f5b102c
%RAWIMUSA,2124,309400.618;2124,309400.617755000,00000077,259,64473,155,29,-16241,-63*3cccdd20
%RAWIMUSA,2124,309400.628;2124,309400.627755000,00000077,286,64567,152,35,-16245,-70*da71ee01
%RAWIMUSA,2124,309400.638;2124,309400.637755000,00000077,263,64448,173,54,-16252,-63*da15c021
%RAWIMUSA,2124,309400.648;2124,309400.647755000,00000077,256,64698,96,25,-16225,-62*7edba110
%RAWIMUSA,2124,309400.658;2124,309400.657755000,00000077,130,64483,178,49,-16232,-60*92f154e4
%RAWIMUSA,2124,309400.668;2124,309400.667755000,00000077,290,64559,198,42,-16227,-54*f2e8b1cd
%RAWIMUSA,2124,309400.678;2124,309400.677755000,00000077,330,64508,182,34,-16229,-62*d863fec3
%RAWIMUSA,2124,309400.688;2124,309400.687755000,00000077,211,64517,202,35,-16250,-78*405c951e
%RAWIMUSA,2124,309400.698;2124,309400.697755000,00000077,218,64521,141,45,-16246,-52*58a863b6
%RAWIMUSA,2124,309400.708;2124,309400.707755000,00000077,320,64382,151,42,-16245,-51*bdb85cd0
%RAWIMUSA,2124,309400.718;2124,309400.717755000,00000077,282,64514,340,34,-16245,-72*b4e9cb73
%RAWIMUSA,2124,309400.728;2124,309400.727755000,00000077,268,64614,165,45,-16243,-44*6b32e7ed
%RAWIMUSA,2124,309400.738;2124,309400.737755000,00000077,342,64452,137,38,-16244,-43*5870a4ef
%RAWIMUSA,2124,309400.748;2124,309400.747755000,00000077,285,64490,112,36,-16242,-56*eda78b7c
%RAWIMUSA,2124,309400.758;2124,309400.757755000,00000077,316,64478,203,37,-16250,-68*68553d47
%RAWIMUSA,2124,309400.768;2124,309400.767755000,00000077,240,64453,277,57,-16233,-49*7a86b78f
%RAWIMUSA,2124,309400.778;2124,309400.777755000,00000077,207,64500,117,27,-16242,-78*562823c7
%RAWIMUSA,2124,309400.788;2124,309400.787755000,00000077,128,64505,269,42,-16223,-51*c5dfa04b
%RAWIMUSA,2124,309400.798;2124,309400.797755000,00000077,249,64457,122,27,-16243,-53*abef6b35
%RAWIMUSA,2124,309400.808;2124,309400.807755000,00000077,229,64545,221,47,-16230,-65*126ea28a
%RAWIMUSA,2124,309400.818;2124,309400.817755000,00000077,294,64582,232,47,-16229,-64*8e2082f5
%RAWIMUSA,2124,309400.828;2124,309400.827755000,00000077,153,64542,170,67,-16230,-60*68a31ad7
%RAWIMUSA,2124,309400.838;2124,309400.837755000,00000077,299,64423,109,44,-16252,-57*8f3e3c40
%RAWIMUSA,2124,309400.848;2124,309400.847755000,00000077,201,64607,205,40,-16255,-65*c21a49b5
%RAWIMUSA,2124,309400.858;2124,309400.857755000,00000077,284,64471,171,24,-16246,-54*d8289f62
%RAWIMUSA,2124,309400.868;2124,309400.867755000,00000077,259,64481,151,51,-16246,-41*fcb783c5
%RAWIMUSA,2124,309400.878;2124,309400.877755000,00000077,222,64479,130,50,-16245,-76*15d19703
%RAWIMUSA,2124,309400.888;2124,309400.887755000,00000077,256,64529,143,34,-16241,-67*647920a1
%RAWIMUSA,2124,309400.898;2124,309400.897755000,00000077,183,64525,161,36,-16246,-56*02fe0a5e
%RAWIMUSA,2124,309400.908;2124,309400.907755000,00000077,166,64544,152,35,-16230,-62*c73749df
%RAWIMUSA,2124,309400.918;2124,309400.917755000,00000077,310,64570,185,37,-16245,-66*9d55e58b
%RAWIMUSA,2124,309400.928;2124,309400.927755000,00000077,221,64442,232,40,-16253,-58*4a7c2a78
%RAWIMUSA,2124,309400.938;2124,309400.937755000,00000077,339,64535,149,40,-16243,-67*054457d4
%RAWIMUSA,2124,309400.948;2124,309400.947755000,00000077,243,64513,292,28,-16231,-37*16184ec1
%RAWIMUSA,2124,309400.958;2124,309400.957755000,00000077,294,64472,38,42,-16239,-64*c494acf6
%RAWIMUSA,2124,309400.968;2124,309400.967755000,00000077,239,64503,189,32,-16239,-68*b90988f6
%RAWIMUSA,2124,309400.978;2124,309400.977755000,00000077,289,64555,244,46,-16231,-63*a71ba3e3
%RAWIMUSA,2124,309400.988;2124,309400.987755000,00000077,162,64553,220,33,-16262,-71*147a925c
%RAWIMUSA,2124,309400.998;2124,309400.997755000,00000077,217,64502,64,52,-16230,-55*73cdf36d
%RAWIMUSA,2124,309401.008;2124,309401.007755000,00000077,291,64470,129,37,-16239,-79*219d3dc3
%RAWIMUSA,2124,309401.018;2124,309401.017755000,00000077,341,64486,297,41,-16256,-71*c407123c
%RAWIMUSA,2124,309401.028;2124,309401.027755000,00000077,313,64574,233,56,-16239,-42*8669c142
%RAWIMUSA,2124,309401.038;2124,309401.037755000,00000077,194,64686,142,34,-16244,-67*91e9eccb
%RAWIMUSA,2124,309401.048;2124,309401.047755000,00000077,248,64574,250,25,-16256,-78*43328363
%RAWIMUSA,2124,309401.058;2124,309401.057755000,00000077,243,64512,135,25,-16255,-52*3bbf2895
%RAWIMUSA,2124,309401.068;2124,309401.067755000,00000077,246,64559,146,28,-16249,-75*e8da71a6
%RAWIMUSA,2124,309401.078;2124,309401.077755000,00000077,237,64533,159,42,-16241,-60*5bcc92e3
%RAWIMUSA,2124,309401.088;2124,309401.087755000,00000077,293,64509,133,40,-16233,-54*93f3925d
%RAWIMUSA,2124,309401.098;2124,309401.097755000,00000077,352,64454,108,42,-16236,-83*8244ecb0
%RAWIMUSA,2124,309401.108;2124,309401.107755000,00000077,310,64557,144,38,-16243,-51*df18d8ba
%RAWIMUSA,2124,309401.118;2124,309401.117755000,00000077,291,64546,187,46,-16236,-49*cdd0ca68
%RAWIMUSA,2124,309401.128;2124,309401.127755000,00000077,272,64502,149,37,-16237,-52*93fd83aa
%RAWIMUSA,2124,309401.138;2124,309401.137755000,00000077,330,64575,233,47,-16227,-50*a3ef0af5
%RAWIMUSA,2124,309401.148;2124,309401.147755000,00000077,287,64529,105,32,-16256,-63*36248c07
%RAWIMUSA,2124,309401.158;2124,309401.157755000,00000077,186,64551,233,29,-16248,-49*44a64ff8
%RAWIMUSA,2124,309401.168;2124,309401.167755000,00000077,286,64451,177,42,-16246,-62*170044a9
%RAWIMUSA,2124,309401.178;2124,309401.177755000,00000077,250,64558,74,36,-16235,-43*9843ef46
%RAWIMUSA,2124,309401.188;2124,309401.187755000,00000077,190,64426,134,45,-16230,-88*32c9214e
%RAWIMUSA,2124,309401.198;2124,309401.197755000,00000077,303,64491,266,26,-16235,-58*e56f94e7
%RAWIMUSA,2124,309401.208;2124,309401.207755000,00000077,226,64516,109,28,-16229,-69*7ca66483
%RAWIMUSA,2124,309401.218;2124,309401.217755000,00000077,300,64641,222,61,-16234,-49*fe6e1947
%RAWIMUSA,2124,309401.228;2124,309401.227755000,00000077,198,64387,136,38,-16247,-51*7d71fabf
%RAWIMUSA,2124,309401.238;2124,309401.237755000,00000077,295,64548,252,54,-16249,-57*7ddc8ba5
%RAWIMUSA,2124,309401.248;2124,309401.247755000,00000077,390,64376,190,37,-16228,-43*88962f14
%RAWIMUSA,2124,309401.258;2124,309401.257755000,00000077,238,64548,291,39,-16244,-50*092bc74d
%RAWIMUSA,2124,309401.268;2124,309401.267755000,00000077,235,64409,237,47,-16206,-55*176f9125
%RAWIMUSA,2124,309401.278;2124,309401.277755000,00000077,272,64643,228,38,-16231,-61*173f9d31
%RAWIMUSA,2124,309401.288;2124,309401.287755000,00000077,302,64379,256,33,-16250,-43*9a8ba587
%RAWIMUSA,2124,309401.298;2124,309401.297755000,00000077,273,64489,235,42,-16246,-73*8967fa88
%RAWIMUSA,2124,309401.308;2124,309401.307755000,00000077,308,64531,227,47,-16251,-40*8435caf9
%RAWIMUSA,2124,309401.318;2124,309401.317755000,00000077,246,64629,183,43,-16250,-64*681649bb
%RAWIMUSA,2124,309401.328;2124,309401.327755000,00000077,237,64464,247,39,-16218,-49*3f2665a2
%RAWIMUSA,2124,309401.338;2124,309401.337755000,00000077,300,64565,257,39,-16230,-90*e46cb4b4
%RAWIMUSA,2124,309401.348;2124,309401.347755000,00000077,281,64500,161,42,-16231,-55*030e3953
%RAWIMUSA,2124,309401.358;2124,309401.357755000,00000077,293,64544,213,33,-16245,-83*59d02f06
%RAWIMUSA,2124,309401.368;2124,309401.367755000,00000077,328,64429,184,34,-16240,-46*69cd717b
%RAWIMUSA,2124,309401.378;2124,309401.377755000,00000077,231,64522,224,41,-16254,-80*bb59bd69
%RAWIMUSA,2124,309401.388;2124,309401.387755000,00000077,291,64491,227,39,-16224,-31*244d8288
%RAWIMUSA,2124,309401.398;2124,309401.397755000,00000077,369,64521,147,50,-16262,-87*bbd23d15
%RAWIMUSA,2124,309401.408;2124,309401.407755000,00000077,278,64499,141,36,-16227,-26*0ae396df
%RAWIMUSA,2124,309401.418;2124,309401.417755000,00000077,338,64438,222,50,-16251,-92*3825a4bb
%RAWIMUSA,2124,309401.428;2124,309401.427755000,00000077,333,64513,222,41,-16231,-25*8a467c2a
%RAWIMUSA,2124,309401.438;2124,309401.437755000,00000077,277,64483,188,28,-16253,-77*4e54ecb1
%RAWIMUSA,2124,309401.448;2124,309401.447755000,00000077,295,64483,213,42,-16240,-51*8fb8a0a1
%RAWIMUSA,2124,309401.458;2124,309401.457755000,00000077,339,64399,127,26,-16233,-77*0b12240e
%RAWIMUSA,2124,309401.468;2124,309401.467755000,00000077,253,64531,168,28,-16240,-35*4e77f4f9
%RAWIMUSA,2124,309401.478;2124,309401.477755000,00000077,280,64427,208,39,-16252,-97*b945270e
%RAWIMUSA,2124,309401.488;2124,309401.487755000,00000077,344,64555,179,22,-16250,-36*272a6483
%RAWIMUSA,2124,309401.498;2124,309401.497755000,00000077,198,64422,298,28,-16250,-86*9cff1ae0
%RAWIMUSA,2124,309401.508;2124,309401.507755000,00000077,344,64576,182,38,-16233,-57*14152565
%RAWIMUSA,2124,309401.518;2124,309401.517755000,00000077,200,64489,106,40,-16225,-64*a1194cf5
%RAWIMUSA,2124,309401.528;2124,309401.527755000,00000077,306,64672,209,29,-16245,-76*346cb693
%RAWIMUSA,2124,309401.538;2124,309401.537755000,00000077,256,64363,209,38,-16245,-53*72fbc734
%RAWIMUSA,2124,309401.548;2124,309401.547755000,00000077,221,64511,228,52,-16242,-88*95636766
%RAWIMUSA,2124,309401.558;2124,309401.557755000,00000077,235,64444,226,47,-16233,-40*f70f5894
%RAWIMUSA,2124,309401.568;2124,309401.567755000,00000077,296,64490,166,47,-16220,-97*44b97f17
%RAWIMUSA,2124,309401.578;2124,309401.577755000,00000077,340,64490,228,41,-16238,-43*cb1ff8d0
%RAWIMUSA,2124,309401.588;2124,309401.587755000,00000077,319,64594,238,48,-16246,-83*f6982bce
%RAWIMUSA,2124,309401.598;2124,309401.597755000,00000077,199,64509,130,48,-16237,-29*c929a7d7
%RAWIMUSA,2124,309401.608;2124,309401.607755000,00000077,306,64396,163,42,-16236,-88*23e97ef5
%RAWIMUSA,2124,309401.618;2124,309401.617755000,00000077,306,64572,247,33,-16238,-14*24cb4075
%RAWIMUSA,2124,309401.628;2124,309401.627755000,00000077,221,64469,224,57,-16240,-89*1b823d61
%RAWIMUSA,2124,309401.638;2124,309401.637755000,00000077,334,64529,71,45,-16226,-40*b76ff3c2
%RAWIMUSA,2124,309401.648;2124,309401.647755000,00000077,223,64486,87,24,-16232,-74*6051bef3
%RAWIMUSA,2124,309401.658;2124,309401.657755000,00000077,356,64500,67,40,-16240,-38*aa00cbe1
%RAWIMUSA,2124,309401.668;2124,309401.667755000,00000077,282,64443,195,42,-16239,-69*6d416354
%RAWIMUSA,2124,309401.678;2124,309401.677755000,00000077,265,64594,198,38,-16241,-69*3237e3b6
%RAWIMUSA,2124,309401.688;2124,309401.687755000,00000077,327,64471,231,47,-16223,-46*bc30a9f0
%RAWIMUSA,2124,309401.698;2124,309401.697755000,00000077,354,64523,254,38,-16247,-66*31bf3d9f
%RAWIMUSA,2124,309401.708;2124,309401.707755000,00000077,277,64438,216,50,-16245,-34*4fde4067
%RAWIMUSA,2124,309401.718;2124,309401.717755000,00000077,187,64537,89,29,-16252,-86*a010edf8
%RAWIMUSA,2124,309401.728;2124,309401.727755000,00000077,185,64585,145,44,-16251,-28*d4dd5f03
%RAWIMUSA,2124,309401.738;2124,309401.737755000,00000077,342,64477,249,32,-16249,-70*fd230bbd
%RAWIMUSA,2124,309401.748;2124,309401.747755000,00000077,256,64654,146,41,-16223,-61*8b4a8b88
%RAWIMUSA,2124,309401.758;2124,309401.757755000,00000077,174,64385,148,38,-16245,-55*f7c90a01
%RAWIMUSA,2124,309401.768;2124,309401.767755000,00000077,251,64430,117,46,-16245,-53*8052e1ee
%RAWIMUSA,2124,309401.778;2124,309401.777755000,00000077,391,64493,112,32,-16233,-45*94b4d0e9
%RAWIMUSA,2124,309401.788;2124,309401.787755000,00000077,310,64568,212,32,-16255,-73*d714ba40
%RAWIMUSA,2124,309401.798;2124,309401.797755000,00000077,289,64650,176,46,-16234,-51*42623d6b
%RAWIMUSA,2124,309401.808;2124,309401.807755000,00000077,222,64452,213,52,-16240,-72*578e4a18
%RAWIMUSA,2124,309401.818;2124,309401.817755000,00000077,243,64573,152,42,-16233,-51*832a7ba0
%RAWIMUSA,2124,309401.828;2124,309401.827755000,00000077,183,64513,288,28,-16226,-58*7fd16e06
%RAWIMUSA,2124,309401.838;2124,309401.837755000,00000077,214,64536,66,47,-16245,-93*69a38022
%RAWIMUSA,2124,309401.848;2124,309401.847755000,00000077,359,64499,178,45,-16247,-65*0cc7ec74
%RAWIMUSA,2124,309401.858;2124,309401.857755000,00000077,228,64534,93,49,-16238,-65*122904e2
%RAWIMUSA,2124,309401.868;2124,309401.867755000,00000077,283,64485,231,29,-16259,-62*1ad1d2fb
%RAWIMUSA,2124,309401.878;2124,309401.877755000,00000077,243,64525,171,28,-16251,-67*2feccb68
%RAWIMUSA,2124,309401.888;2124,309401.887755000,00000077,328,64447,163,44,-16255,-61*858a8528
%RAWIMUSA,2124,309401.898;2124,309401.897755000,00000077,358,64529,103,54,-16239,-74*f849e813
%RAWIMUSA,2124,309401.908;2124,309401.907755000,00000077,337,64499,113,38,-16241,-45*a15b73f7
%RAWIMUSA,2124,309401.918;2124,309401.917755000,00000077,248,64522,153,38,-16229,-75*357e2dae
%RAWIMUSA,2124,309401.928;2124,309401.927755000,00000077,294,64483,203,31,-16245,-69*6bb72c4e
%RAWIMUSA,2124,309401.938;2124,309401.937755000,00000077,240,64569,136,33,-16236,-59*f9a01b77
%RAWIMUSA,2124,309401.948;2124,309401.947755000,00000077,199,64579,195,32,-16228,-63*899f6807
%RAWIMUSA,2124,309401.958;2124,309401.957755000,00000077,262,64520,209,50,-16236,-74*f14c6ad1
%RAWIMUSA,2124,309401.968;2124,309401.967755000,00000077,317,64445,215,37,-16246,-56*7b07d757
%RAWIMUSA,2124,309401.978;2124,309401.977755000,00000077,261,64439,95,55,-16242,-45*7748e7a8
%RAWIMUSA,2124,309401.988;2124,309401.987755000,00000077,276,64546,90,53,-16257,-66*ebac841e
%RAWIMUSA,2124,309401.998;2124,309401.997755000,00000077,327,64552,87,38,-16246,-56*d61c3066
%RAWIMUSA,2124,309402.008;2124,309402.007755000,00000077,231,64530,134,35,-16238,-63*c6c6faa0
%RAWIMUSA,2124,309402.018;2124,309402.017755000,00000077,329,64481,272,43,-16239,-58*71cdeabe
%RAWIMUSA,2124,309402.028;2124,309402.027755000,00000077,269,64512,250,38,-16233,-52*c1dbe12d
%RAWIMUSA,2124,309402.038;2124,309402.037755000,00000077,291,64521,170,31,-16233,-61*4929cc1f
%RAWIMUSA,2124,309402.048;2124,309402.047755000,00000077,296,64461,170,39,-16235,-66*37757e17
%RAWIMUSA,2124,309402.058;2124,309402.057755000,00000077,343,64454,234,41,-16229,-46*9a2559b5
%RAWIMUSA,2124,309402.068;2124,309402.067755000,00000077,145,64542,125,47,-16242,-64*249e7c31
%RAWIMUSA,2124,309402.078;2124,309402.077755000,00000077,300,64355,134,13,-16235,-65*5b83c80b
%RAWIMUSA,2124,309402.088;2124,309402.087755000,00000077,352,64512,191,46,-16230,-82*4c404875
%RAWIMUSA,2124,309402.098;2124,309402.097755000,00000077,251,64449,78,44,-16241,-56*c06e3072
%RAWIMUSA,2124,309402.108;2124,309402.107755000,00000077,272,64410,134,60,-16233,-61*592bc0e2
%RAWIMUSA,2124,309402.118;2124,309402.117755000,00000077,325,64552,182,53,-16231,-51*ac3e5dd5
%RAWIMUSA,2124,309402.128;2124,309402.127755000,00000077,186,64531,152,43,-16230,-64*28ba1c5f
%RAWIMUSA,2124,309402.138;2124,309402.137755000,00000077,367,64504,185,29,-16252,-83*01419d72
%RAWIMUSA,2124,309402.148;2124,309402.147755000,00000077,354,64457,258,53,-16244,-63*4cebad08
%RAWIMUSA,2124,309402.158;2124,309402.157755000,00000077,337,64560,189,51,-16237,-71*406ea029
%RAWIMUSA,2124,309402.168;2124,309402.167755000,00000077,336,64510,126,36,-16241,-64*324f7055
%RAWIMUSA,2124,309402.178;2124,309402.177755000,00000077,310,64482,126,43,-16242,-64*232751ec
%RAWIMUSA,2124,309402.188;2124,309402.187755000,00000077,278,64532,87,50,-16243,-54*7f322b5a
%RAWIMUSA,2124,309402.198;2124,309402.197755000,00000077,310,64445,91,51,-16251,-65*f5f43bcd
%RAWIMUSA,2124,309402.208;2124,309402.207755000,00000077,311,64451,266,40,-16258,-55*494c96ba
%RAWIMUSA,2124,309402.218;2124,309402.217755000,00000077,176,64461,134,32,-16233,-58*db1da8ed
%RAWIMUSA,2124,309402.228;2124,309402.227755000,00000077,262,64510,201,40,-16239,-74*cd649af1
%RAWIMUSA,2124,309402.238;2124,309402.237755000,00000077,300,64575,173,45,-16250,-58*162dc5f5
%RAWIMUSA,2124,309402.248;2124,309402.247755000,00000077,232,64566,148,52,-16234,-73*72bd44b5
%RAWIMUSA,2124,309402.258;2124,309402.257755000,00000077,261,64462,125,48,-16239,-52*07af9509
%RAWIMUSA,2124,309402.268;2124,309402.267755000,00000077,306,64465,134,51,-16228,-65*7fd618d6
%RAWIMUSA,2124,309402.278;2124,309402.277755000,00000077,203,64410,165,43,-16247,-60*9895569f
%RAWIMUSA,2124,309402.288;2124,309402.287755000,00000077,308,64516,138,34,-16236,-55*2b1a1a79
%RAWIMUSA,2124,309402.298;2124,309402.297755000,00000077,299,64470,79,29,-16249,-48*b025d53f
%RAWIMUSA,2124,309402.308;2124,309402.307755000,00000077,296,64582,198,33,-16231,-62*ab5893f9
%RAWIMUSA,2124,309402.318;2124,309402.317755000,00000077,204,64528,239,40,-16233,-61*8aa70c84
%RAWIMUSA,2124,309402.328;2124,309402.327755000,00000077,271,64541,178,54,-16260,-61*1803c1f9
%RAWIMUSA,2124,309402.338;2124,309402.337755000,00000077,225,64547,209,35,-16230,-58*43544454
%RAWIMUSA,2124,309402.348;2124,309402.347755000,00000077,318,64570,199,35,-16240,-65*f84e4728
%RAWIMUSA,2124,309402.358;2124,309402.357755000,00000077,250,64475,238,45,-16238,-62*3fe6e095
%RAWIMUSA,2124,309402.368;2124,309402.367755000,00000077,321,64563,218,32,-16245,-60*770f5572
%RAWIMUSA,2124,309402.378;2124,309402.377755000,00000077,294,64571,231,46,-16251,-63*073127b2
%RAWIMUSA,2124,309402.388;2124,309402.387755000,00000077,209,64491,196,52,-16236,-56*aee1bd6c
%RAWIMUSA,2124,309402.398;2124,309402.397755000,00000077,426,64509,168,46,-16236,-75*43037cca
%RAWIMUSA,2124,309402.408;2124,309402.407755000,00000077,286,64533,158,34,-16256,-65*90ded7cd
%RAWIMUSA,2124,309402.418;2124,309402.417755000,00000077,231,64622,228,39,-16248,-66*339929ce
%RAWIMUSA,2124,309402.428;2124,309402.427755000,00000077,194,64563,202,37,-16247,-61*d07f7104
%RAWIMUSA,2124,309402.438;2124,309402.437755000,00000077,219,64479,272,51,-16227,-69*77af1781
%RAWIMUSA,2124,309402.448;2124,309402.447755000,00000077,331,64507,235,34,-16250,-51*41370b10
%RAWIMUSA,2124,309402.458;2124,309402.457755000,00000077,274,64501,165,39,-16257,-63*d8f15b99
%RAWIMUSA,2124,309402.468;2124,309402.467755000,00000077,321,64544,208,36,-16238,-61*d8afafae
%RAWIMUSA,2124,309402.478;2124,309402.477755000,00000077,201,64486,120,36,-16226,-56*9ffc3bb3
%RAWIMUSA,2124,309402.488;2124,309402.487755000,00000077,272,64494,197,21,-16241,-69*e643aac4
%RAWIMUSA,2124,309402.498;2124,309402.497755000,00000077,374,64551,117,48,-16230,-59*0a3ebb57
%RAWIMUSA,2124,309402.508;2124,309402.507755000,00000077,279,64513,145,44,-16237,-67*d651ad63
%RAWIMUSA,2124,309402.518;2124,309402.517755000,00000077,244,64510,195,51,-16241,-65*1b02a2fb
%RAWIMUSA,2124,309402.528;2124,309402.527755000,00000077,175,64430,248,36,-16255,-63*b6de23db
%RAWIMUSA,2124,309402.538;2124,309402.537755000,00000077,273,64479,156,51,-16240,-49*35c74232
%RAWIMUSA,2124,309402.548;2124,309402.547755000,00000077,357,64468,79,54,-16232,-66*b7775ce9
%RAWIMUSA,2124,309402.558;2124,309402.557755000,00000077,192,64475,106,37,-16233,-73*a5721de2
%RAWIMUSA,2124,309402.568;2124,309402.567755000,00000077,350,64454,172,27,-16241,-71*10d9af38
%RAWIMUSA,2124,309402.578;2124,309402.577755000,00000077,286,64606,128,50,-16236,-49*76e10f44
%RAWIMUSA,2124,309402.588;2124,309402.587755000,00000077,262,64520,187,35,-16244,-61*3a8f169d
%RAWIMUSA,2124,309402.598;2124,309402.597755000,00000077,268,64488,166,42,-16249,-53*34f6cceb
%RAWIMUSA,2124,309402.608;2124,309402.607755000,00000077,189,64345,128,53,-16217,-56*3e306b28
%RAWIMUSA,2124,309402.618;2124,309402.617755000,00000077,321,64464,120,38,-16236,-64*8ea5b031
%RAWIMUSA,2124,309402.628;2124,309402.627755000,00000077,214,64512,110,51,-16229,-55*17346d28
%RAWIMUSA,2124,309402.638;2124,309402.637755000,00000077,287,64421,194,44,-16239,-74*efa4a8d6
%RAWIMUSA,2124,309402.648;2124,309402.647755000,00000077,223,64510,183,41,-16230,-66*923721ef
%RAWIMUSA,2124,309402.658;2124,309402.657755000,00000077,331,64544,147,50,-16240,-62*e67cd50a
%RAWIMUSA,2124,309402.668;2124,309402.667755000,00000077,232,64489,186,40,-16254,-53*deff3813
%RAWIMUSA,2124,309402.678;2124,309402.677755000,00000077,259,64556,217,43,-16232,-66*0e525b7b
%RAWIMUSA,2124,309402.688;2124,309402.687755000,00000077,332,64492,213,50,-16252,-82*bedc6b23
%RAWIMUSA,2124,309402.698;2124,309402.697755000,00000077,182,64480,205,55,-16234,-60*3697ad4d
%RAWIMUSA,2124,309402.708;2124,309402.707755000,00000077,287,64468,58,40,-16250,-56*17e35762
%RAWIMUSA,2124,309402.718;2124,309402.717755000,00000077,373,64550,82,33,-16239,-62*d99958ea
%RAWIMUSA,2124,309402.728;2124,309402.727755000,00000077,351,64559,198,37,-16244,-34*dc04a89d
%RAWIMUSA,2124,309402.738;2124,309402.737755000,00000077,341,64526,87,44,-16232,-62*26371eae
%RAWIMUSA,2124,309402.748;2124,309402.747755000,00000077,283,64519,54,43,-16247,-45*40e70cbd
%RAWIMUSA,2124,309402.758;2124,309402.757755000,00000077,441,64512,179,51,-16231,-66*ebf875bc
%RAWIMUSA,2124,309402.768;2124,309402.767755000,00000077,255,64513,156,48,-16236,-83*eaa1ed60
%RAWIMUSA,2124,309402.778;2124,309402.777755000,00000077,260,64543,183,49,-16246,-56*cab865c6
%RAWIMUSA,2124,309402.788;2124,309402.787755000,00000077,311,64463,144,52,-16244,-65*e6d694ba
%RAWIMUSA,2124,309402.798;2124,309402.797755000,00000077,278,64582,156,43,-16247,-60*c6884794
%RAWIMUSA,2124,309402.808;2124,309402.807755000,00000077,259,64486,90,38,-16240,-62*4c0b5b00
%RAWIMUSA,2124,309402.818;2124,309402.817755000,00000077,267,64524,158,36,-16254,-64*26d1bc8a
%RAWIMUSA,2124,309402.828;2124,309402.827755000,00000077,305,64484,202,54,-16236,-72*c845489c
%RAWIMUSA,2124,309402.838;2124,309402.837755000,00000077,230,64494,197,41,-16243,-70*722ca145
%RAWIMUSA,2124,309402.848;2124,309402.847755000,00000077,242,64368,283,54,-16233,-67*11eabf03
%RAWIMUSA,2124,309402.858;2124,309402.857755000,00000077,353,64533,203,35,-16241,-61*521e734d
%RAWIMUSA,2124,309402.868;2124,309402.867755000,00000077,216,64490,248,47,-16251,-67*23872cd4
%RAWIMUSA,2124,309402.878;2124,309402.877755000,00000077,280,64429,181,36,-16249,-65*b93c84d3
%RAWIMUSA,2124,309402.888;2124,309402.887755000,00000077,332,64415,221,29,-16240,-51*b4ce7296
%RAWIMUSA,2124,309402.898;2124,309402.897755000,00000077,258,64500,219,49,-16237,-56*34788f3e
%RAWIMUSA,2124,309402.908;2124,309402.907755000,00000077,314,64446,173,40,-16244,-54*f6dcccd7
%RAWIMUSA,2124,309402.918;2124,309402.917755000,00000077,266,64466,111,28,-16248,-69*09f22a3b
%RAWIMUSA,2124,309402.928;2124,309402.927755000,00000077,298,64534,192,43,-16248,-47*dc27be74
%RAWIMUSA,2124,309402.938;2124,309402.937755000,00000077,306,64495,230,37,-16233,-50*1a49dfd1
%RAWIMUSA,2124,309402.948;2124,309402.947755000,00000077,203,64465,207,41,-16239,-77*e61aa90e
%RAWIMUSA,2124,309402.958;2124,309402.957755000,00000077,421,64514,150,47,-16267,-56*5f7b0873
%RAWIMUSA,2124,309402.968;2124,309402.967755000,00000077,244,64388,104,29,-16240,-59*03b8d74d
%RAWIMUSA,2124,309402.978;2124,309402.977755000,00000077,386,64488,140,42,-16250,-72*d4d18880
%RAWIMUSA,2124,309402.988;2124,309402.987755000,00000077,263,64577,153,41,-16238,-62*2b82688a
%RAWIMUSA,2124,309402.998;2124,309402.997755000,00000077,181,64578,156,38,-16226,-82*c6f1a2ac
%RAWIMUSA,2124,309403.008;2124,309403.007755000,00000077,266,64505,164,45,-16233,-66*e62829a8
%RAWIMUSA,2124,309403.018;2124,309403.017755000,00000077,311,64487,158,26,-16246,-53*033d8b76
%RAWIMUSA,2124,309403.028;2124,309403.027755000,00000077,306,64669,204,45,-16220,-41*efec409a
%RAWIMUSA,2124,309403.038;2124,309403.037755000,00000077,433,64601,159,40,-16248,-91*dc68812d
%RAWIMUSA,2124,309403.048;2124,309403.047755000,00000077,218,64615,233,44,-16249,-65*4f163130
%RAWIMUSA,2124,309403.058;2124,309403.057755000,00000077,318,64497,206,45,-16243,-63*d05365be
%RAWIMUSA,2124,309403.068;2124,309403.067755000,00000077,323,64453,128,38,-16242,-82*b65161f3
%RAWIMUSA,2124,309403.078;2124,309403.077755000,00000077,337,64524,89,34,-16245,-75*9f010ba7
%RAWIMUSA,2124,309403.088;2124,309403.087755000,00000077,202,64503,200,42,-16256,-54*de8c6122
%RAWIMUSA,2124,309403.098;2124,309403.097755000,00000077,236,64481,187,48,-16240,-58*639db911
%RAWIMUSA,2124,309403.108;2124,309403.107755000,00000077,334,64586,111,33,-16243,-62*644c1ee2
%RAWIMUSA,2124,309403.118;2124,309403.117755000,00000077,250,64536,126,62,-16245,-65*07ed4875
%RAWIMUSA,2124,309403.128;2124,309403.127755000,00000077,190,64559,36,41,-16243,-56*7afbddad
%RAWIMUSA,2124,309403.138;2124,309403.137755000,00000077,221,64560,136,33,-16237,-47*382bba6d
%RAWIMUSA,2124,309403.148;2124,309403.147755000,00000077,253,64482,156,39,-16250,-56*47c8a6db
%RAWIMUSA,2124,309403.158;2124,309403.157755000,00000077,186,64521,122,63,-16232,-60*69420c8d
%RAWIMUSA,2124,309403.168;2124,309403.167755000,00000077,332,64475,159,37,-16236,-47*68cbc001
%RAWIMUSA,2124,309403.178;2124,309403.177755000,00000077,343,64439,101,43,-16239,-54*ac1b6ef8
%RAWIMUSA,2124,309403.188;2124,309403.187755000,00000077,232,64561,43,37,-16243,-61*c01b87c4
%RAWIMUSA,2124,309403.198;2124,309403.197755000,00000077,287,64437,209,45,-16230,-77*ebcd9028
%RAWIMUSA,2124,309403.208;2124,309403.207755000,00000077,230,64444,144,42,-16221,-66*4cde2076
%RAWIMUSA,2124,309403.218;2124,309403.217755000,00000077,204,64580,178,37,-16234,-73*ddcba4d4
%RAWIMUSA,2124,309403.228;2124,309403.227755000,00000077,277,64515,265,47,-16244,-69*d70bf69d
%RAWIMUSA,2124,309403.238;2124,309403.237755000,00000077,265,64522,57,52,-16239,-60*b9c324b8
%RAWIMUSA,2124,309403.248;2124,309403.247755000,00000077,248,64550,194,32,-16236,-54*ac2a9dc8
%RAWIMUSA,2124,309403.258;2124,309403.257755000,00000077,276,64498,234,46,-16248,-64*d2ff4837
%RAWIMUSA,2124,309403.268;2124,309403.267755000,00000077,234,64469,159,40,-16233,-57*b1254745
%RAWIMUSA,2124,309403.278;2124,309403.277755000,00000077,187,64465,219,50,-16231,-65*4b6ec68c
%RAWIMUSA,2124,309403.288;2124,309403.287755000,00000077,309,64577,193,48,-16246,-63*e2a1c7f6
%RAWIMUSA,2124,309403.298;2124,309403.297755000,00000077,262,64450,164,41,-16249,-77*7f000ff0
%RAWIMUSA,2124,309403.308;2124,309403.307755000,00000077,139,64537,183,46,-16244,-56*68610e48
%RAWIMUSA,2124,309403.318;2124,309403.317755000,00000077,206,64402,159,48,-16233,-59*a3b59a99
%RAWIMUSA,2124,309403.328;2124,309403.327755000,00000077,357,64527,171,40,-16250,-53*48301f2a
%RAWIMUSA,2124,309403.338;2124,309403.337755000,00000077,263,64562,148,43,-16243,-62*79981bb5
%RAWIMUSA,2124,309403.348;2124,309403.347755000,00000077,310,64549,146,47,-16234,-60*434ebe35
%RAWIMUSA,2124,309403.358;2124,309403.357755000,00000077,254,64527,233,36,-16230,-57*0915a08c
%RAWIMUSA,2124,309403.368;2124,309403.367755000,00000077,183,64535,204,47,-16244,-60*4ded59b6
%RAWIMUSA,2124,309403.378;2124,309403.377755000,00000077,206,64553,215,37,-16248,-56*5f9c275f
%RAWIMUSA,2124,309403.388;2124,309403.387755000,00000077,238,64475,136,36,-16255,-46*649bb154
%RAWIMUSA,2124,309403.398;2124,309403.397755000,00000077,373,64380,83,47,-16236,-73*dd0f7352
%RAWIMUSA,2124,309403.408;2124,309403.407755000,00000077,229,64502,232,43,-16243,-70*fc0beb60
%RAWIMUSA,2124,309403.418;2124,309403.417755000,00000077,284,64419,204,34,-16233,-51*1aa96f0d
%RAWIMUSA,2124,309403.428;2124,309403.427755000,00000077,330,64489,189,26,-16236,-73*9034c7d0
%RAWIMUSA,2124,309403.438;2124,309403.437755000,00000077,335,64473,196,43,-16239,-63*483e4f52
%RAWIMUSA,2124,309403.448;2124,309403.447755000,00000077,238,64483,125,52,-16230,-71*a993bbd8
%RAWIMUSA,2124,309403.458;2124,309403.457755000,00000077,250,64456,231,49,-16237,-59*b981ffe7
%RAWIMUSA,2124,309403.468;2124,309403.467755000,00000077,261,64504,295,58,-16228,-63*2d2dcab9
%RAWIMUSA,2124,309403.478;2124,309403.477755000,00000077,234,64647,161,42,-16232,-74*9052adba
%RAWIMUSA,2124,309403.488;2124,309403.487755000,00000077,230,64453,217,32,-16249,-68*bacbd947
%RAWIMUSA,2124,309403.498;2124,309403.497755000,00000077,242,64422,258,42,-16222,-66*a168b1cd
%RAWIMUSA,2124,309403.508;2124,309403.507755000,00000077,349,64695,245,42,-16241,-73*b3830bf5
%RAWIMUSA,2124,309403.518;2124,309403.517755000,00000077,297,64602,240,36,-16246,-63*886f9f61
%RAWIMUSA,2124,309403.528;2124,309403.527755000,00000077,358,64526,215,49,-16249,-59*95b0d7bc
%RAWIMUSA,2124,309403.538;2124,309403.537755000,00000077,299,64513,276,40,-16243,-50*825bdb9b
%RAWIMUSA,2124,309403.548;2124,309403.547755000,00000077,320,64524,171,45,-16235,-60*b8fd4069
%RAWIMUSA,2124,309403.558;2124,309403.557755000,00000077,323,64346,221,42,-16252,-75*05b29875
%RAWIMUSA,2124,309403.568;2124,309403.567755000,00000077,368,64544,238,41,-16239,-69*13757ac4
%RAWIMUSA,2124,309403.578;2124,309403.577755000,00000077,369,64567,243,43,-16234,-55*140064d1
%RAWIMUSA,2124,309403.588;2124,309403.587755000,00000077,319,64618,141,44,-16240,-65*6b576f2f
%RAWIMUSA,2124,309403.598;2124,309403.597755000,00000077,295,64522,109,39,-16227,-50*37e72e47
%RAWIMUSA,2124,309403.608;2124,309403.607755000,00000077,367,64457,155,40,-16232,-65*984c851e
%RAWIMUSA,2124,309403.618;2124,309403.617755000,00000077,263,64440,137,55,-16228,-65*c3b1bc3e
%RAWIMUSA,2124,309403.628;2124,309403.627755000,00000077,308,64493,159,37,-16237,-58*c9322d23
%RAWIMUSA,2124,309403.638;2124,309403.637755000,00000077,285,64522,163,50,-16246,-62*559cf332
%RAWIMUSA,2124,309403.648;2124,309403.647755000,00000077,243,64431,119,37,-16248,-44*44ece0fa
%RAWIMUSA,2124,309403.658;2124,309403.657755000,00000077,273,64529,148,34,-16249,-49*6c114c2f
%RAWIMUSA,2124,309403.668;2124,309403.667755000,00000077,241,64420,186,46,-16256,-48*13371785
%RAWIMUSA,2124,309403.678;2124,309403.677755000,00000077,273,64506,84,28,-16244,-62*ad022a55
%RAWIMUSA,2124,309403.688;2124,309403.687755000,00000077,185,64524,94,42,-16244,-69*aa534c19
%RAWIMUSA,2124,309403.698;2124,309403.697755000,00000077,310,64531,98,30,-16255,-40*6432b9f5
%RAWIMUSA,2124,309403.708;2124,309403.707755000,00000077,224,64461,94,38,-16234,-54*66261c8f
%RAWIMUSA,2124,309403.718;2124,309403.717755000,00000077,303,64474,182,33,-16240,-73*2d2592a6
%RAWIMUSA,2124,309403.728;2124,309403.727755000,00000077,413,64417,179,39,-16238,-72*665fa255
%RAWIMUSA,2124,309403.738;2124,309403.737755000,00000077,315,64436,174,50,-16218,-67*f9dde857
%RAWIMUSA,2124,309403.748;2124,309403.747755000,00000077,268,64426,120,21,-16238,-63*728d5dfe
%RAWIMUSA,2124,309403.758;2124,309403.757755000,00000077,315,64438,178,36,-16236,-62*4d579314
%RAWIMUSA,2124,309403.768;2124,309403.767755000,00000077,303,64667,254,30,-16239,-62*087e526f
%RAWIMUSA,2124,309403.778;2124,309403.777755000,00000077,287,64522,137,42,-16257,-65*6a77a71b
%RAWIMUSA,2124,309403.788;2124,309403.787755000,00000077,288,64468,172,44,-16224,-62*da3937d7
%RAWIMUSA,2124,309403.798;2124,309403.797755000,00000077,224,64514,106,43,-16239,-65*a3552e7f
