%RAWIMUSA,2124,293378.038;2124,293378.037755000,00000077,64588,270,372,-1,-11,5*789c0b99
%RAWIMUSA,2124,293378.048;2124,293378.047755000,00000077,64355,184,457,2,-8,8*339df63d
%RAWIMUSA,2124,293378.058;2124,293378.057755000,00000077,64424,135,478,4,0,-2*cd15339d
%RAWIMUSA,2124,293378.068;2124,293378.067755000,00000077,64494,260,428,17,5,6*d450cb0d
%RAWIMUSA,2124,293378.078;2124,293378.077755000,00000077,64449,186,365,3,9,5*c57bec83
%RAWIMUSA,2124,293378.088;2124,293378.087755000,00000077,64387,140,445,-1,15,-3*69ffaa6d
%RAWIMUSA,2124,293378.098;2124,293378.097755000,00000077,64459,176,363,1,11,8*190c549a
%RAWIMUSA,2124,293378.108;2124,293378.107755000,00000077,64469,249,425,8,6,2*7045b6d8
%RAWIMUSA,2124,293378.118;2124,293378.117755000,00000077,64391,151,470,19,-4,15*35aa52f4
%RAWIMUSA,2124,293378.128;2124,293378.127755000,00000077,64405,143,485,5,-9,18*fc554173
%RAWIMUSA,2124,293378.138;2124,293378.137755000,00000077,64431,251,437,4,-1,9*a167bd7a
%RAWIMUSA,2124,293378.148;2124,293378.147755000,00000077,64386,145,369,-8,-10,-4*4bb9632a
%RAWIMUSA,2124,293378.158;2124,293378.157755000,00000077,64446,302,405,2,-3,5*b27c0c4b
%RAWIMUSA,2124,293378.168;2124,293378.167755000,00000077,64410,197,361,-2,12,-10*3e592d7f
%RAWIMUSA,2124,293378.178;2124,293378.177755000,00000077,64335,242,386,-8,8,11*b517b5a9
%RAWIMUSA,2124,293378.188;2124,293378.187755000,00000077,64470,252,429,10,-11,-3*f86b36c4
%RAWIMUSA,2124,293378.198;2124,293378.197755000,00000077,64435,140,422,0,2,1*801098e2
%RAWIMUSA,2124,293378.208;2124,293378.207755000,00000077,64464,256,397,17,4,-6*8a50fa6d
%RAWIMUSA,2124,293378.218;2124,293378.217755000,00000077,64455,259,498,-4,8,4*5341605c
%RAWIMUSA,2124,293378.228;2124,293378.227755000,00000077,64516,225,410,11,13,16*4e423e68
%RAWIMUSA,2124,293378.238;2124,293378.237755000,00000077,64465,284,412,-2,19,17*c5ff70c1
%RAWIMUSA,2124,293378.248;2124,293378.247755000,00000077,64401,192,410,-8,-6,12*bc301123
%RAWIMUSA,2124,293378.258;2124,293378.257755000,00000077,64405,242,374,13,-8,5*51146775
%RAWIMUSA,2124,293378.268;2124,293378.267755000,00000077,64422,177,474,0,11,3*2a752477
%RAWIMUSA,2124,293378.278;2124,293378.277755000,00000077,64441,241,392,21,-3,11*a486643e
%RAWIMUSA,2124,293378.288;2124,293378.287755000,00000077,64503,183,465,3,2,13*1b26aa74
%RAWIMUSA,2124,293378.298;2124,293378.297755000,00000077,64421,201,498,16,-3,-2*6a165027
%RAWIMUSA,2124,293378.308;2124,293378.307755000,00000077,64382,253,379,9,4,11*785f8527
%RAWIMUSA,2124,293378.318;2124,293378.317755000,00000077,64385,215,400,7,20,2*d3c5d2f5
%RAWIMUSA,2124,293378.328;2124,293378.327755000,00000077,64536,272,425,0,-6,1*346d7eec
%RAWIMUSA,2124,293378.338;2124,293378.337755000,00000077,64388,230,496,-4,-7,17*e1bf1dba
%RAWIMUSA,2124,293378.348;2124,293378.347755000,00000077,64380,232,364,-3,-8,25*06242e2a
%RAWIMUSA,2124,293378.358;2124,293378.357755000,00000077,64398,148,379,12,1,5*40f5ef07
%RAWIMUSA,2124,293378.368;2124,293378.367755000,00000077,64378,103,395,7,5,27*6ab85152
%RAWIMUSA,2124,293378.378;2124,293378.377755000,00000077,64483,189,433,1,-4,0*81af70bf
%RAWIMUSA,2124,293378.388;2124,293378.387755000,00000077,64427,140,411,11,-9,0*c6b848fd
%RAWIMUSA,2124,293378.398;2124,293378.397755000,00000077,64443,204,398,-10,-9,20*44e24207
%RAWIMUSA,2124,293378.408;2124,293378.407755000,00000077,64437,128,503,-6,-1,-8*8f4600bf
%RAWIMUSA,2124,293378.418;2124,293378.417755000,00000077,64491,166,591,-8,9,0*22cb3403
%RAWIMUSA,2124,293378.428;2124,293378.427755000,00000077,64364,192,462,15,4,13*b33f9bec
%RAWIMUSA,2124,293378.438;2124,293378.437755000,00000077,64518,232,446,0,-8,13*5914b54f
%RAWIMUSA,2124,293378.448;2124,293378.447755000,00000077,64499,217,447,12,5,6*1c5bc899
%RAWIMUSA,2124,293378.458;2124,293378.457755000,00000077,64426,244,385,-2,5,18*3db58fe1
%RAWIMUSA,2124,293378.468;2124,293378.467755000,00000077,64496,121,419,-6,-11,9*9cbb691a
%RAWIMUSA,2124,293378.478;2124,293378.477755000,00000077,64407,203,419,-7,14,1*7a3d3ad9
%RAWIMUSA,2124,293378.488;2124,293378.487755000,00000077,64439,315,361,13,-16,11*8d22bddc
%RAWIMUSA,2124,293378.498;2124,293378.497755000,00000077,64565,182,524,6,7,7*e5c1c637
%RAWIMUSA,2124,293378.508;2124,293378.507755000,00000077,64425,273,516,26,0,13*5f1b70ad
%RAWIMUSA,2124,293378.518;2124,293378.517755000,00000077,64529,305,421,155,-18,-3*30d6e0fc
%RAWIMUSA,2124,293378.528;2124,293378.527755000,00000077,64365,300,405,342,-3,13*0d6bfd72
%RAWIMUSA,2124,293378.538;2124,293378.537755000,00000077,64453,217,358,470,-5,22*3eff513b
%RAWIMUSA,2124,293378.548;2124,293378.547755000,00000077,64566,289,433,583,3,2*c2740ffd
%RAWIMUSA,2124,293378.558;2124,293378.557755000,00000077,64400,145,418,695,6,19*dccbfd50
%RAWIMUSA,2124,293378.568;2124,293378.567755000,00000077,64480,208,559,734,-3,29*cfe85605
%RAWIMUSA,2124,293378.578;2124,293378.577755000,00000077,64467,306,373,847,3,7*3952dbcb
%RAWIMUSA,2124,293378.588;2124,293378.587755000,00000077,64406,219,351,911,6,13*c90d0ed1
%RAWIMUSA,2124,293378.598;2124,293378.597755000,00000077,64406,214,478,966,-2,13*e627fbd8
%RAWIMUSA,2124,293378.608;2124,293378.607755000,00000077,64468,134,427,1055,10,13*8e2b1b91
%RAWIMUSA,2124,293378.618;2124,293378.617755000,00000077,64434,237,437,1093,11,9*69a8fced
%RAWIMUSA,2124,293378.628;2124,293378.627755000,00000077,64501,212,447,1185,-2,28*69584595
%RAWIMUSA,2124,293378.638;2124,293378.637755000,00000077,64438,169,450,1320,-4,19*bba258c1
%RAWIMUSA,2124,293378.648;2124,293378.647755000,00000077,64452,197,394,1372,21,11*fa5bcdad
%RAWIMUSA,2124,293378.658;2124,293378.657755000,00000077,64369,182,351,1453,7,15*ac61b10c
%RAWIMUSA,2124,293378.668;2124,293378.667755000,00000077,64424,266,504,1542,13,23*3337063e
%RAWIMUSA,2124,293378.678;2124,293378.677755000,00000077,64496,246,430,1595,-6,28*e0aa2e3c
%RAWIMUSA,2124,293378.688;2124,293378.687755000,00000077,64409,277,445,1704,6,16*75de755d
%RAWIMUSA,2124,293378.698;2124,293378.697755000,00000077,64403,126,478,1801,8,25*0f521834
%RAWIMUSA,2124,293378.708;2124,293378.707755000,00000077,64455,155,467,1850,13,22*03a161de
%RAWIMUSA,2124,293378.718;2124,293378.717755000,00000077,64489,191,416,1961,2,27*be144f0e
%RAWIMUSA,2124,293378.728;2124,293378.727755000,00000077,64412,273,435,2021,0,27*f02ad78e
%RAWIMUSA,2124,293378.738;2124,293378.737755000,00000077,64477,138,461,2084,7,35*55649662
%RAWIMUSA,2124,293378.748;2124,293378.747755000,00000077,64521,311,404,2204,0,27*62c582cf
%RAWIMUSA,2124,293378.758;2124,293378.757755000,00000077,64426,200,422,2246,12,21*fbb4c3df
%RAWIMUSA,2124,293378.768;2124,293378.767755000,00000077,64457,236,511,2322,4,23*128c566c
%RAWIMUSA,2124,293378.778;2124,293378.777755000,00000077,64495,143,451,2452,7,16*8057ef06
%RAWIMUSA,2124,293378.788;2124,293378.787755000,00000077,64412,264,434,2501,6,21*c59fff86
%RAWIMUSA,2124,293378.798;2124,293378.797755000,00000077,64472,243,439,2616,-9,30*ec9781b2
%RAWIMUSA,2124,293378.808;2124,293378.807755000,00000077,64388,295,447,2700,16,32*57802bfa
%RAWIMUSA,2124,293378.818;2124,293378.817755000,00000077,64508,247,421,2737,2,20*b7201f94
%RAWIMUSA,2124,293378.828;2124,293378.827755000,00000077,64460,194,464,2820,10,13*de2b312f
%RAWIMUSA,2124,293378.838;2124,293378.837755000,00000077,64462,237,548,2898,0,35*10a6d187
%RAWIMUSA,2124,293378.848;2124,293378.847755000,00000077,64483,257,442,2978,3,28*e53fad14
%RAWIMUSA,2124,293378.858;2124,293378.857755000,00000077,64414,205,481,3081,-5,25*737bf70d
%RAWIMUSA,2124,293378.868;2124,293378.867755000,00000077,64512,177,433,3147,4,30*80abae31
%RAWIMUSA,2124,293378.878;2124,293378.877755000,00000077,64471,216,435,3236,8,39*2a82ba09
%RAWIMUSA,2124,293378.888;2124,293378.887755000,00000077,64467,328,401,3347,29,21*bf3d0428
%RAWIMUSA,2124,293378.898;2124,293378.897755000,00000077,64484,254,400,3394,0,34*2acce5ce
%RAWIMUSA,2124,293378.908;2124,293378.907755000,00000077,64375,221,349,3494,0,29*bd1254c2
%RAWIMUSA,2124,293378.918;2124,293378.917755000,00000077,64458,156,434,3580,-1,40*88cbdb2b
%RAWIMUSA,2124,293378.928;2124,293378.927755000,00000077,64415,227,479,3625,0,44*e15f97c7
%RAWIMUSA,2124,293378.938;2124,293378.937755000,00000077,64593,274,431,3728,0,44*2ceaf528
%RAWIMUSA,2124,293378.948;2124,293378.947755000,00000077,64485,161,493,3808,22,30*2a085e79
%RAWIMUSA,2124,293378.958;2124,293378.957755000,00000077,64493,212,420,3864,5,53*3c607e46
%RAWIMUSA,2124,293378.968;2124,293378.967755000,00000077,64398,225,481,3991,0,35*4e7e3d30
%RAWIMUSA,2124,293378.978;2124,293378.977755000,00000077,64525,283,458,4025,8,30*296a9caf
%RAWIMUSA,2124,293378.988;2124,293378.987755000,00000077,64364,181,395,4097,12,40*a167fd57
%RAWIMUSA,2124,293378.998;2124,293378.997755000,00000077,64373,235,428,4224,13,47*c73d1ede
%RAWIMUSA,2124,293379.008;2124,293379.007755000,00000077,64427,175,492,4259,1,43*06bf2c12
%RAWIMUSA,2124,293379.018;2124,293379.017755000,00000077,64506,253,495,4358,14,45*b81f1687
%RAWIMUSA,2124,293379.028;2124,293379.027755000,00000077,64518,292,432,4457,14,46*a7d87f4b
%RAWIMUSA,2124,293379.038;2124,293379.037755000,00000077,64447,160,455,4504,-9,46*ec623890
%RAWIMUSA,2124,293379.048;2124,293379.047755000,00000077,64332,269,512,4591,-2,34*10561f92
%RAWIMUSA,2124,293379.058;2124,293379.057755000,00000077,64469,136,432,4702,-3,47*22143d33
%RAWIMUSA,2124,293379.068;2124,293379.067755000,00000077,64455,230,406,4755,5,53*ed5480bf
%RAWIMUSA,2124,293379.078;2124,293379.077755000,00000077,64473,321,425,4869,15,47*ab78d164
%RAWIMUSA,2124,293379.088;2124,293379.087755000,00000077,64463,182,458,4943,6,46*0c614012
%RAWIMUSA,2124,293379.098;2124,293379.097755000,00000077,64435,232,377,4967,15,53*96d1ef71
%RAWIMUSA,2124,293379.108;2124,293379.107755000,00000077,64455,335,469,5091,18,46*b636d903
%RAWIMUSA,2124,293379.118;2124,293379.117755000,00000077,64503,241,470,5157,10,50*0ee6c1da
%RAWIMUSA,2124,293379.128;2124,293379.127755000,00000077,64376,203,444,5228,-1,49*2b07d2f0
%RAWIMUSA,2124,293379.138;2124,293379.137755000,00000077,64449,167,425,5341,6,38*bd5f965d
%RAWIMUSA,2124,293379.148;2124,293379.147755000,00000077,64402,195,388,5389,-7,54*3c91cf82
%RAWIMUSA,2124,293379.158;2124,293379.157755000,00000077,64442,141,492,5508,11,52*3ee5dd14
%RAWIMUSA,2124,293379.168;2124,293379.167755000,00000077,64406,240,366,5574,3,48*43fe601e
%RAWIMUSA,2124,293379.178;2124,293379.177755000,00000077,64416,290,424,5622,20,42*96dc1c73
%RAWIMUSA,2124,293379.188;2124,293379.187755000,00000077,64423,252,452,5731,2,39*cb0fe49a
%RAWIMUSA,2124,293379.198;2124,293379.197755000,00000077,64396,145,463,5815,-1,41*87fcac68
%RAWIMUSA,2124,293379.208;2124,293379.207755000,00000077,64504,267,357,5882,9,55*184cf61e
%RAWIMUSA,2124,293379.218;2124,293379.217755000,00000077,64499,289,455,5980,15,57*d4274341
%RAWIMUSA,2124,293379.228;2124,293379.227755000,00000077,64392,261,443,6027,-4,51*835ef1ce
%RAWIMUSA,2124,293379.238;2124,293379.237755000,00000077,64445,216,451,6111,9,56*a92c7120
%RAWIMUSA,2124,293379.248;2124,293379.247755000,00000077,64513,230,417,6220,10,71*1354c49c
%RAWIMUSA,2124,293379.258;2124,293379.257755000,00000077,64461,238,398,6282,21,63*7cb4e25f
%RAWIMUSA,2124,293379.268;2124,293379.267755000,00000077,64524,212,460,6368,9,70*a6296dbf
%RAWIMUSA,2124,293379.278;2124,293379.277755000,00000077,64416,343,406,6458,-1,59*03cec995
%RAWIMUSA,2124,293379.288;2124,293379.287755000,00000077,64485,272,438,6507,1,53*54a52f38
%RAWIMUSA,2124,293379.298;2124,293379.297755000,00000077,64428,245,327,6624,13,49*91ea3773
%RAWIMUSA,2124,293379.308;2124,293379.307755000,00000077,64424,236,328,6687,9,51*f9c3e89b
%RAWIMUSA,2124,293379.318;2124,293379.317755000,00000077,64554,181,401,6759,3,59*f9b43e4a
%RAWIMUSA,2124,293379.328;2124,293379.327755000,00000077,64505,294,455,6875,0,50*7b710bbb
%RAWIMUSA,2124,293379.338;2124,293379.337755000,00000077,64470,167,473,6945,-4,68*9158501f
%RAWIMUSA,2124,293379.348;2124,293379.347755000,00000077,64492,125,426,7007,9,70*463af3e3
%RAWIMUSA,2124,293379.358;2124,293379.357755000,00000077,64358,291,399,7098,16,69*532e6af5
%RAWIMUSA,2124,293379.368;2124,293379.367755000,00000077,64541,195,401,7166,18,52*b96c0220
%RAWIMUSA,2124,293379.378;2124,293379.377755000,00000077,64451,312,429,7249,6,72*33ec6522
%RAWIMUSA,2124,293379.388;2124,293379.387755000,00000077,64480,278,310,7358,11,63*8bfe032a
%RAWIMUSA,2124,293379.398;2124,293379.397755000,00000077,64352,158,364,7388,4,65*60aceaf2
%RAWIMUSA,2124,293379.408;2124,293379.407755000,00000077,64351,215,384,7471,8,61*21ae7e8a
%RAWIMUSA,2124,293379.418;2124,293379.417755000,00000077,64528,307,405,7571,0,61*2a8e6e93
%RAWIMUSA,2124,293379.428;2124,293379.427755000,00000077,64481,298,377,7643,12,56*432b6440
%RAWIMUSA,2124,293379.438;2124,293379.437755000,00000077,64453,206,376,7729,13,65*6fa70e6d
%RAWIMUSA,2124,293379.448;2124,293379.447755000,00000077,64398,266,362,7837,17,70*2df6af51
%RAWIMUSA,2124,293379.458;2124,293379.457755000,00000077,64426,201,409,7898,-3,72*a946a429
%RAWIMUSA,2124,293379.468;2124,293379.467755000,00000077,64481,221,488,7987,10,75*7f84ba48
%RAWIMUSA,2124,293379.478;2124,293379.477755000,00000077,64354,258,378,8052,6,84*b5fa0a0b
%RAWIMUSA,2124,293379.488;2124,293379.487755000,00000077,64448,204,334,8138,17,73*2bb934c5
%RAWIMUSA,2124,293379.498;2124,293379.497755000,00000077,64456,269,387,8236,9,78*13ed359d
%RAWIMUSA,2124,293379.508;2124,293379.507755000,00000077,64489,222,452,8297,3,76*6a29636f
%RAWIMUSA,2124,293379.518;2124,293379.517755000,00000077,64413,258,404,8393,11,70*e9a1859b
%RAWIMUSA,2124,293379.528;2124,293379.527755000,00000077,64446,64,447,8463,0,63*bb583581
%RAWIMUSA,2124,293379.538;2124,293379.537755000,00000077,64479,272,501,8500,11,64*22ed0131
%RAWIMUSA,2124,293379.548;2124,293379.547755000,00000077,64533,332,462,8626,35,78*a51ab16e
%RAWIMUSA,2124,293379.558;2124,293379.557755000,00000077,64425,193,414,8719,7,74*223f1b80
%RAWIMUSA,2124,293379.568;2124,293379.567755000,00000077,64499,186,442,8772,23,100*afcdebc0
%RAWIMUSA,2124,293379.578;2124,293379.577755000,00000077,64455,187,447,8885,23,57*c7ce6217
%RAWIMUSA,2124,293379.588;2124,293379.587755000,00000077,64486,299,438,8944,11,77*7795fa10
%RAWIMUSA,2124,293379.598;2124,293379.597755000,00000077,64491,197,455,9036,6,86*87b5a05c
%RAWIMUSA,2124,293379.608;2124,293379.607755000,00000077,64464,115,435,9119,7,70*72cd7d2b
%RAWIMUSA,2124,293379.618;2124,293379.617755000,00000077,64542,183,375,9179,11,75*45710757
%RAWIMUSA,2124,293379.628;2124,293379.627755000,00000077,64358,186,435,9263,28,83*c2141744
%RAWIMUSA,2124,293379.638;2124,293379.637755000,00000077,64378,285,458,9388,5,65*21e330af
%RAWIMUSA,2124,293379.648;2124,293379.647755000,00000077,64423,281,366,9409,17,83*ff09ae18
%RAWIMUSA,2124,293379.658;2124,293379.657755000,00000077,64571,224,368,9514,13,72*208daf4e
%RAWIMUSA,2124,293379.668;2124,293379.667755000,00000077,64460,209,368,9623,0,73*dd92f2cb
%RAWIMUSA,2124,293379.678;2124,293379.677755000,00000077,64442,249,450,9660,13,101*d936e25a
%RAWIMUSA,2124,293379.688;2124,293379.687755000,00000077,64449,174,424,9777,5,94*7b15c9c6
%RAWIMUSA,2124,293379.698;2124,293379.697755000,00000077,64436,191,326,9849,24,94*9602e5fb
%RAWIMUSA,2124,293379.708;2124,293379.707755000,00000077,64474,239,341,9895,16,89*10c68673
%RAWIMUSA,2124,293379.718;2124,293379.717755000,00000077,64476,242,440,10002,20,95*7699b2a6
%RAWIMUSA,2124,293379.728;2124,293379.727755000,00000077,64460,175,375,10084,11,79*ae7d2a73
%RAWIMUSA,2124,293379.738;2124,293379.737755000,00000077,64483,204,373,10132,9,78*40ae1f30
%RAWIMUSA,2124,293379.748;2124,293379.747755000,00000077,64557,249,490,10227,5,84*61eac7e4
%RAWIMUSA,2124,293379.758;2124,293379.757755000,00000077,64432,274,541,10289,3,87*79c51962
%RAWIMUSA,2124,293379.768;2124,293379.767755000,00000077,64470,207,540,10423,19,91*89bd22b2
%RAWIMUSA,2124,293379.778;2124,293379.777755000,00000077,64396,201,399,10513,5,91*97b78ca4
%RAWIMUSA,2124,293379.788;2124,293379.787755000,00000077,64389,199,395,10550,19,73*1b7da694
%RAWIMUSA,2124,293379.798;2124,293379.797755000,00000077,64395,275,399,10648,7,83*0075c2e2
%RAWIMUSA,2124,293379.808;2124,293379.807755000,00000077,64471,253,444,10725,9,76*7c7b1e87
%RAWIMUSA,2124,293379.818;2124,293379.817755000,00000077,64463,138,421,10789,5,88*14fa98b7
%RAWIMUSA,2124,293379.828;2124,293379.827755000,00000077,64356,115,405,10881,2,90*c78d226c
%RAWIMUSA,2124,293379.838;2124,293379.837755000,00000077,64433,146,453,10945,6,62*cd06ce4d
%RAWIMUSA,2124,293379.848;2124,293379.847755000,00000077,64411,311,417,11045,1,110*9998a067
%RAWIMUSA,2124,293379.858;2124,293379.857755000,00000077,64410,265,307,11159,7,95*4b0242fc
%RAWIMUSA,2124,293379.868;2124,293379.867755000,00000077,64468,246,362,11225,27,106*c2019f65
%RAWIMUSA,2124,293379.878;2124,293379.877755000,00000077,64450,271,399,11285,30,111*dfb963c1
%RAWIMUSA,2124,293379.888;2124,293379.887755000,00000077,64370,220,430,11379,15,71*5c340916
%RAWIMUSA,2124,293379.898;2124,293379.897755000,00000077,64436,345,374,11450,29,89*f683b040
%RAWIMUSA,2124,293379.908;2124,293379.907755000,00000077,64339,305,455,11533,15,104*409dcb1e
%RAWIMUSA,2124,293379.918;2124,293379.917755000,00000077,64377,129,397,11604,19,82*d19e5a4e
%RAWIMUSA,2124,293379.928;2124,293379.927755000,00000077,64400,186,382,11691,7,107*8463e3fc
%RAWIMUSA,2124,293379.938;2124,293379.937755000,00000077,64407,226,399,11810,8,117*2ed5e65e
%RAWIMUSA,2124,293379.948;2124,293379.947755000,00000077,64430,228,479,11850,13,87*e0771654
%RAWIMUSA,2124,293379.958;2124,293379.957755000,00000077,64444,138,490,11897,0,114*42252fed
%RAWIMUSA,2124,293379.968;2124,293379.967755000,00000077,64440,304,369,12007,3,111*1b7cb0e1
%RAWIMUSA,2124,293379.978;2124,293379.977755000,00000077,64394,204,468,12098,22,100*38ed46fe
%RAWIMUSA,2124,293379.988;2124,293379.987755000,00000077,64384,279,431,12194,18,104*5196dd0a
%RAWIMUSA,2124,293379.998;2124,293379.997755000,00000077,64445,109,439,12279,-1,103*1ee64220
%RAWIMUSA,2124,293380.008;2124,293380.007755000,00000077,64424,268,442,12294,-1,101*53e14fd7
%RAWIMUSA,2124,293380.018;2124,293380.017755000,00000077,64500,115,419,12406,-1,110*640f904e
%RAWIMUSA,2124,293380.028;2124,293380.027755000,00000077,64414,189,431,12513,1,107*34001c08
%RAWIMUSA,2124,293380.038;2124,293380.037755000,00000077,64601,180,466,12565,14,117*f654bc8f
%RAWIMUSA,2124,293380.048;2124,293380.047755000,00000077,64477,113,442,12650,16,113*864ed800
%RAWIMUSA,2124,293380.058;2124,293380.057755000,00000077,64431,124,511,12743,26,102*29501815
%RAWIMUSA,2124,293380.068;2124,293380.067755000,00000077,64412,185,397,12817,14,122*00eaabfe
%RAWIMUSA,2124,293380.078;2124,293380.077755000,00000077,64446,175,388,12896,14,98*8c1a1d7f
%RAWIMUSA,2124,293380.088;2124,293380.087755000,00000077,64374,173,484,12979,3,104*34dff2eb
%RAWIMUSA,2124,293380.098;2124,293380.097755000,00000077,64500,252,417,13042,26,114*346ca9e5
%RAWIMUSA,2124,293380.108;2124,293380.107755000,00000077,64405,274,442,13154,18,105*0efb9780
%RAWIMUSA,2124,293380.118;2124,293380.117755000,00000077,64445,130,406,13222,21,106*6b516380
%RAWIMUSA,2124,293380.128;2124,293380.127755000,00000077,64406,267,441,13331,5,111*f51f3f7a
%RAWIMUSA,2124,293380.138;2124,293380.137755000,00000077,64563,255,435,13420,9,122*5d47ff69
%RAWIMUSA,2124,293380.148;2124,293380.147755000,00000077,64441,243,364,13451,28,110*c9e38efa
%RAWIMUSA,2124,293380.158;2124,293380.157755000,00000077,64286,225,405,13584,-2,104*dd9e136f
%RAWIMUSA,2124,293380.168;2124,293380.167755000,00000077,64483,320,448,13641,15,111*8aeab95d
%RAWIMUSA,2124,293380.178;2124,293380.177755000,00000077,64507,251,418,13701,10,114*4e04431b
%RAWIMUSA,2124,293380.188;2124,293380.187755000,00000077,64403,225,338,13795,12,113*ee4c7adb
%RAWIMUSA,2124,293380.198;2124,293380.197755000,00000077,64475,207,369,13895,16,118*464e1852
%RAWIMUSA,2124,293380.208;2124,293380.207755000,00000077,64434,193,473,13940,1,111*78611348
%RAWIMUSA,2124,293380.218;2124,293380.217755000,00000077,64391,179,367,14038,8,124*f6037602
%RAWIMUSA,2124,293380.228;2124,293380.227755000,00000077,64419,118,437,14096,8,124*396ca5e0
%RAWIMUSA,2124,293380.238;2124,293380.237755000,00000077,64479,139,407,14179,0,117*ed3cb651
%RAWIMUSA,2124,293380.248;2124,293380.247755000,00000077,64420,144,399,14283,9,92*d8f52ca6
%RAWIMUSA,2124,293380.258;2124,293380.257755000,00000077,64466,193,543,14323,9,124*6ed44a94
%RAWIMUSA,2124,293380.268;2124,293380.267755000,00000077,64388,318,463,14409,11,111*87ab27a0
%RAWIMUSA,2124,293380.278;2124,293380.277755000,00000077,64453,269,433,14512,3,112*ee1f91df
%RAWIMUSA,2124,293380.288;2124,293380.287755000,00000077,64492,186,354,14587,26,118*77510b58
%RAWIMUSA,2124,293380.298;2124,293380.297755000,00000077,64448,181,445,14704,31,124*c949f740
%RAWIMUSA,2124,293380.308;2124,293380.307755000,00000077,64454,199,423,14767,15,128*b58151ff
%RAWIMUSA,2124,293380.318;2124,293380.317755000,00000077,64461,195,388,14828,23,119*8118121d
%RAWIMUSA,2124,293380.328;2124,293380.327755000,00000077,64477,209,427,14950,23,140*6f7bb614
%RAWIMUSA,2124,293380.338;2124,293380.337755000,00000077,64405,273,443,15011,24,130*e538abb5
%RAWIMUSA,2124,293380.348;2124,293380.347755000,00000077,64452,272,457,15062,1,123*08072534
%RAWIMUSA,2124,293380.358;2124,293380.357755000,00000077,64409,169,325,15203,11,129*1d477a0c
%RAWIMUSA,2124,293380.368;2124,293380.367755000,00000077,64471,182,358,15240,14,126*e6adc763
%RAWIMUSA,2124,293380.378;2124,293380.377755000,00000077,64376,275,371,15328,1,123*d35860ef
%RAWIMUSA,2124,293380.388;2124,293380.387755000,00000077,64415,218,324,15419,25,115*91d8c833
%RAWIMUSA,2124,293380.398;2124,293380.397755000,00000077,64518,219,412,15466,4,128*79a942a8
%RAWIMUSA,2124,293380.408;2124,293380.407755000,00000077,64383,282,465,15549,14,137*b124c033
%RAWIMUSA,2124,293380.418;2124,293380.417755000,00000077,64453,168,397,15643,16,123*845e29ad
%RAWIMUSA,2124,293380.428;2124,293380.427755000,00000077,64398,148,476,15697,10,130*4c83d128
%RAWIMUSA,2124,293380.438;2124,293380.437755000,00000077,64493,244,394,15814,12,137*90d59814
%RAWIMUSA,2124,293380.448;2124,293380.447755000,00000077,64494,120,492,15855,11,149*78841e8a
%RAWIMUSA,2124,293380.458;2124,293380.457755000,00000077,64496,231,397,15956,3,120*c25ee801
%RAWIMUSA,2124,293380.468;2124,293380.467755000,00000077,64426,199,481,16081,13,132*f003680f
%RAWIMUSA,2124,293380.478;2124,293380.477755000,00000077,64452,116,451,16118,7,117*3aa86339
%RAWIMUSA,2124,293380.488;2124,293380.487755000,00000077,64470,266,436,16200,10,148*668d6fe9
%RAWIMUSA,2124,293380.498;2124,293380.497755000,00000077,64552,312,415,16270,10,136*f81b8302
%RAWIMUSA,2124,293380.508;2124,293380.507755000,00000077,64464,243,428,16263,15,145*bcf7b9f8
%RAWIMUSA,2124,293380.518;2124,293380.517755000,00000077,64401,202,364,16191,8,133*3b316bb2
%RAWIMUSA,2124,293380.528;2124,293380.527755000,00000077,64391,280,434,16146,23,124*9609c363
%RAWIMUSA,2124,293380.538;2124,293380.537755000,00000077,64442,101,500,16106,20,132*e0d3ca2d
%RAWIMUSA,2124,293380.548;2124,293380.547755000,00000077,64387,152,370,16115,1,114*092429a0
%RAWIMUSA,2124,293380.558;2124,293380.557755000,00000077,64430,188,394,16096,21,133*535b1715
%RAWIMUSA,2124,293380.568;2124,293380.567755000,00000077,64494,247,427,16115,15,122*39465045
%RAWIMUSA,2124,293380.578;2124,293380.577755000,00000077,64405,130,421,16118,10,133*94dd37bf
%RAWIMUSA,2124,293380.588;2124,293380.587755000,00000077,64383,232,386,16118,21,143*d3167971
%RAWIMUSA,2124,293380.598;2124,293380.597755000,00000077,64417,138,439,16118,21,129*bba4eeb9
%RAWIMUSA,2124,293380.608;2124,293380.607755000,00000077,64437,268,400,16122,-2,135*46844eb5
%RAWIMUSA,2124,293380.618;2124,293380.617755000,00000077,64372,259,397,16131,11,137*3abe2652
%RAWIMUSA,2124,293380.628;2124,293380.627755000,00000077,64426,165,457,16143,5,128*59cac4ea
%RAWIMUSA,2124,293380.638;2124,293380.637755000,00000077,64363,201,500,16123,16,138*b257e69f
%RAWIMUSA,2124,293380.648;2124,293380.647755000,00000077,64377,185,493,16104,36,137*4a6b2c62
%RAWIMUSA,2124,293380.658;2124,293380.657755000,00000077,64536,128,533,16143,13,135*760f22d6
%RAWIMUSA,2124,293380.668;2124,293380.667755000,00000077,64380,227,505,16118,20,143*f8602793
%RAWIMUSA,2124,293380.678;2124,293380.677755000,00000077,64486,149,512,16143,31,129*fb523465
%RAWIMUSA,2124,293380.688;2124,293380.687755000,00000077,64358,134,411,16129,19,126*5b47b12c
%RAWIMUSA,2124,293380.698;2124,293380.697755000,00000077,64405,224,439,16130,22,150*5f87b721
%RAWIMUSA,2124,293380.708;2124,293380.707755000,00000077,64469,184,440,16115,27,113*b76e9661
%RAWIMUSA,2124,293380.718;2124,293380.717755000,00000077,64510,71,406,16121,22,145*bfa99922
%RAWIMUSA,2124,293380.728;2124,293380.727755000,00000077,64377,185,423,16116,12,123*962eb2ef
%RAWIMUSA,2124,293380.738;2124,293380.737755000,00000077,64445,212,474,16125,23,157*9d2c3f16
%RAWIMUSA,2124,293380.748;2124,293380.747755000,00000077,64367,187,372,16111,25,106*085f1937
%RAWIMUSA,2124,293380.758;2124,293380.757755000,00000077,64426,275,432,16141,2,160*944fe3d3
%RAWIMUSA,2124,293380.768;2124,293380.767755000,00000077,64402,149,440,16124,28,118*06d27e78
%RAWIMUSA,2124,293380.778;2124,293380.777755000,00000077,64452,210,494,16140,18,169*b80605d7
%RAWIMUSA,2124,293380.788;2124,293380.787755000,00000077,64435,173,487,16134,11,111*24b597fe
%RAWIMUSA,2124,293380.798;2124,293380.797755000,00000077,64393,266,456,16147,17,156*089e2c09
%RAWIMUSA,2124,293380.808;2124,293380.807755000,00000077,64426,241,384,16144,15,121*eca59fc5
%RAWIMUSA,2124,293380.818;2124,293380.817755000,00000077,64427,163,453,16154,23,151*f06b4863
%RAWIMUSA,2124,293380.828;2124,293380.827755000,00000077,64442,266,398,16144,7,91*251661ad
%RAWIMUSA,2124,293380.838;2124,293380.837755000,00000077,64451,228,466,16137,31,177*5731ef9f
%RAWIMUSA,2124,293380.848;2124,293380.847755000,00000077,64409,190,391,16136,13,108*40c318f9
%RAWIMUSA,2124,293380.858;2124,293380.857755000,00000077,64428,233,468,16121,23,160*a6301609
%RAWIMUSA,2124,293380.868;2124,293380.867755000,00000077,64416,160,481,16150,28,115*39aa4aeb
%RAWIMUSA,2124,293380.878;2124,293380.877755000,00000077,64551,179,506,16148,29,160*d0e92d9f
%RAWIMUSA,2124,293380.888;2124,293380.887755000,00000077,64414,178,423,16149,27,105*87c4afbd
%RAWIMUSA,2124,293380.898;2124,293380.897755000,00000077,64511,82,417,16145,14,155*46e7908c
%RAWIMUSA,2124,293380.908;2124,293380.907755000,00000077,64390,176,405,16140,19,96*4b8879a6
%RAWIMUSA,2124,293380.918;2124,293380.917755000,00000077,64507,263,459,16148,15,171*442be80f
%RAWIMUSA,2124,293380.928;2124,293380.927755000,00000077,64447,207,369,16135,4,113*9d93aa9a
%RAWIMUSA,2124,293380.938;2124,293380.937755000,00000077,64446,174,440,16134,28,163*fceb5e4a
%RAWIMUSA,2124,293380.948;2124,293380.947755000,00000077,64459,155,443,16117,18,91*9f1cb025
%RAWIMUSA,2124,293380.958;2124,293380.957755000,00000077,64482,227,450,16140,17,137*d38ee3b8
%RAWIMUSA,2124,293380.968;2124,293380.967755000,00000077,64469,165,409,16137,16,107*e296f011
%RAWIMUSA,2124,293380.978;2124,293380.977755000,00000077,64348,188,387,16150,25,142*fb1b37cb
%RAWIMUSA,2124,293380.988;2124,293380.987755000,00000077,64404,119,443,16141,9,112*73107f1e
%RAWIMUSA,2124,293380.998;2124,293380.997755000,00000077,64502,201,365,16127,17,133*615a4e7c
%RAWIMUSA,2124,293381.008;2124,293381.007755000,00000077,64532,169,421,16143,19,128*b30684d7
%RAWIMUSA,2124,293381.018;2124,293381.017755000,00000077,64371,268,331,16131,11,126*2f91b87d
%RAWIMUSA,2124,293381.028;2124,293381.027755000,00000077,64440,185,528,16143,12,153*57b5a456
%RAWIMUSA,2124,293381.038;2124,293381.037755000,00000077,64405,300,408,16148,14,103*72bd73b5
%RAWIMUSA,2124,293381.048;2124,293381.047755000,00000077,64378,264,381,16143,22,160*fc7f4669
%RAWIMUSA,2124,293381.058;2124,293381.057755000,00000077,64452,139,347,16149,17,114*1f3ea59b
%RAWIMUSA,2124,293381.068;2124,293381.067755000,00000077,64347,203,486,16168,23,156*24f2b4db
%RAWIMUSA,2124,293381.078;2124,293381.077755000,00000077,64484,158,401,16132,16,98*1687e7c5
%RAWIMUSA,2124,293381.088;2124,293381.087755000,00000077,64526,145,376,16154,23,177*e1615e2b
%RAWIMUSA,2124,293381.098;2124,293381.097755000,00000077,64432,262,495,16141,19,110*4a3432bc
%RAWIMUSA,2124,293381.108;2124,293381.107755000,00000077,64415,198,447,16151,31,152*95b0506c
%RAWIMUSA,2124,293381.118;2124,293381.117755000,00000077,64442,144,345,16136,14,109*aaaa354e
%RAWIMUSA,2124,293381.128;2124,293381.127755000,00000077,64415,201,451,16152,11,151*1da89401
%RAWIMUSA,2124,293381.138;2124,293381.137755000,00000077,64375,76,369,16147,32,111*7bdc1646
%RAWIMUSA,2124,293381.148;2124,293381.147755000,00000077,64441,239,460,16132,25,148*ad107740
%RAWIMUSA,2124,293381.158;2124,293381.157755000,00000077,64438,115,411,16133,22,105*3084a2a9
%RAWIMUSA,2124,293381.168;2124,293381.167755000,00000077,64545,189,425,16152,13,172*d0a5734d
%RAWIMUSA,2124,293381.178;2124,293381.177755000,00000077,64491,176,422,16138,17,135*4b3330a5
%RAWIMUSA,2124,293381.188;2124,293381.187755000,00000077,64435,120,449,16135,16,139*ad32392c
%RAWIMUSA,2124,293381.198;2124,293381.197755000,00000077,64400,111,444,16144,25,142*3a372b49
%RAWIMUSA,2124,293381.208;2124,293381.207755000,00000077,64402,156,420,16151,5,117*8407368b
%RAWIMUSA,2124,293381.218;2124,293381.217755000,00000077,64360,117,465,16147,30,147*f3cc2a27
%RAWIMUSA,2124,293381.228;2124,293381.227755000,00000077,64404,171,432,16152,24,115*be1678aa
%RAWIMUSA,2124,293381.238;2124,293381.237755000,00000077,64354,140,513,16139,16,159*9cc18e74
%RAWIMUSA,2124,293381.248;2124,293381.247755000,00000077,64466,198,554,16147,1,99*7711a5a2
%RAWIMUSA,2124,293381.258;2124,293381.257755000,00000077,64470,273,485,16132,35,157*457f7484
%RAWIMUSA,2124,293381.268;2124,293381.267755000,00000077,64446,162,400,16128,16,98*4e9e4f47
%RAWIMUSA,2124,293381.278;2124,293381.277755000,00000077,64359,191,435,16119,32,169*c0c1b964
%RAWIMUSA,2124,293381.288;2124,293381.287755000,00000077,64378,170,359,16130,19,91*e37d6986
%RAWIMUSA,2124,293381.298;2124,293381.297755000,00000077,64495,310,444,16127,25,164*50b4a51c
%RAWIMUSA,2124,293381.308;2124,293381.307755000,00000077,64390,244,327,16142,18,112*6e6782fc
%RAWIMUSA,2124,293381.318;2124,293381.317755000,00000077,64365,311,508,16160,33,161*2102db5d
%RAWIMUSA,2124,293381.328;2124,293381.327755000,00000077,64419,124,501,16133,27,104*86fc16b0
%RAWIMUSA,2124,293381.338;2124,293381.337755000,00000077,64458,161,441,16150,19,175*a482e90e
%RAWIMUSA,2124,293381.348;2124,293381.347755000,00000077,64415,221,452,16152,24,105*695e0aa3
%RAWIMUSA,2124,293381.358;2124,293381.357755000,00000077,64487,267,402,16143,38,139*1f4ae641
%RAWIMUSA,2124,293381.368;2124,293381.367755000,00000077,64450,83,425,16147,30,153*290798ae
%RAWIMUSA,2124,293381.378;2124,293381.377755000,00000077,64469,318,497,16147,26,122*76152696
%RAWIMUSA,2124,293381.388;2124,293381.387755000,00000077,64458,148,424,16151,18,159*d4423910
%RAWIMUSA,2124,293381.398;2124,293381.397755000,00000077,64394,128,407,16156,29,112*eb123eed
%RAWIMUSA,2124,293381.408;2124,293381.407755000,00000077,64434,228,394,16129,22,157*4d0049ba
%RAWIMUSA,2124,293381.418;2124,293381.417755000,00000077,64426,146,412,16105,22,107*fd1c3e9b
%RAWIMUSA,2124,293381.428;2124,293381.427755000,00000077,64434,180,389,16111,10,138*4cb3cd89
%RAWIMUSA,2124,293381.438;2124,293381.437755000,00000077,64331,255,378,16118,32,153*8ae9b264
%RAWIMUSA,2124,293381.448;2124,293381.447755000,00000077,64452,109,419,16113,31,120*a3668519
%RAWIMUSA,2124,293381.458;2124,293381.457755000,00000077,64490,250,441,16140,22,128*42e9030a
%RAWIMUSA,2124,293381.468;2124,293381.467755000,00000077,64466,237,467,16161,16,132*f855800d
%RAWIMUSA,2124,293381.478;2124,293381.477755000,00000077,64451,193,532,16144,24,129*df411eb7
%RAWIMUSA,2124,293381.488;2124,293381.487755000,00000077,64532,184,413,16151,27,136*130c07eb
%RAWIMUSA,2124,293381.498;2124,293381.497755000,00000077,64461,229,396,16163,20,124*79dc4629
%RAWIMUSA,2124,293381.508;2124,293381.507755000,00000077,64459,179,448,16153,19,145*2ad88065
%RAWIMUSA,2124,293381.518;2124,293381.517755000,00000077,64509,143,471,16142,6,130*f4cfd4f7
%RAWIMUSA,2124,293381.528;2124,293381.527755000,00000077,64510,225,432,16132,18,118*5ab6d92d
%RAWIMUSA,2124,293381.538;2124,293381.537755000,00000077,64467,196,415,16140,21,145*a49d4e4f
%RAWIMUSA,2124,293381.548;2124,293381.547755000,00000077,64363,204,471,16139,20,129*509fb4fa
%RAWIMUSA,2124,293381.558;2124,293381.557755000,00000077,64330,124,361,16135,31,131*3b7fda9f
%RAWIMUSA,2124,293381.568;2124,293381.567755000,00000077,64376,256,372,16138,23,126*3b909e3d
%RAWIMUSA,2124,293381.578;2124,293381.577755000,00000077,64370,229,395,16135,15,149*c951c70e
%RAWIMUSA,2124,293381.588;2124,293381.587755000,00000077,64429,152,423,16144,13,137*2498de37
%RAWIMUSA,2124,293381.598;2124,293381.597755000,00000077,64395,172,361,16126,24,125*76044fd8
%RAWIMUSA,2124,293381.608;2124,293381.607755000,00000077,64457,176,333,16145,18,128*43d6d294
%RAWIMUSA,2124,293381.618;2124,293381.617755000,00000077,64351,254,288,16170,23,125*ff312817
%RAWIMUSA,2124,293381.628;2124,293381.627755000,00000077,64431,247,393,16156,21,130*47792b6d
%RAWIMUSA,2124,293381.638;2124,293381.637755000,00000077,64390,142,508,16152,12,136*e1089402
%RAWIMUSA,2124,293381.648;2124,293381.647755000,00000077,64448,155,358,16152,25,124*a8cf24d4
%RAWIMUSA,2124,293381.658;2124,293381.657755000,00000077,64410,271,364,16138,14,134*c150970a
%RAWIMUSA,2124,293381.668;2124,293381.667755000,00000077,64441,140,463,16139,22,124*10d6fc1d
%RAWIMUSA,2124,293381.678;2124,293381.677755000,00000077,64530,262,426,16152,11,141*09fbc6a4
%RAWIMUSA,2124,293381.688;2124,293381.687755000,00000077,64494,236,441,16139,18,144*bd27d3cc
%RAWIMUSA,2124,293381.698;2124,293381.697755000,00000077,64356,222,431,16136,27,118*ac1f6e9a
%RAWIMUSA,2124,293381.708;2124,293381.707755000,00000077,64477,275,437,16143,17,139*fb421c49
%RAWIMUSA,2124,293381.718;2124,293381.717755000,00000077,64422,216,387,16137,13,133*6a36b234
%RAWIMUSA,2124,293381.728;2124,293381.727755000,00000077,64452,137,442,16148,12,124*e94cc7fd
%RAWIMUSA,2124,293381.738;2124,293381.737755000,00000077,64478,147,391,16146,30,150*2e34db17
%RAWIMUSA,2124,293381.748;2124,293381.747755000,00000077,64540,280,554,16151,25,147*0a32b784
%RAWIMUSA,2124,293381.758;2124,293381.757755000,00000077,64444,111,460,16154,14,135*5d1747da
%RAWIMUSA,2124,293381.768;2124,293381.767755000,00000077,64405,242,417,16156,22,134*098157d2
%RAWIMUSA,2124,293381.778;2124,293381.777755000,00000077,64471,226,317,16162,26,136*0ea63b22
%RAWIMUSA,2124,293381.788;2124,293381.787755000,00000077,64419,178,439,16155,18,144*420e0b11
%RAWIMUSA,2124,293381.798;2124,293381.797755000,00000077,64376,167,384,16153,15,143*b74cb2c4
%RAWIMUSA,2124,293381.808;2124,293381.807755000,00000077,64374,205,510,16147,21,136*f56317d7
%RAWIMUSA,2124,293381.818;2124,293381.817755000,00000077,64405,205,366,16146,26,114*d7f1984b
%RAWIMUSA,2124,293381.828;2124,293381.827755000,00000077,64441,252,371,16153,27,128*3283ad27
%RAWIMUSA,2124,293381.838;2124,293381.837755000,00000077,64444,164,326,16146,19,131*cbc0d0aa
%RAWIMUSA,2124,293381.848;2124,293381.847755000,00000077,64519,130,397,16135,21,130*b1a55bad
%RAWIMUSA,2124,293381.858;2124,293381.857755000,00000077,64410,204,442,16142,19,108*01a5b498
%RAWIMUSA,2124,293381.868;2124,293381.867755000,00000077,64484,208,395,16159,21,128*8ab35957
%RAWIMUSA,2124,293381.878;2124,293381.877755000,00000077,64366,279,497,16152,38,147*7c4b36f6
%RAWIMUSA,2124,293381.888;2124,293381.887755000,00000077,64572,138,454,16151,28,142*0b72e361
%RAWIMUSA,2124,293381.898;2124,293381.897755000,00000077,64483,191,407,16145,21,122*090fc864
%RAWIMUSA,2124,293381.908;2124,293381.907755000,00000077,64440,117,496,16157,11,144*e478ce59
%RAWIMUSA,2124,293381.918;2124,293381.917755000,00000077,64408,202,360,16134,22,138*0ac88ff7
%RAWIMUSA,2124,293381.928;2124,293381.927755000,00000077,64503,230,397,16124,14,138*78c3abdc
%RAWIMUSA,2124,293381.938;2124,293381.937755000,00000077,64442,108,407,16136,12,136*a3eafca9
%RAWIMUSA,2124,293381.948;2124,293381.947755000,00000077,64446,212,497,16130,8,117*92719355
%RAWIMUSA,2124,293381.958;2124,293381.957755000,00000077,64507,204,475,16130,6,132*faeb535b
%RAWIMUSA,2124,293381.968;2124,293381.967755000,00000077,64451,233,429,16158,25,144*b548b417
%RAWIMUSA,2124,293381.978;2124,293381.977755000,00000077,64463,263,422,16153,40,112*ab73655b
%RAWIMUSA,2124,293381.988;2124,293381.987755000,00000077,64496,252,443,16163,17,138*c9e01209
%RAWIMUSA,2124,293381.998;2124,293381.997755000,00000077,64344,188,429,16145,22,135*0f53e403
%RAWIMUSA,2124,293382.008;2124,293382.007755000,00000077,64414,192,409,16152,24,127*f7e73f06
%RAWIMUSA,2124,293382.018;2124,293382.017755000,00000077,64522,260,464,16155,8,130*138619e7
%RAWIMUSA,2124,293382.028;2124,293382.027755000,00000077,64421,157,380,16157,15,136*d51074ff
%RAWIMUSA,2124,293382.038;2124,293382.037755000,00000077,64466,265,448,16171,18,146*8d58c1f1
%RAWIMUSA,2124,293382.048;2124,293382.047755000,00000077,64487,198,388,16168,26,133*11587abc
%RAWIMUSA,2124,293382.058;2124,293382.057755000,00000077,64446,255,428,16192,40,115*0c665f12
%RAWIMUSA,2124,293382.068;2124,293382.067755000,00000077,64447,181,488,16163,9,114*3520f94a
%RAWIMUSA,2124,293382.078;2124,293382.077755000,00000077,64545,268,434,16158,17,136*53686e2e
%RAWIMUSA,2124,293382.088;2124,293382.087755000,00000077,64411,83,369,16140,9,141*a63c31d1
%RAWIMUSA,2124,293382.098;2124,293382.097755000,00000077,64316,165,454,16139,22,123*e2dcdf6f
%RAWIMUSA,2124,293382.108;2124,293382.107755000,00000077,64382,213,409,16145,23,131*e7232de0
%RAWIMUSA,2124,293382.118;2124,293382.117755000,00000077,64408,303,458,16127,19,134*30160448
%RAWIMUSA,2124,293382.128;2124,293382.127755000,00000077,64529,101,490,16128,18,130*eb6b5ee8
%RAWIMUSA,2124,293382.138;2124,293382.137755000,00000077,64454,207,397,16135,14,146*d88bb8d7
%RAWIMUSA,2124,293382.148;2124,293382.147755000,00000077,64402,203,492,16129,20,143*cf7cc3a3
%RAWIMUSA,2124,293382.158;2124,293382.157755000,00000077,64498,215,535,16130,29,146*2324d030
%RAWIMUSA,2124,293382.168;2124,293382.167755000,00000077,64488,157,448,16151,25,138*51150d3c
%RAWIMUSA,2124,293382.178;2124,293382.177755000,00000077,64438,260,348,16159,27,141*48229e0e
%RAWIMUSA,2124,293382.188;2124,293382.187755000,00000077,64441,308,396,16154,10,128*6dd0fdd4
%RAWIMUSA,2124,293382.198;2124,293382.197755000,00000077,64475,246,457,16148,21,138*f5751e9d
%RAWIMUSA,2124,293382.208;2124,293382.207755000,00000077,64536,254,308,16143,11,135*9199cdaa
%RAWIMUSA,2124,293382.218;2124,293382.217755000,00000077,64252,174,358,16149,3,135*5406ff5b
%RAWIMUSA,2124,293382.228;2124,293382.227755000,00000077,64438,264,468,16143,21,130*4b239399
%RAWIMUSA,2124,293382.238;2124,293382.237755000,00000077,64405,187,459,16149,17,141*d285fd2f
%RAWIMUSA,2124,293382.248;2124,293382.247755000,00000077,64480,197,461,16141,26,136*1a36f451
%RAWIMUSA,2124,293382.258;2124,293382.257755000,00000077,64393,206,359,16148,4,122*d4c859f0
%RAWIMUSA,2124,293382.268;2124,293382.267755000,00000077,64343,229,380,16140,32,132*6cd893b3
%RAWIMUSA,2124,293382.278;2124,293382.277755000,00000077,64453,143,437,16151,22,125*d78aec7a
%RAWIMUSA,2124,293382.288;2124,293382.287755000,00000077,64495,166,496,16143,19,136*4eb03b6f
%RAWIMUSA,2124,293382.298;2124,293382.297755000,00000077,64478,217,447,16171,13,125*6b3ccde6
%RAWIMUSA,2124,293382.308;2124,293382.307755000,00000077,64534,200,475,16146,15,131*3fbfd06c
%RAWIMUSA,2124,293382.318;2124,293382.317755000,00000077,64427,247,403,16148,7,132*9e7f64e5
%RAWIMUSA,2124,293382.328;2124,293382.327755000,00000077,64542,232,412,16151,18,146*f4cf304e
%RAWIMUSA,2124,293382.338;2124,293382.337755000,00000077,64374,166,452,16154,17,135*ac129b93
%RAWIMUSA,2124,293382.348;2124,293382.347755000,00000077,64337,191,457,16155,22,137*1085f3ab
%RAWIMUSA,2124,293382.358;2124,293382.357755000,00000077,64340,355,406,16156,22,137*e2b60a5b
%RAWIMUSA,2124,293382.368;2124,293382.367755000,00000077,64377,221,492,16146,14,138*cec8a1f3
%RAWIMUSA,2124,293382.378;2124,293382.377755000,00000077,64494,251,509,16127,12,134*2f7a4ab2
%RAWIMUSA,2124,293382.388;2124,293382.387755000,00000077,64419,173,428,16139,24,117*9d532ff1
%RAWIMUSA,2124,293382.398;2124,293382.397755000,00000077,64443,276,478,16129,19,116*17383db7
%RAWIMUSA,2124,293382.408;2124,293382.407755000,00000077,64425,209,481,16119,23,131*6b968f43
%RAWIMUSA,2124,293382.418;2124,293382.417755000,00000077,64424,204,463,16149,17,122*da62bf87
%RAWIMUSA,2124,293382.428;2124,293382.427755000,00000077,64474,155,357,16158,25,129*803eaeab
%RAWIMUSA,2124,293382.438;2124,293382.437755000,00000077,64434,291,305,16151,30,139*f3503fe7
%RAWIMUSA,2124,293382.448;2124,293382.447755000,00000077,64371,172,383,16142,26,156*bbf8da3e
%RAWIMUSA,2124,293382.458;2124,293382.457755000,00000077,64466,129,397,16143,14,123*f86e660f
%RAWIMUSA,2124,293382.468;2124,293382.467755000,00000077,64462,235,485,16176,24,124*f6f1ae7d
%RAWIMUSA,2124,293382.478;2124,293382.477755000,00000077,64488,283,462,16142,20,123*967c520c
%RAWIMUSA,2124,293382.488;2124,293382.487755000,00000077,64419,254,497,16147,20,134*7647a63f
%RAWIMUSA,2124,293382.498;2124,293382.497755000,00000077,64477,180,423,16151,11,132*6735ded1
%RAWIMUSA,2124,293382.508;2124,293382.507755000,00000077,64641,295,362,16168,27,115*1bdc8b45
%RAWIMUSA,2124,293382.518;2124,293382.517755000,00000077,64524,308,374,16135,29,133*b93bc15c
%RAWIMUSA,2124,293382.528;2124,293382.527755000,00000077,64445,235,424,16141,19,137*a2b78ec9
%RAWIMUSA,2124,293382.538;2124,293382.537755000,00000077,64343,218,400,16128,16,137*d9955733
%RAWIMUSA,2124,293382.548;2124,293382.547755000,00000077,64456,318,445,16135,24,133*ebf9a31d
%RAWIMUSA,2124,293382.558;2124,293382.557755000,00000077,64413,300,425,16148,28,137*9f67e805
%RAWIMUSA,2124,293382.568;2124,293382.567755000,00000077,64424,315,322,16144,17,123*9017846c
%RAWIMUSA,2124,293382.578;2124,293382.577755000,00000077,64447,305,434,16148,13,134*ea2c12a5
%RAWIMUSA,2124,293382.588;2124,293382.587755000,00000077,64340,283,440,16115,20,139*958581a4
%RAWIMUSA,2124,293382.598;2124,293382.597755000,00000077,64352,280,494,16135,24,134*6abec693
%RAWIMUSA,2124,293382.608;2124,293382.607755000,00000077,64432,259,491,16135,15,122*85151b1e
%RAWIMUSA,2124,293382.618;2124,293382.617755000,00000077,64414,122,398,16147,13,131*987069af
%RAWIMUSA,2124,293382.628;2124,293382.627755000,00000077,64389,168,357,16162,17,104*1a48098d
%RAWIMUSA,2124,293382.638;2124,293382.637755000,00000077,64440,225,480,16154,25,127*1cfca0ac
%RAWIMUSA,2124,293382.648;2124,293382.647755000,00000077,64405,94,325,16151,26,140*39cdcc93
%RAWIMUSA,2124,293382.658;2124,293382.657755000,00000077,64442,161,499,16154,7,132*9390bd1d
%RAWIMUSA,2124,293382.668;2124,293382.667755000,00000077,64374,335,376,16139,25,132*b00f3ee8
%RAWIMUSA,2124,293382.678;2124,293382.677755000,00000077,64451,208,468,16133,13,132*e5e40484
%RAWIMUSA,2124,293382.688;2124,293382.687755000,00000077,64298,241,394,16144,13,131*3b7dd82d
%RAWIMUSA,2124,293382.698;2124,293382.697755000,00000077,64443,201,423,16157,41,148*5adab908
%RAWIMUSA,2124,293382.708;2124,293382.707755000,00000077,64517,222,480,16157,10,133*78aa0d88
%RAWIMUSA,2124,293382.718;2124,293382.717755000,00000077,64394,267,356,16171,24,132*09806f60
%RAWIMUSA,2124,293382.728;2124,293382.727755000,00000077,64429,228,481,16161,26,123*3ef9e17d
%RAWIMUSA,2124,293382.738;2124,293382.737755000,00000077,64353,212,474,16154,26,129*fef022a0
%RAWIMUSA,2124,293382.748;2124,293382.747755000,00000077,64425,235,457,16171,21,136*183e9344
%RAWIMUSA,2124,293382.758;2124,293382.757755000,00000077,64418,217,402,16160,19,136*d79b5d72
%RAWIMUSA,2124,293382.768;2124,293382.767755000,00000077,64434,219,394,16145,29,118*7afa4b01
%RAWIMUSA,2124,293382.778;2124,293382.777755000,00000077,64411,99,447,16141,24,129*21fc70db
%RAWIMUSA,2124,293382.788;2124,293382.787755000,00000077,64470,288,427,16155,24,145*e1c46335
%RAWIMUSA,2124,293382.798;2124,293382.797755000,00000077,64457,193,381,16154,26,132*099718c2
%RAWIMUSA,2124,293382.808;2124,293382.807755000,00000077,64428,235,424,16139,32,149*d7eed3ae
%RAWIMUSA,2124,293382.818;2124,293382.817755000,00000077,64404,186,488,16147,27,131*ae8ed9ce
%RAWIMUSA,2124,293382.828;2124,293382.827755000,00000077,64430,258,435,16139,20,135*52b0d0ae
%RAWIMUSA,2124,293382.838;2124,293382.837755000,00000077,64509,334,467,16139,18,142*ba8a71eb
%RAWIMUSA,2124,293382.848;2124,293382.847755000,00000077,64439,244,377,16161,25,119*e4b37109
%RAWIMUSA,2124,293382.858;2124,293382.857755000,00000077,64461,242,566,16156,26,126*90474402
%RAWIMUSA,2124,293382.868;2124,293382.867755000,00000077,64485,250,495,16145,7,136*119a6fda
%RAWIMUSA,2124,293382.878;2124,293382.877755000,00000077,64376,323,435,16150,27,141*8025521d
%RAWIMUSA,2124,293382.888;2124,293382.887755000,00000077,64468,252,444,16158,21,129*86b57e33
%RAWIMUSA,2124,293382.898;2124,293382.897755000,00000077,64527,184,381,16157,21,134*2f7615f6
%RAWIMUSA,2124,293382.908;2124,293382.907755000,00000077,64516,186,417,16175,9,136*cfd43549
%RAWIMUSA,2124,293382.918;2124,293382.917755000,00000077,64462,173,414,16134,18,133*14280b55
%RAWIMUSA,2124,293382.928;2124,293382.927755000,00000077,64451,218,485,16153,10,133*ccb8baa2
%RAWIMUSA,2124,293382.938;2124,293382.937755000,00000077,64436,160,388,16152,31,119*7274a36f
%RAWIMUSA,2124,293382.948;2124,293382.947755000,00000077,64402,231,429,16144,32,140*7cd63a63
%RAWIMUSA,2124,293382.958;2124,293382.957755000,00000077,64501,154,348,16137,29,112*75e8b3d1
%RAWIMUSA,2124,293382.968;2124,293382.967755000,00000077,64469,160,393,16147,22,144*c6544a1c
%RAWIMUSA,2124,293382.978;2124,293382.977755000,00000077,64428,190,466,16122,19,118*e1e976d6
%RAWIMUSA,2124,293382.988;2124,293382.987755000,00000077,64445,330,495,16128,31,142*b56911a7
%RAWIMUSA,2124,293382.998;2124,293382.997755000,00000077,64504,272,416,16137,19,130*eb5ca88b
%RAWIMUSA,2124,293383.008;2124,293383.007755000,00000077,64500,212,441,16150,12,138*55a2c5f5
%RAWIMUSA,2124,293383.018;2124,293383.017755000,00000077,64366,221,419,16143,26,128*20aa044b
%RAWIMUSA,2124,293383.028;2124,293383.027755000,00000077,64360,235,403,16160,30,135*9c6f910c
%RAWIMUSA,2124,293383.038;2124,293383.037755000,00000077,64547,240,481,16163,38,121*644cc3e4
%RAWIMUSA,2124,293383.048;2124,293383.047755000,00000077,64494,305,416,16152,31,121*0b8bbd64
%RAWIMUSA,2124,293383.058;2124,293383.057755000,00000077,64335,198,411,16142,27,136*769cd02f
%RAWIMUSA,2124,293383.068;2124,293383.067755000,00000077,64386,226,442,16146,8,139*1062fbaa
%RAWIMUSA,2124,293383.078;2124,293383.077755000,00000077,64397,238,322,16156,31,140*9c330cdc
%RAWIMUSA,2124,293383.088;2124,293383.087755000,00000077,64408,241,444,16166,24,130*af9f2c75
%RAWIMUSA,2124,293383.098;2124,293383.097755000,00000077,64380,189,418,16149,7,129*20e0178a
%RAWIMUSA,2124,293383.108;2124,293383.107755000,00000077,64413,274,370,16155,1,143*a8945331
%RAWIMUSA,2124,293383.118;2124,293383.117755000,00000077,64472,193,463,16154,33,144*0069ed5d
%RAWIMUSA,2124,293383.128;2124,293383.127755000,00000077,64376,203,475,16123,35,123*8ea47740
%RAWIMUSA,2124,293383.138;2124,293383.137755000,00000077,64387,155,326,16136,25,134*318f0c55
%RAWIMUSA,2124,293383.148;2124,293383.147755000,00000077,64362,240,426,16146,24,137*f944814a
%RAWIMUSA,2124,293383.158;2124,293383.157755000,00000077,64376,113,408,16144,29,140*ad4577d8
%RAWIMUSA,2124,293383.168;2124,293383.167755000,00000077,64433,195,421,16145,14,118*edfaeead
%RAWIMUSA,2124,293383.178;2124,293383.177755000,00000077,64413,236,522,16141,26,135*3e3d8534
%RAWIMUSA,2124,293383.188;2124,293383.187755000,00000077,64352,201,390,16148,24,129*e6686167
%RAWIMUSA,2124,293383.198;2124,293383.197755000,00000077,64356,140,464,16145,25,122*72cbe359
%RAWIMUSA,2124,293383.208;2124,293383.207755000,00000077,64475,233,436,16130,32,121*b54f47b5
%RAWIMUSA,2124,293383.218;2124,293383.217755000,00000077,64349,262,390,16156,22,127*d30db901
%RAWIMUSA,2124,293383.228;2124,293383.227755000,00000077,64413,208,476,16143,20,114*e43ad9d3
%RAWIMUSA,2124,293383.238;2124,293383.237755000,00000077,64443,311,425,16145,23,115*6c465f1b
%RAWIMUSA,2124,293383.248;2124,293383.247755000,00000077,64417,277,416,16141,15,135*40caa518
%RAWIMUSA,2124,293383.258;2124,293383.257755000,00000077,64365,277,416,16148,30,132*cdc3d55f
%RAWIMUSA,2124,293383.268;2124,293383.267755000,00000077,64471,270,454,16156,11,132*391163ea
%RAWIMUSA,2124,293383.278;2124,293383.277755000,00000077,64489,193,463,16159,22,142*e41ee21d
%RAWIMUSA,2124,293383.288;2124,293383.287755000,00000077,64353,300,383,16154,20,139*ab3c496a
%RAWIMUSA,2124,293383.298;2124,293383.297755000,00000077,64373,264,459,16167,42,135*94af5caf
%RAWIMUSA,2124,293383.308;2124,293383.307755000,00000077,64386,247,348,16165,22,141*66f0a2d3
%RAWIMUSA,2124,293383.318;2124,293383.317755000,00000077,64453,250,468,16157,7,138*2a71822b
%RAWIMUSA,2124,293383.328;2124,293383.327755000,00000077,64471,218,389,16136,20,147*1903ce4e
%RAWIMUSA,2124,293383.338;2124,293383.337755000,00000077,64417,218,425,16123,30,130*93228ef1
%RAWIMUSA,2124,293383.348;2124,293383.347755000,00000077,64428,178,427,16111,14,120*ffcc2a8a
%RAWIMUSA,2124,293383.358;2124,293383.357755000,00000077,64538,227,518,16123,16,139*ea13d9af
%RAWIMUSA,2124,293383.368;2124,293383.367755000,00000077,64384,216,388,16149,20,120*d1c3bcf8
%RAWIMUSA,2124,293383.378;2124,293383.377755000,00000077,64412,234,514,16137,22,122*72480173
%RAWIMUSA,2124,293383.388;2124,293383.387755000,00000077,64495,283,463,16157,28,126*97fad808
%RAWIMUSA,2124,293383.398;2124,293383.397755000,00000077,64525,290,459,16154,25,131*8f36fbb1
%RAWIMUSA,2124,293383.408;2124,293383.407755000,00000077,64345,219,387,16153,10,142*87071aab
%RAWIMUSA,2124,293383.418;2124,293383.417755000,00000077,64427,229,496,16158,26,135*6abefcb5
%RAWIMUSA,2124,293383.428;2124,293383.427755000,00000077,64381,202,436,16151,22,124*54ba684e
%RAWIMUSA,2124,293383.438;2124,293383.437755000,00000077,64381,189,486,16141,27,141*c8c19346
%RAWIMUSA,2124,293383.448;2124,293383.447755000,00000077,64360,303,389,16163,17,129*35aa5c7e
%RAWIMUSA,2124,293383.458;2124,293383.457755000,00000077,64479,235,396,16146,3,134*e853835c
%RAWIMUSA,2124,293383.468;2124,293383.467755000,00000077,64457,84,497,16161,22,132*61a8bbd2
%RAWIMUSA,2124,293383.478;2124,293383.477755000,00000077,64465,178,433,16152,33,146*b2d1ca81
%RAWIMUSA,2124,293383.488;2124,293383.487755000,00000077,64515,265,533,16135,33,131*6d57733b
%RAWIMUSA,2124,293383.498;2124,293383.497755000,00000077,64434,168,389,16142,11,122*2cd97638
%RAWIMUSA,2124,293383.508;2124,293383.507755000,00000077,64564,176,421,16149,27,124*b8d71243
%RAWIMUSA,2124,293383.518;2124,293383.517755000,00000077,64438,227,447,16138,18,139*c82813cf
%RAWIMUSA,2124,293383.528;2124,293383.527755000,00000077,64421,234,441,16158,20,131*09ceb8f6
%RAWIMUSA,2124,293383.538;2124,293383.537755000,00000077,64485,219,427,16149,20,142*0805882a
%RAWIMUSA,2124,293383.548;2124,293383.547755000,00000077,64412,215,359,16150,14,143*84da25ad
%RAWIMUSA,2124,293383.558;2124,293383.557755000,00000077,64433,215,371,16154,32,138*9b119ed0
%RAWIMUSA,2124,293383.568;2124,293383.567755000,00000077,64428,285,360,16150,30,135*00a8a456
%RAWIMUSA,2124,293383.578;2124,293383.577755000,00000077,64374,269,422,16145,16,132*b29e3683
%RAWIMUSA,2124,293383.588;2124,293383.587755000,00000077,64449,188,405,16148,27,129*15341dcf
%RAWIMUSA,2124,293383.598;2124,293383.597755000,00000077,64463,172,465,16131,29,139*21afe93a
%RAWIMUSA,2124,293383.608;2124,293383.607755000,00000077,64460,167,443,16146,16,118*67a43d0c
%RAWIMUSA,2124,293383.618;2124,293383.617755000,00000077,64492,103,541,16132,8,126*a62cd1be
%RAWIMUSA,2124,293383.628;2124,293383.627755000,00000077,64400,219,516,16130,7,123*7c3e724e
%RAWIMUSA,2124,293383.638;2124,293383.637755000,00000077,64425,284,370,16144,18,137*c82741cf
%RAWIMUSA,2124,293383.648;2124,293383.647755000,00000077,64418,209,348,16137,31,128*78c580d3
%RAWIMUSA,2124,293383.658;2124,293383.657755000,00000077,64481,254,512,16132,26,136*1da08f3e
%RAWIMUSA,2124,293383.668;2124,293383.667755000,00000077,64420,250,553,16146,34,154*e8e2d008
%RAWIMUSA,2124,293383.678;2124,293383.677755000,00000077,64415,291,357,16173,13,147*7e44c720
%RAWIMUSA,2124,293383.688;2124,293383.687755000,00000077,64423,176,443,16162,23,138*dad7102a
%RAWIMUSA,2124,293383.698;2124,293383.697755000,00000077,64443,239,449,16165,24,121*6d4db68a
%RAWIMUSA,2124,293383.708;2124,293383.707755000,00000077,64537,390,399,16158,30,122*76121a9c
%RAWIMUSA,2124,293383.718;2124,293383.717755000,00000077,64402,294,396,16145,4,133*18eb7a35
%RAWIMUSA,2124,293383.728;2124,293383.727755000,00000077,64428,185,381,16152,23,122*c41001e4
%RAWIMUSA,2124,293383.738;2124,293383.737755000,00000077,64440,329,427,16142,32,116*747340d8
%RAWIMUSA,2124,293383.748;2124,293383.747755000,00000077,64362,226,403,16112,18,144*b578afae
%RAWIMUSA,2124,293383.758;2124,293383.757755000,00000077,64391,177,408,16142,36,118*e71cc0bc
%RAWIMUSA,2124,293383.768;2124,293383.767755000,00000077,64523,221,445,16124,20,133*030478ce
%RAWIMUSA,2124,293383.778;2124,293383.777755000,00000077,64429,211,459,16135,29,125*e3286a30
%RAWIMUSA,2124,293383.788;2124,293383.787755000,00000077,64312,222,491,16157,14,128*8f70135a
%RAWIMUSA,2124,293383.798;2124,293383.797755000,00000077,64449,241,468,16151,11,133*4845d655
%RAWIMUSA,2124,293383.808;2124,293383.807755000,00000077,64412,286,308,16148,21,138*2c58985e
%RAWIMUSA,2124,293383.818;2124,293383.817755000,00000077,64379,304,474,16160,23,130*3c5d239d
%RAWIMUSA,2124,293383.828;2124,293383.827755000,00000077,64437,294,350,16147,31,132*b080b49d
%RAWIMUSA,2124,293383.838;2124,293383.837755000,00000077,64425,245,466,16163,22,139*98f588c1
%RAWIMUSA,2124,293383.848;2124,293383.847755000,00000077,64374,241,374,16156,25,131*89c9ccc4
%RAWIMUSA,2124,293383.858;2124,293383.857755000,00000077,64386,274,481,16157,28,121*763d2f84
%RAWIMUSA,2124,293383.868;2124,293383.867755000,00000077,64440,305,424,16140,19,143*f2f5e8c9
%RAWIMUSA,2124,293383.878;2124,293383.877755000,00000077,64474,253,482,16140,13,130*6eee171c
%RAWIMUSA,2124,293383.888;2124,293383.887755000,00000077,64530,77,401,16149,28,123*0c807d99
%RAWIMUSA,2124,293383.898;2124,293383.897755000,00000077,64362,256,435,16147,21,121*34a9c627
%RAWIMUSA,2124,293383.908;2124,293383.907755000,00000077,64451,272,414,16137,42,131*b8835c8a
%RAWIMUSA,2124,293383.918;2124,293383.917755000,00000077,64332,205,485,16136,29,129*875c1efd
%RAWIMUSA,2124,293383.928;2124,293383.927755000,00000077,64469,210,411,16139,37,130*c660bbbd
%RAWIMUSA,2124,293383.938;2124,293383.937755000,00000077,64466,220,398,16130,36,116*3c0bad27
%RAWIMUSA,2124,293383.948;2124,293383.947755000,00000077,64394,228,380,16138,28,130*7b1d580c
%RAWIMUSA,2124,293383.958;2124,293383.957755000,00000077,64422,225,504,16127,19,130*ade3416f
%RAWIMUSA,2124,293383.968;2124,293383.967755000,00000077,64434,152,467,16129,15,143*4c64b85e
%RAWIMUSA,2124,293383.978;2124,293383.977755000,00000077,64373,202,358,16150,13,124*ef61f1fa
%RAWIMUSA,2124,293383.988;2124,293383.987755000,00000077,64416,222,392,16138,26,132*20d79900
%RAWIMUSA,2124,293383.998;2124,293383.997755000,00000077,64311,312,420,16165,10,121*c8ebb678
%RAWIMUSA,2124,293384.008;2124,293384.007755000,00000077,64354,114,407,16162,20,141*ed6c8042
%RAWIMUSA,2124,293384.018;2124,293384.017755000,00000077,64469,242,420,16155,17,120*cc1582f3
%RAWIMUSA,2124,293384.028;2124,293384.027755000,00000077,64376,184,460,16154,31,126*6cb8ef2d
%RAWIMUSA,2124,293384.038;2124,293384.037755000,00000077,64396,278,446,16141,29,132*7b7a47ae
%RAWIMUSA,2124,293384.048;2124,293384.047755000,00000077,64443,224,417,16143,36,129*5c1785b5
%RAWIMUSA,2124,293384.058;2124,293384.057755000,00000077,64463,236,366,16143,3,120*52ad6446
%RAWIMUSA,2124,293384.068;2124,293384.067755000,00000077,64420,285,391,16138,46,132*60114a2b
%RAWIMUSA,2124,293384.078;2124,293384.077755000,00000077,64513,299,407,16153,19,132*0aed33dc
%RAWIMUSA,2124,293384.088;2124,293384.087755000,00000077,64438,203,432,16151,27,139*f646e402
%RAWIMUSA,2124,293384.098;2124,293384.097755000,00000077,64476,300,393,16132,27,128*c6c27273
%RAWIMUSA,2124,293384.108;2124,293384.107755000,00000077,64427,257,327,16135,33,125*294fb5ba
%RAWIMUSA,2124,293384.118;2124,293384.117755000,00000077,64467,178,424,16140,20,140*e35f09e8
%RAWIMUSA,2124,293384.128;2124,293384.127755000,00000077,64330,245,430,16134,28,137*88b1ed03
%RAWIMUSA,2124,293384.138;2124,293384.137755000,00000077,64547,303,520,16148,22,118*8500703c
%RAWIMUSA,2124,293384.148;2124,293384.147755000,00000077,64406,300,482,16154,14,136*8221e6c7
%RAWIMUSA,2124,293384.158;2124,293384.157755000,00000077,64411,141,392,16153,9,136*b1ee4f3b
%RAWIMUSA,2124,293384.168;2124,293384.167755000,00000077,64488,253,479,16149,14,112*4052861d
%RAWIMUSA,2124,293384.178;2124,293384.177755000,00000077,64487,309,471,16134,20,127*d1354ecf
%RAWIMUSA,2124,293384.188;2124,293384.187755000,00000077,64451,180,421,16153,31,144*d56109d7
%RAWIMUSA,2124,293384.198;2124,293384.197755000,00000077,64530,138,372,16135,35,148*08a70044
%RAWIMUSA,2124,293384.208;2124,293384.207755000,00000077,64532,269,379,16148,24,126*9c7a3d61
%RAWIMUSA,2124,293384.218;2124,293384.217755000,00000077,64433,174,461,16160,36,140*e58104fc
%RAWIMUSA,2124,293384.228;2124,293384.227755000,00000077,64391,215,306,16150,27,129*6a45183f
%RAWIMUSA,2124,293384.238;2124,293384.237755000,00000077,64428,198,416,16164,27,147*7e15a5f9
%RAWIMUSA,2124,293384.248;2124,293384.247755000,00000077,64447,186,487,16166,34,125*d30bc9e9
%RAWIMUSA,2124,293384.258;2124,293384.257755000,00000077,64368,175,423,16170,23,132*cb498ce8
%RAWIMUSA,2124,293384.268;2124,293384.267755000,00000077,64376,171,420,16146,18,137*68f0b765
%RAWIMUSA,2124,293384.278;2124,293384.277755000,00000077,64493,233,478,16139,24,141*0425a84d
%RAWIMUSA,2124,293384.288;2124,293384.287755000,00000077,64495,241,391,16133,43,143*393deb80
%RAWIMUSA,2124,293384.298;2124,293384.297755000,00000077,64466,228,369,16144,27,133*968c523a
%RAWIMUSA,2124,293384.308;2124,293384.307755000,00000077,64474,286,392,16126,27,117*0cfa257d
%RAWIMUSA,2124,293384.318;2124,293384.317755000,00000077,64420,222,377,16123,45,138*721230b7
%RAWIMUSA,2124,293384.328;2124,293384.327755000,00000077,64472,160,271,16129,29,139*ddc1bcc8
%RAWIMUSA,2124,293384.338;2124,293384.337755000,00000077,64353,186,518,16144,32,125*59f6002a
%RAWIMUSA,2124,293384.348;2124,293384.347755000,00000077,64429,276,502,16153,17,115*7274f0a6
%RAWIMUSA,2124,293384.358;2124,293384.357755000,00000077,64424,296,415,16141,14,133*4fcdcffd
%RAWIMUSA,2124,293384.368;2124,293384.367755000,00000077,64400,222,374,16158,31,137*6da536b3
%RAWIMUSA,2124,293384.378;2124,293384.377755000,00000077,64412,222,403,16167,36,125*9ed05cb1
%RAWIMUSA,2124,293384.388;2124,293384.387755000,00000077,64402,142,432,16156,31,109*624b117d
%RAWIMUSA,2124,293384.398;2124,293384.397755000,00000077,64425,221,444,16122,21,130*c849cedf
%RAWIMUSA,2124,293384.408;2124,293384.407755000,00000077,64416,285,409,16131,33,134*1f1bfc8f
%RAWIMUSA,2124,293384.418;2124,293384.417755000,00000077,64425,174,376,16146,31,137*0e189669
%RAWIMUSA,2124,293384.428;2124,293384.427755000,00000077,64466,304,404,16136,31,142*916d8648
%RAWIMUSA,2124,293384.438;2124,293384.437755000,00000077,64372,235,414,16133,14,137*e527ecb7
%RAWIMUSA,2124,293384.448;2124,293384.447755000,00000077,64393,147,479,16149,14,138*c050d650
%RAWIMUSA,2124,293384.458;2124,293384.457755000,00000077,64484,241,480,16163,21,120*52903e2f
%RAWIMUSA,2124,293384.468;2124,293384.467755000,00000077,64399,279,402,16156,22,120*5c6187c4
%RAWIMUSA,2124,293384.478;2124,293384.477755000,00000077,64469,29,436,16135,23,129*bc264271
