%RAWIMUSA,2124,293308.918;2124,293308.917755000,00000077,64426,223,469,13,-5,11*cdf5173e
%RAWIMUSA,2124,293308.928;2124,293308.927755000,00000077,64390,149,418,1,-1,11*98a0e6cb
%RAWIMUSA,2124,293308.938;2124,293308.937755000,00000077,64467,188,517,-4,4,8*f06c6d6c
%RAWIMUSA,2124,293308.948;2124,293308.947755000,00000077,64474,141,443,6,-10,21*ae511e58
%RAWIMUSA,2124,293308.958;2124,293308.957755000,00000077,64579,148,419,-2,-2,15*bc5a9437
%RAWIMUSA,2124,293308.968;2124,293308.967755000,00000077,64370,216,373,-3,8,20*b2b47944
%RAWIMUSA,2124,293308.978;2124,293308.977755000,00000077,64426,123,412,0,14,-4*78bb7a23
%RAWIMUSA,2124,293308.988;2124,293308.987755000,00000077,64494,178,459,4,-7,3*33d9d541
%RAWIMUSA,2124,293308.998;2124,293308.997755000,00000077,64411,324,369,3,-5,4*81427f6b
%RAWIMUSA,2124,293309.008;2124,293309.007755000,00000077,64452,97,472,10,-4,1*e3333437
%RAWIMUSA,2124,293309.018;2124,293309.017755000,00000077,64491,165,432,0,-3,1*2ebeee42
%RAWIMUSA,2124,293309.028;2124,293309.027755000,00000077,64478,156,537,-1,-18,1*c56672ae
%RAWIMUSA,2124,293309.038;2124,293309.037755000,00000077,64471,100,414,-6,2,4*2062564a
%RAWIMUSA,2124,293309.048;2124,293309.047755000,00000077,64354,155,498,1,13,12*0a99c3b8
%RAWIMUSA,2124,293309.058;2124,293309.057755000,00000077,64399,215,403,-3,0,6*6cf662ab
%RAWIMUSA,2124,293309.068;2124,293309.067755000,00000077,64485,170,453,-5,1,9*f2d7c0a6
%RAWIMUSA,2124,293309.078;2124,293309.077755000,00000077,64473,147,367,-1,9,14*2b3cb28f
%RAWIMUSA,2124,293309.088;2124,293309.087755000,00000077,64440,215,410,2,-1,-4*f62aa341
%RAWIMUSA,2124,293309.098;2124,293309.097755000,00000077,64455,272,399,7,1,-6*bde37de2
%RAWIMUSA,2124,293309.108;2124,293309.107755000,00000077,64408,251,404,8,0,2*57e69e8d
%RAWIMUSA,2124,293309.118;2124,293309.117755000,00000077,64445,256,433,-2,-6,13*74d18187
%RAWIMUSA,2124,293309.128;2124,293309.127755000,00000077,64445,204,483,-3,0,-12*fe7c4dc9
%RAWIMUSA,2124,293309.138;2124,293309.137755000,00000077,64535,148,505,1,9,15*5175684f
%RAWIMUSA,2124,293309.148;2124,293309.147755000,00000077,64414,168,403,-2,12,4*17bfa76d
%RAWIMUSA,2124,293309.158;2124,293309.157755000,00000077,64455,217,371,2,-4,12*e3a9217c
%RAWIMUSA,2124,293309.168;2124,293309.167755000,00000077,64461,151,427,-5,-5,-3*141e75b7
%RAWIMUSA,2124,293309.178;2124,293309.177755000,00000077,64534,170,371,8,23,15*b53b7200
%RAWIMUSA,2124,293309.188;2124,293309.187755000,00000077,64445,171,495,-1,-4,0*c521bbda
%RAWIMUSA,2124,293309.198;2124,293309.197755000,00000077,64347,161,381,-2,13,0*a8a75a24
%RAWIMUSA,2124,293309.208;2124,293309.207755000,00000077,64388,236,456,2,21,17*9103af92
%RAWIMUSA,2124,293309.218;2124,293309.217755000,00000077,64422,164,411,8,-1,14*d0dff4fd
%RAWIMUSA,2124,293309.228;2124,293309.227755000,00000077,64504,193,443,6,10,16*50e7371e
%RAWIMUSA,2124,293309.238;2124,293309.237755000,00000077,64429,102,470,0,-5,2*a429f7a7
%RAWIMUSA,2124,293309.248;2124,293309.247755000,00000077,64491,187,433,-16,13,5*ec4eaa26
%RAWIMUSA,2124,293309.258;2124,293309.257755000,00000077,64558,202,451,-6,4,3*9ed0f787
%RAWIMUSA,2124,293309.268;2124,293309.267755000,00000077,64432,153,462,-2,13,15*f7f27bb3
%RAWIMUSA,2124,293309.278;2124,293309.277755000,00000077,64483,197,429,23,-6,5*a686fa7e
%RAWIMUSA,2124,293309.288;2124,293309.287755000,00000077,64484,264,462,19,-2,1*69edbbc9
%RAWIMUSA,2124,293309.298;2124,293309.297755000,00000077,64440,231,472,-2,10,14*ca75e85b
%RAWIMUSA,2124,293309.308;2124,293309.307755000,00000077,64489,146,489,5,-2,0*0d4c09f3
%RAWIMUSA,2124,293309.318;2124,293309.317755000,00000077,64471,218,426,17,-22,1*71f0685a
%RAWIMUSA,2124,293309.328;2124,293309.327755000,00000077,64445,183,442,6,3,14*9df14957
%RAWIMUSA,2124,293309.338;2124,293309.337755000,00000077,64488,167,405,3,8,25*f8a12d36
%RAWIMUSA,2124,293309.348;2124,293309.347755000,00000077,64530,204,493,20,1,11*c2a38623
%RAWIMUSA,2124,293309.358;2124,293309.357755000,00000077,64532,208,420,6,3,9*92e4b72c
%RAWIMUSA,2124,293309.368;2124,293309.367755000,00000077,64388,209,324,-9,18,0*4ae6c9b8
%RAWIMUSA,2124,293309.378;2124,293309.377755000,00000077,64480,99,401,6,-11,-1*02196058
%RAWIMUSA,2124,293309.388;2124,293309.387755000,00000077,64467,271,465,6,0,14*36a6053c
%RAWIMUSA,2124,293309.398;2124,293309.397755000,00000077,64415,103,366,4,-2,9*e41d1954
%RAWIMUSA,2124,293309.408;2124,293309.407755000,00000077,64385,223,456,12,13,11*05cd5c39
%RAWIMUSA,2124,293309.418;2124,293309.417755000,00000077,64436,242,418,2,10,7*e38132da
%RAWIMUSA,2124,293309.428;2124,293309.427755000,00000077,64408,201,402,-8,6,1*c67e026c
%RAWIMUSA,2124,293309.438;2124,293309.437755000,00000077,64415,131,392,-3,1,2*a0fd4d3b
%RAWIMUSA,2124,293309.448;2124,293309.447755000,00000077,64509,115,381,1,8,-3*b498ec64
%RAWIMUSA,2124,293309.458;2124,293309.457755000,00000077,64457,115,425,-19,-2,7*a1ef2ea5
%RAWIMUSA,2124,293309.468;2124,293309.467755000,00000077,64427,182,514,-42,-5,9*c3e03906
%RAWIMUSA,2124,293309.478;2124,293309.477755000,00000077,64484,105,380,-172,4,6*2599a4ec
%RAWIMUSA,2124,293309.488;2124,293309.487755000,00000077,64485,115,478,-343,13,3*a470d611
%RAWIMUSA,2124,293309.498;2124,293309.497755000,00000077,64467,171,323,-472,-3,-8*f7547b6b
%RAWIMUSA,2124,293309.508;2124,293309.507755000,00000077,64365,210,457,-587,3,5*fd6688b0
%RAWIMUSA,2124,293309.518;2124,293309.517755000,00000077,64427,143,382,-688,2,24*6b3a0b0f
%RAWIMUSA,2124,293309.528;2124,293309.527755000,00000077,64496,165,419,-740,-9,-1*72603e47
%RAWIMUSA,2124,293309.538;2124,293309.537755000,00000077,64417,174,453,-849,9,0*90666bf8
%RAWIMUSA,2124,293309.548;2124,293309.547755000,00000077,64442,298,483,-906,-24,6*a437159e
%RAWIMUSA,2124,293309.558;2124,293309.557755000,00000077,64461,218,380,-974,2,-18*34e804d1
%RAWIMUSA,2124,293309.568;2124,293309.567755000,00000077,64459,119,420,-1049,4,-2*8138fb9d
%RAWIMUSA,2124,293309.578;2124,293309.577755000,00000077,64373,184,468,-1109,0,-8*45d56fcb
%RAWIMUSA,2124,293309.588;2124,293309.587755000,00000077,64444,103,442,-1207,0,13*22ae8520
%RAWIMUSA,2124,293309.598;2124,293309.597755000,00000077,64464,123,429,-1316,8,-11*1a9e4755
%RAWIMUSA,2124,293309.608;2124,293309.607755000,00000077,64479,212,437,-1375,9,2*2de186f3
%RAWIMUSA,2124,293309.618;2124,293309.617755000,00000077,64456,153,435,-1470,3,-14*b42e6e0c
%RAWIMUSA,2124,293309.628;2124,293309.627755000,00000077,64532,231,388,-1557,11,-8*71ffbb4c
%RAWIMUSA,2124,293309.638;2124,293309.637755000,00000077,64558,116,370,-1613,-2,-8*98cd2f76
%RAWIMUSA,2124,293309.648;2124,293309.647755000,00000077,64613,244,448,-1714,-1,-16*59038173
%RAWIMUSA,2124,293309.658;2124,293309.657755000,00000077,64518,105,450,-1801,-8,-1*629d227d
%RAWIMUSA,2124,293309.668;2124,293309.667755000,00000077,64527,71,411,-1851,-7,-21*fa84e9b6
%RAWIMUSA,2124,293309.678;2124,293309.677755000,00000077,64395,201,456,-1979,-2,-1*f32dd3a2
%RAWIMUSA,2124,293309.688;2124,293309.687755000,00000077,64476,153,322,-2016,-5,-2*89a157b8
%RAWIMUSA,2124,293309.698;2124,293309.697755000,00000077,64428,158,440,-2105,10,-30*43efb464
%RAWIMUSA,2124,293309.708;2124,293309.707755000,00000077,64491,173,447,-2190,4,-15*87c76c43
%RAWIMUSA,2124,293309.718;2124,293309.717755000,00000077,64450,178,431,-2248,0,-15*c7e50963
%RAWIMUSA,2124,293309.728;2124,293309.727755000,00000077,64525,200,462,-2348,-16,-5*a0806486
%RAWIMUSA,2124,293309.738;2124,293309.737755000,00000077,64491,245,446,-2445,15,-16*ee4eb77b
%RAWIMUSA,2124,293309.748;2124,293309.747755000,00000077,64485,85,457,-2483,-3,-1*9e1b75ba
%RAWIMUSA,2124,293309.758;2124,293309.757755000,00000077,64406,151,419,-2622,-17,-26*88ba038d
%RAWIMUSA,2124,293309.768;2124,293309.767755000,00000077,64423,119,423,-2687,10,-1*5d484943
%RAWIMUSA,2124,293309.778;2124,293309.777755000,00000077,64435,135,337,-2730,0,-26*3e9c5a61
%RAWIMUSA,2124,293309.788;2124,293309.787755000,00000077,64499,137,435,-2822,2,16*5bad8f8d
%RAWIMUSA,2124,293309.798;2124,293309.797755000,00000077,64451,163,394,-2893,-1,-43*0a5943e7
%RAWIMUSA,2124,293309.808;2124,293309.807755000,00000077,64469,175,389,-2975,-19,1*e726ba43
%RAWIMUSA,2124,293309.818;2124,293309.817755000,00000077,64395,152,292,-3088,0,-36*3baeb476
%RAWIMUSA,2124,293309.828;2124,293309.827755000,00000077,64379,197,437,-3148,-18,7*6a257a37
%RAWIMUSA,2124,293309.838;2124,293309.837755000,00000077,64473,140,500,-3226,-2,-56*1bc8d293
%RAWIMUSA,2124,293309.848;2124,293309.847755000,00000077,64437,254,461,-3337,4,0*67bdced9
%RAWIMUSA,2124,293309.858;2124,293309.857755000,00000077,64417,163,405,-3391,-2,-51*c8e6c272
%RAWIMUSA,2124,293309.868;2124,293309.867755000,00000077,64520,221,375,-3491,7,-26*a1f7b536
%RAWIMUSA,2124,293309.878;2124,293309.877755000,00000077,64503,160,464,-3528,-4,-30*fffdcafd
%RAWIMUSA,2124,293309.888;2124,293309.887755000,00000077,64565,296,372,-3617,8,-15*32ba8fe2
%RAWIMUSA,2124,293309.898;2124,293309.897755000,00000077,64428,100,397,-3717,-4,-22*0d675eab
%RAWIMUSA,2124,293309.908;2124,293309.907755000,00000077,64527,253,393,-3797,-2,-15*e7b95def
%RAWIMUSA,2124,293309.918;2124,293309.917755000,00000077,64415,155,503,-3874,3,-38*d9bc64b6
%RAWIMUSA,2124,293309.928;2124,293309.927755000,00000077,64531,185,422,-3967,-14,-11*4510b824
%RAWIMUSA,2124,293309.938;2124,293309.937755000,00000077,64549,68,359,-4022,7,-41*6af3a002
%RAWIMUSA,2124,293309.948;2124,293309.947755000,00000077,64539,382,445,-4105,-3,-11*36f1f991
%RAWIMUSA,2124,293309.958;2124,293309.957755000,00000077,64473,214,398,-4213,0,-11*d842ff3d
%RAWIMUSA,2124,293309.968;2124,293309.967755000,00000077,64452,291,443,-4256,0,-27*27d9f5f4
%RAWIMUSA,2124,293309.978;2124,293309.977755000,00000077,64472,187,534,-4349,12,-12*95572d11
%RAWIMUSA,2124,293309.988;2124,293309.987755000,00000077,64536,329,495,-4462,-6,-29*bb526dcb
%RAWIMUSA,2124,293309.998;2124,293309.997755000,00000077,64520,135,400,-4504,-16,-23*4a12f311
%RAWIMUSA,2124,293310.008;2124,293310.007755000,00000077,64456,196,511,-4578,0,-36*949bf3e7
%RAWIMUSA,2124,293310.018;2124,293310.017755000,00000077,64468,139,447,-4686,-15,-20*0f68e2d5
%RAWIMUSA,2124,293310.028;2124,293310.027755000,00000077,64458,351,473,-4748,-4,-43*b859dd07
%RAWIMUSA,2124,293310.038;2124,293310.037755000,00000077,64508,104,561,-4834,4,-22*f5ef05f6
%RAWIMUSA,2124,293310.048;2124,293310.047755000,00000077,64462,103,478,-4917,-14,-29*6045f5ad
%RAWIMUSA,2124,293310.058;2124,293310.057755000,00000077,64489,138,440,-4966,15,-34*847f7305
%RAWIMUSA,2124,293310.068;2124,293310.067755000,00000077,64395,226,433,-5103,2,-48*9783a62e
%RAWIMUSA,2124,293310.078;2124,293310.077755000,00000077,64367,130,499,-5148,-1,-12*7fcd4762
%RAWIMUSA,2124,293310.088;2124,293310.087755000,00000077,64477,150,461,-5247,-10,-49*5c1fa73f
%RAWIMUSA,2124,293310.098;2124,293310.097755000,00000077,64609,215,419,-5323,-7,-2*e69c1429
%RAWIMUSA,2124,293310.108;2124,293310.107755000,00000077,64367,91,489,-5388,-8,-60*8f34fb32
%RAWIMUSA,2124,293310.118;2124,293310.117755000,00000077,64388,154,456,-5485,-3,3*e81ae245
%RAWIMUSA,2124,293310.128;2124,293310.127755000,00000077,64406,181,425,-5577,5,-63*75c29ebc
%RAWIMUSA,2124,293310.138;2124,293310.137755000,00000077,64423,106,469,-5608,-9,-13*f89a3850
%RAWIMUSA,2124,293310.148;2124,293310.147755000,00000077,64458,148,457,-5742,-14,-54*7f09223a
%RAWIMUSA,2124,293310.158;2124,293310.157755000,00000077,64444,197,437,-5820,-6,-18*60564529
%RAWIMUSA,2124,293310.168;2124,293310.167755000,00000077,64494,209,564,-5878,0,-69*86f60ab4
%RAWIMUSA,2124,293310.178;2124,293310.177755000,00000077,64399,194,427,-5982,-1,-20*def627d2
%RAWIMUSA,2124,293310.188;2124,293310.187755000,00000077,64437,144,417,-6033,-1,-65*75434083
%RAWIMUSA,2124,293310.198;2124,293310.197755000,00000077,64528,234,393,-6118,13,-37*9ccc47b2
%RAWIMUSA,2124,293310.208;2124,293310.207755000,00000077,64341,94,456,-6230,-12,-55*03177ede
%RAWIMUSA,2124,293310.218;2124,293310.217755000,00000077,64454,228,458,-6269,-3,-23*48867a41
%RAWIMUSA,2124,293310.228;2124,293310.227755000,00000077,64368,203,447,-6352,-14,-65*85cb6229
%RAWIMUSA,2124,293310.238;2124,293310.237755000,00000077,64396,182,395,-6447,0,-37*3ea81252
%RAWIMUSA,2124,293310.248;2124,293310.247755000,00000077,64265,130,459,-6518,-7,-53*4e42d0f6
%RAWIMUSA,2124,293310.258;2124,293310.257755000,00000077,64472,120,395,-6611,-4,-48*9824920a
%RAWIMUSA,2124,293310.268;2124,293310.267755000,00000077,64448,54,422,-6691,-15,-37*ada9fa8b
%RAWIMUSA,2124,293310.278;2124,293310.277755000,00000077,64444,96,478,-6762,0,-47*f524c6bc
%RAWIMUSA,2124,293310.288;2124,293310.287755000,00000077,64426,102,483,-6877,-20,-37*e0cb2ed9
%RAWIMUSA,2124,293310.298;2124,293310.297755000,00000077,64418,243,473,-6920,-3,-70*1ea92690
%RAWIMUSA,2124,293310.308;2124,293310.307755000,00000077,64392,21,450,-6991,-16,-19*ea82509d
%RAWIMUSA,2124,293310.318;2124,293310.317755000,00000077,64463,225,364,-7113,-4,-85*ce8f50e8
%RAWIMUSA,2124,293310.328;2124,293310.327755000,00000077,64452,329,498,-7170,12,-6*bf67bdde
%RAWIMUSA,2124,293310.338;2124,293310.337755000,00000077,64489,129,466,-7262,0,-81*a2d597d8
%RAWIMUSA,2124,293310.348;2124,293310.347755000,00000077,64585,170,470,-7355,-12,-33*1979da4d
%RAWIMUSA,2124,293310.358;2124,293310.357755000,00000077,64422,113,453,-7374,4,-80*0d88fab3
%RAWIMUSA,2124,293310.368;2124,293310.367755000,00000077,64476,224,470,-7472,3,-34*42f60a04
%RAWIMUSA,2124,293310.378;2124,293310.377755000,00000077,64441,119,351,-7568,-8,-77*3b9d0156
%RAWIMUSA,2124,293310.388;2124,293310.387755000,00000077,64397,308,403,-7623,-11,-44*034132d4
%RAWIMUSA,2124,293310.398;2124,293310.397755000,00000077,64481,115,422,-7739,-13,-60*038f2346
%RAWIMUSA,2124,293310.408;2124,293310.407755000,00000077,64326,239,418,-7823,1,-53*b0075fbf
%RAWIMUSA,2124,293310.418;2124,293310.417755000,00000077,64510,117,369,-7893,-5,-60*5ced9963
%RAWIMUSA,2124,293310.428;2124,293310.427755000,00000077,64577,225,429,-7995,-12,-77*56b992c6
%RAWIMUSA,2124,293310.438;2124,293310.437755000,00000077,64373,249,433,-8067,-10,-42*b94b7d66
%RAWIMUSA,2124,293310.448;2124,293310.447755000,00000077,64608,177,469,-8142,-18,-79*88d528e2
%RAWIMUSA,2124,293310.458;2124,293310.457755000,00000077,64506,125,618,-8242,0,-35*1343cacc
%RAWIMUSA,2124,293310.468;2124,293310.467755000,00000077,64518,177,425,-8309,-4,-68*8fb3b62b
%RAWIMUSA,2124,293310.478;2124,293310.477755000,00000077,64481,114,386,-8390,-16,-27*3d9e1df2
%RAWIMUSA,2124,293310.488;2124,293310.487755000,00000077,64442,259,437,-8466,-6,-89*063e1dda
%RAWIMUSA,2124,293310.498;2124,293310.497755000,00000077,64461,170,419,-8512,0,-28*adb865d7
%RAWIMUSA,2124,293310.508;2124,293310.507755000,00000077,64457,120,518,-8624,-8,-90*eba33083
%RAWIMUSA,2124,293310.518;2124,293310.517755000,00000077,64528,142,463,-8712,9,-26*3c4158a4
%RAWIMUSA,2124,293310.528;2124,293310.527755000,00000077,64433,54,401,-8789,3,-82*fc586b87
%RAWIMUSA,2124,293310.538;2124,293310.537755000,00000077,64456,256,454,-8886,-15,-41*f02dad6c
%RAWIMUSA,2124,293310.548;2124,293310.547755000,00000077,64304,116,386,-8960,-14,-82*5df70e09
%RAWIMUSA,2124,293310.558;2124,293310.557755000,00000077,64439,244,336,-9014,-8,-48*5f1526b5
%RAWIMUSA,2124,293310.568;2124,293310.567755000,00000077,64467,180,441,-9124,-8,-68*56712e79
%RAWIMUSA,2124,293310.578;2124,293310.577755000,00000077,64446,190,567,-9166,-17,-77*72cf1719
%RAWIMUSA,2124,293310.588;2124,293310.587755000,00000077,64425,177,386,-9251,-11,-63*6c639267
%RAWIMUSA,2124,293310.598;2124,293310.597755000,00000077,64496,236,438,-9365,-8,-59*65dd4dde
%RAWIMUSA,2124,293310.608;2124,293310.607755000,00000077,64409,74,470,-9413,3,-55*550aac49
%RAWIMUSA,2124,293310.618;2124,293310.617755000,00000077,64442,232,475,-9498,-30,-82*c2af1f6e
%RAWIMUSA,2124,293310.628;2124,293310.627755000,00000077,64415,177,421,-9618,-6,-70*264d7c0c
%RAWIMUSA,2124,293310.638;2124,293310.637755000,00000077,64449,265,369,-9663,0,-67*81e54262
%RAWIMUSA,2124,293310.648;2124,293310.647755000,00000077,64407,123,518,-9787,-18,-39*60f7f77a
%RAWIMUSA,2124,293310.658;2124,293310.657755000,00000077,64394,146,473,-9835,-11,-102*d7eb9d6b
%RAWIMUSA,2124,293310.668;2124,293310.667755000,00000077,64386,222,458,-9896,-6,-63*f0ec2950
%RAWIMUSA,2124,293310.678;2124,293310.677755000,00000077,64445,151,486,-10034,-8,-101*7b99558b
%RAWIMUSA,2124,293310.688;2124,293310.687755000,00000077,64389,202,478,-10078,-14,-42*123a29cc
%RAWIMUSA,2124,293310.698;2124,293310.697755000,00000077,64412,116,457,-10137,0,-83*175ee618
%RAWIMUSA,2124,293310.708;2124,293310.707755000,00000077,64379,191,419,-10225,-12,-71*6646c9c7
%RAWIMUSA,2124,293310.718;2124,293310.717755000,00000077,64363,146,386,-10283,-10,-59*64db434b
%RAWIMUSA,2124,293310.728;2124,293310.727755000,00000077,64400,157,446,-10380,-9,-97*be5ab2d9
%RAWIMUSA,2124,293310.738;2124,293310.737755000,00000077,64438,206,348,-10496,-5,-61*eaf2d978
%RAWIMUSA,2124,293310.748;2124,293310.747755000,00000077,64522,154,518,-10519,-6,-85*ff59fada
%RAWIMUSA,2124,293310.758;2124,293310.757755000,00000077,64345,242,462,-10639,-7,-100*d1f0c6c1
%RAWIMUSA,2124,293310.768;2124,293310.767755000,00000077,64444,255,397,-10731,-19,-55*8ee82882
%RAWIMUSA,2124,293310.778;2124,293310.777755000,00000077,64505,198,430,-10775,1,-84*67698b6d
%RAWIMUSA,2124,293310.788;2124,293310.787755000,00000077,64398,221,420,-10893,-12,-83*b1234739
%RAWIMUSA,2124,293310.798;2124,293310.797755000,00000077,64480,171,401,-10949,-12,-86*c88fea1e
%RAWIMUSA,2124,293310.808;2124,293310.807755000,00000077,64445,182,466,-11040,-5,-81*35404287
%RAWIMUSA,2124,293310.818;2124,293310.817755000,00000077,64411,131,456,-11158,-9,-81*55245df5
%RAWIMUSA,2124,293310.828;2124,293310.827755000,00000077,64414,190,455,-11228,-7,-71*51e3811d
%RAWIMUSA,2124,293310.838;2124,293310.837755000,00000077,64529,83,391,-11291,-7,-86*721e52ae
%RAWIMUSA,2124,293310.848;2124,293310.847755000,00000077,64554,184,433,-11389,0,-96*f2cf9a65
%RAWIMUSA,2124,293310.858;2124,293310.857755000,00000077,64347,139,440,-11443,-19,-90*37cf3932
%RAWIMUSA,2124,293310.868;2124,293310.867755000,00000077,64416,162,399,-11531,-14,-105*a77a690f
%RAWIMUSA,2124,293310.878;2124,293310.877755000,00000077,64483,63,418,-11617,-22,-86*18eaf252
%RAWIMUSA,2124,293310.888;2124,293310.887755000,00000077,64501,112,512,-11689,-19,-73*79d0ee76
%RAWIMUSA,2124,293310.898;2124,293310.897755000,00000077,64462,155,442,-11807,-2,-107*cec0bb5a
%RAWIMUSA,2124,293310.908;2124,293310.907755000,00000077,64482,222,450,-11852,-4,-94*0481fe42
%RAWIMUSA,2124,293310.918;2124,293310.917755000,00000077,64475,159,456,-11867,9,-81*adae98a9
%RAWIMUSA,2124,293310.928;2124,293310.927755000,00000077,64450,172,494,-11997,0,-111*72c9da23
%RAWIMUSA,2124,293310.938;2124,293310.937755000,00000077,64406,100,446,-12073,-7,-74*97f024f5
%RAWIMUSA,2124,293310.948;2124,293310.947755000,00000077,64435,206,420,-12180,-14,-76*3bba6e90
%RAWIMUSA,2124,293310.958;2124,293310.957755000,00000077,64500,209,547,-12280,-10,-107*b86f45ba
%RAWIMUSA,2124,293310.968;2124,293310.967755000,00000077,64505,227,392,-12319,-1,-80*0b58a699
%RAWIMUSA,2124,293310.978;2124,293310.977755000,00000077,64476,136,484,-12409,-14,-79*e3f9fc26
%RAWIMUSA,2124,293310.988;2124,293310.987755000,00000077,64552,161,441,-12519,-3,-91*f0acb049
%RAWIMUSA,2124,293310.998;2124,293310.997755000,00000077,64476,89,510,-12571,-15,-80*10109b9c
%RAWIMUSA,2124,293311.008;2124,293311.007755000,00000077,64417,90,398,-12662,1,-97*e920eaef
%RAWIMUSA,2124,293311.018;2124,293311.017755000,00000077,64450,162,456,-12759,-10,-88*158240b6
%RAWIMUSA,2124,293311.028;2124,293311.027755000,00000077,64487,104,533,-12824,3,-76*64b53036
%RAWIMUSA,2124,293311.038;2124,293311.037755000,00000077,64489,243,523,-12903,-12,-93*a478f058
%RAWIMUSA,2124,293311.048;2124,293311.047755000,00000077,64399,82,434,-12963,-11,-102*659e229b
%RAWIMUSA,2124,293311.058;2124,293311.057755000,00000077,64450,321,435,-13037,-17,-95*3b1d4366
%RAWIMUSA,2124,293311.068;2124,293311.067755000,00000077,64475,120,521,-13159,-10,-106*503e1d3d
%RAWIMUSA,2124,293311.078;2124,293311.077755000,00000077,64423,72,530,-13224,-10,-103*14a04f18
%RAWIMUSA,2124,293311.088;2124,293311.087755000,00000077,64445,169,325,-13322,-13,-80*b1568170
%RAWIMUSA,2124,293311.098;2124,293311.097755000,00000077,64469,142,429,-13412,-4,-85*0cbe3856
%RAWIMUSA,2124,293311.108;2124,293311.107755000,00000077,64456,131,481,-13455,-14,-109*92840e4e
%RAWIMUSA,2124,293311.118;2124,293311.117755000,00000077,64481,183,526,-13534,-16,-88*16e06728
%RAWIMUSA,2124,293311.128;2124,293311.127755000,00000077,64571,196,421,-13614,-13,-89*16aa300b
%RAWIMUSA,2124,293311.138;2124,293311.137755000,00000077,64466,177,519,-13681,-14,-114*000e3e8e
%RAWIMUSA,2124,293311.148;2124,293311.147755000,00000077,64461,218,409,-13769,-13,-108*c434566c
%RAWIMUSA,2124,293311.158;2124,293311.157755000,00000077,64493,256,472,-13871,-15,-112*b4e2fddb
%RAWIMUSA,2124,293311.168;2124,293311.167755000,00000077,64447,229,430,-13953,-5,-103*d5d6b8e0
%RAWIMUSA,2124,293311.178;2124,293311.177755000,00000077,64478,199,474,-14048,-17,-112*9f01c33d
%RAWIMUSA,2124,293311.188;2124,293311.187755000,00000077,64449,174,512,-14115,-18,-112*831b3123
%RAWIMUSA,2124,293311.198;2124,293311.197755000,00000077,64503,244,448,-14193,-15,-118*e79ba9b6
%RAWIMUSA,2124,293311.208;2124,293311.207755000,00000077,64429,193,380,-14276,-27,-109*8cc63851
%RAWIMUSA,2124,293311.218;2124,293311.217755000,00000077,64429,163,425,-14314,-3,-101*c44e9010
%RAWIMUSA,2124,293311.228;2124,293311.227755000,00000077,64417,93,406,-14425,-5,-109*81315ad7
%RAWIMUSA,2124,293311.238;2124,293311.237755000,00000077,64424,279,518,-14515,-29,-107*e1a316b6
%RAWIMUSA,2124,293311.248;2124,293311.247755000,00000077,64430,122,419,-14592,-18,-113*df6d16da
%RAWIMUSA,2124,293311.258;2124,293311.257755000,00000077,64483,183,490,-14689,-16,-107*60962554
%RAWIMUSA,2124,293311.268;2124,293311.267755000,00000077,64489,189,487,-14753,-26,-129*3b26346d
%RAWIMUSA,2124,293311.278;2124,293311.277755000,00000077,64469,141,416,-14826,-1,-115*078b1077
%RAWIMUSA,2124,293311.288;2124,293311.287755000,00000077,64402,95,411,-14923,-13,-107*06fcb3ff
%RAWIMUSA,2124,293311.298;2124,293311.297755000,00000077,64431,213,421,-15007,-18,-134*19f5436a
%RAWIMUSA,2124,293311.308;2124,293311.307755000,00000077,64492,222,404,-15077,-27,-121*253be947
%RAWIMUSA,2124,293311.318;2124,293311.317755000,00000077,64444,301,491,-15182,-19,-91*0a2520b1
%RAWIMUSA,2124,293311.328;2124,293311.327755000,00000077,64586,221,491,-15210,-24,-114*68b131dd
%RAWIMUSA,2124,293311.338;2124,293311.337755000,00000077,64478,169,415,-15312,-7,-105*1a8ef7ac
%RAWIMUSA,2124,293311.348;2124,293311.347755000,00000077,64375,186,439,-15389,-6,-113*71e5ef7e
%RAWIMUSA,2124,293311.358;2124,293311.357755000,00000077,64418,194,491,-15454,-13,-117*c6b84256
%RAWIMUSA,2124,293311.368;2124,293311.367755000,00000077,64388,79,377,-15585,-16,-95*0e2689b3
%RAWIMUSA,2124,293311.378;2124,293311.377755000,00000077,64465,185,486,-15651,-19,-110*6d0d7daa
%RAWIMUSA,2124,293311.388;2124,293311.387755000,00000077,64400,173,514,-15725,-4,-113*bf643ac1
%RAWIMUSA,2124,293311.398;2124,293311.397755000,00000077,64497,179,455,-15839,-16,-115*29d1dd63
%RAWIMUSA,2124,293311.408;2124,293311.407755000,00000077,64408,181,448,-15873,-29,-112*038fc37f
%RAWIMUSA,2124,293311.418;2124,293311.417755000,00000077,64447,208,401,-15953,-12,-130*a9c48157
%RAWIMUSA,2124,293311.428;2124,293311.427755000,00000077,64454,286,575,-16052,-10,-113*37741b49
%RAWIMUSA,2124,293311.438;2124,293311.437755000,00000077,64539,29,395,-16106,-18,-113*867009ac
%RAWIMUSA,2124,293311.448;2124,293311.447755000,00000077,64549,94,424,-16191,-27,-124*ac4fe1cf
%RAWIMUSA,2124,293311.458;2124,293311.457755000,00000077,64480,271,391,-16237,-19,-126*2575a139
%RAWIMUSA,2124,293311.468;2124,293311.467755000,00000077,64454,161,414,-16217,-15,-121*75f02cd3
%RAWIMUSA,2124,293311.478;2124,293311.477755000,00000077,64447,273,382,-16160,-28,-128*4619486d
%RAWIMUSA,2124,293311.488;2124,293311.487755000,00000077,64387,186,425,-16126,-14,-110*d24a0c2a
%RAWIMUSA,2124,293311.498;2124,293311.497755000,00000077,64572,143,436,-16119,-3,-112*144d2211
%RAWIMUSA,2124,293311.508;2124,293311.507755000,00000077,64408,255,394,-16103,-29,-110*ec06e071
%RAWIMUSA,2124,293311.518;2124,293311.517755000,00000077,64571,234,398,-16106,-7,-101*e41c02c2
%RAWIMUSA,2124,293311.528;2124,293311.527755000,00000077,64458,138,418,-16125,-9,-125*9e11afb7
%RAWIMUSA,2124,293311.538;2124,293311.537755000,00000077,64416,161,498,-16121,-22,-114*b5e435c6
%RAWIMUSA,2124,293311.548;2124,293311.547755000,00000077,64441,143,339,-16108,-14,-134*7f3d997b
%RAWIMUSA,2124,293311.558;2124,293311.557755000,00000077,64383,251,389,-16132,-9,-124*4bfd0d14
%RAWIMUSA,2124,293311.568;2124,293311.567755000,00000077,64420,89,493,-16132,5,-106*5597d984
%RAWIMUSA,2124,293311.578;2124,293311.577755000,00000077,64513,166,478,-16130,-4,-118*2f63273b
%RAWIMUSA,2124,293311.588;2124,293311.587755000,00000077,64522,208,444,-16113,-17,-129*fcdf7c45
%RAWIMUSA,2124,293311.598;2124,293311.597755000,00000077,64431,313,425,-16123,-30,-116*8aee6dfc
%RAWIMUSA,2124,293311.608;2124,293311.607755000,00000077,64492,305,488,-16126,-19,-122*44a38932
%RAWIMUSA,2124,293311.618;2124,293311.617755000,00000077,64413,233,418,-16118,-38,-129*6dc44230
%RAWIMUSA,2124,293311.628;2124,293311.627755000,00000077,64444,200,461,-16121,-3,-124*63ebf6eb
%RAWIMUSA,2124,293311.638;2124,293311.637755000,00000077,64488,176,451,-16127,-16,-129*bd871c9b
%RAWIMUSA,2124,293311.648;2124,293311.647755000,00000077,64382,123,445,-16113,-8,-114*f3ee196a
%RAWIMUSA,2124,293311.658;2124,293311.657755000,00000077,64445,135,298,-16105,-26,-126*1e5822fa
%RAWIMUSA,2124,293311.668;2124,293311.667755000,00000077,64509,172,415,-16127,-2,-132*f2026d4c
%RAWIMUSA,2124,293311.678;2124,293311.677755000,00000077,64412,89,435,-16153,-11,-135*3dab6cb1
%RAWIMUSA,2124,293311.688;2124,293311.687755000,00000077,64472,140,424,-16141,-10,-134*5de10c22
%RAWIMUSA,2124,293311.698;2124,293311.697755000,00000077,64418,83,480,-16121,-5,-120*3a59e34b
%RAWIMUSA,2124,293311.708;2124,293311.707755000,00000077,64496,166,460,-16141,-14,-107*e27500f4
%RAWIMUSA,2124,293311.718;2124,293311.717755000,00000077,64516,204,415,-16132,-8,-120*ba9d15ef
%RAWIMUSA,2124,293311.728;2124,293311.727755000,00000077,64479,198,410,-16126,-21,-121*472fdfa3
%RAWIMUSA,2124,293311.738;2124,293311.737755000,00000077,64508,264,481,-16122,-6,-113*11a5df23
%RAWIMUSA,2124,293311.748;2124,293311.747755000,00000077,64322,153,436,-16131,-11,-115*f23c62fe
%RAWIMUSA,2124,293311.758;2124,293311.757755000,00000077,64366,162,391,-16131,-20,-103*ce989e7f
%RAWIMUSA,2124,293311.768;2124,293311.767755000,00000077,64459,96,539,-16125,-18,-127*51e5ce00
%RAWIMUSA,2124,293311.778;2124,293311.777755000,00000077,64501,189,563,-16130,-19,-116*4a4e0cdf
%RAWIMUSA,2124,293311.788;2124,293311.787755000,00000077,64391,148,320,-16125,-17,-134*823532c0
%RAWIMUSA,2124,293311.798;2124,293311.797755000,00000077,64366,163,514,-16129,-2,-110*3b2f5888
%RAWIMUSA,2124,293311.808;2124,293311.807755000,00000077,64461,158,442,-16148,-18,-121*f51f8f86
%RAWIMUSA,2124,293311.818;2124,293311.817755000,00000077,64548,231,488,-16156,1,-130*77338f78
%RAWIMUSA,2124,293311.828;2124,293311.827755000,00000077,64402,210,460,-16135,-17,-122*e67c0245
%RAWIMUSA,2124,293311.838;2124,293311.837755000,00000077,64434,327,493,-16135,-18,-133*b7796f80
%RAWIMUSA,2124,293311.848;2124,293311.847755000,00000077,64451,202,445,-16129,-8,-115*31545a49
%RAWIMUSA,2124,293311.858;2124,293311.857755000,00000077,64487,254,428,-16117,-10,-132*bb73b605
%RAWIMUSA,2124,293311.868;2124,293311.867755000,00000077,64471,256,370,-16121,-4,-130*6c829977
%RAWIMUSA,2124,293311.878;2124,293311.877755000,00000077,64526,191,394,-16110,-5,-120*794a562a
%RAWIMUSA,2124,293311.888;2124,293311.887755000,00000077,64394,154,483,-16125,-12,-120*86b7a361
%RAWIMUSA,2124,293311.898;2124,293311.897755000,00000077,64423,164,470,-16130,-12,-105*fde06897
%RAWIMUSA,2124,293311.908;2124,293311.907755000,00000077,64462,155,434,-16142,-24,-142*02e677b0
%RAWIMUSA,2124,293311.918;2124,293311.917755000,00000077,64474,189,491,-16140,-18,-128*60506d75
%RAWIMUSA,2124,293311.928;2124,293311.927755000,00000077,64511,266,473,-16147,-11,-120*d23159e5
%RAWIMUSA,2124,293311.938;2124,293311.937755000,00000077,64344,167,538,-16134,-2,-120*4b4dbae3
%RAWIMUSA,2124,293311.948;2124,293311.947755000,00000077,64352,199,354,-16138,-14,-128*ea980466
%RAWIMUSA,2124,293311.958;2124,293311.957755000,00000077,64549,150,449,-16150,-12,-118*7ffe2052
%RAWIMUSA,2124,293311.968;2124,293311.967755000,00000077,64443,117,478,-16143,-6,-114*3e3eda55
%RAWIMUSA,2124,293311.978;2124,293311.977755000,00000077,64417,226,491,-16120,-21,-114*8ff4846c
%RAWIMUSA,2124,293311.988;2124,293311.987755000,00000077,64478,259,446,-16137,-11,-118*0bdd89a5
%RAWIMUSA,2124,293311.998;2124,293311.997755000,00000077,64440,202,439,-16126,-20,-120*2f8c7580
%RAWIMUSA,2124,293312.008;2124,293312.007755000,00000077,64399,145,397,-16098,-21,-124*5b3c32dc
%RAWIMUSA,2124,293312.018;2124,293312.017755000,00000077,64430,187,503,-16114,-23,-130*06d5e932
%RAWIMUSA,2124,293312.028;2124,293312.027755000,00000077,64395,134,413,-16145,-21,-115*d29f7e39
%RAWIMUSA,2124,293312.038;2124,293312.037755000,00000077,64474,181,433,-16143,-6,-141*44493436
%RAWIMUSA,2124,293312.048;2124,293312.047755000,00000077,64406,199,505,-16129,-9,-118*c31bb8bb
%RAWIMUSA,2124,293312.058;2124,293312.057755000,00000077,64462,195,402,-16135,-7,-127*41e7f5d6
%RAWIMUSA,2124,293312.068;2124,293312.067755000,00000077,64403,199,387,-16139,-5,-120*b1d71488
%RAWIMUSA,2124,293312.078;2124,293312.077755000,00000077,64468,251,373,-16131,-10,-112*a80bfa0e
%RAWIMUSA,2124,293312.088;2124,293312.087755000,00000077,64430,200,437,-16147,-16,-124*272309a5
%RAWIMUSA,2124,293312.098;2124,293312.097755000,00000077,64514,126,504,-16139,-9,-135*d7b705b9
%RAWIMUSA,2124,293312.108;2124,293312.107755000,00000077,64463,306,453,-16145,-2,-118*c9e5de82
%RAWIMUSA,2124,293312.118;2124,293312.117755000,00000077,64380,247,401,-16129,-1,-112*59e9024f
%RAWIMUSA,2124,293312.128;2124,293312.127755000,00000077,64429,167,478,-16136,-19,-130*148c9d3f
%RAWIMUSA,2124,293312.138;2124,293312.137755000,00000077,64479,246,486,-16131,-8,-116*727a6e32
%RAWIMUSA,2124,293312.148;2124,293312.147755000,00000077,64465,232,418,-16139,-13,-115*d1ec8c80
%RAWIMUSA,2124,293312.158;2124,293312.157755000,00000077,64545,125,430,-16153,-17,-118*62b9268e
%RAWIMUSA,2124,293312.168;2124,293312.167755000,00000077,64445,233,443,-16147,-20,-124*a53cdca8
%RAWIMUSA,2124,293312.178;2124,293312.177755000,00000077,64511,98,452,-16134,-4,-108*9e3c1e80
%RAWIMUSA,2124,293312.188;2124,293312.187755000,00000077,64536,230,471,-16144,0,-113*16222577
%RAWIMUSA,2124,293312.198;2124,293312.197755000,00000077,64401,252,444,-16145,-16,-128*eb0befe8
%RAWIMUSA,2124,293312.208;2124,293312.207755000,00000077,64494,267,574,-16146,-17,-127*1ef693f4
%RAWIMUSA,2124,293312.218;2124,293312.217755000,00000077,64297,174,437,-16120,-18,-129*c8ceefcb
%RAWIMUSA,2124,293312.228;2124,293312.227755000,00000077,64452,238,450,-16131,-22,-108*d7edc97f
%RAWIMUSA,2124,293312.238;2124,293312.237755000,00000077,64464,241,388,-16126,-8,-145*e8b46265
%RAWIMUSA,2124,293312.248;2124,293312.247755000,00000077,64410,173,434,-16112,-1,-119*c175fec8
%RAWIMUSA,2124,293312.258;2124,293312.257755000,00000077,64538,213,383,-16121,-13,-107*a693c812
%RAWIMUSA,2124,293312.268;2124,293312.267755000,00000077,64490,158,436,-16133,-20,-136*f7ebb566
%RAWIMUSA,2124,293312.278;2124,293312.277755000,00000077,64472,231,526,-16126,-12,-112*dce0d4ea
%RAWIMUSA,2124,293312.288;2124,293312.287755000,00000077,64406,222,476,-16142,-4,-105*3e932bd7
%RAWIMUSA,2124,293312.298;2124,293312.297755000,00000077,64472,149,535,-16146,-18,-128*55af2a63
%RAWIMUSA,2124,293312.308;2124,293312.307755000,00000077,64480,182,457,-16138,-25,-110*ff9194d0
%RAWIMUSA,2124,293312.318;2124,293312.317755000,00000077,64486,250,433,-16136,-26,-121*7468ca4d
%RAWIMUSA,2124,293312.328;2124,293312.327755000,00000077,64409,240,456,-16142,-3,-134*fd5fc01d
%RAWIMUSA,2124,293312.338;2124,293312.337755000,00000077,64401,112,406,-16126,-15,-141*6c8552f0
%RAWIMUSA,2124,293312.348;2124,293312.347755000,00000077,64451,139,406,-16160,-28,-118*48dd42e4
%RAWIMUSA,2124,293312.358;2124,293312.357755000,00000077,64363,220,430,-16152,-8,-136*3c4e6fbd
%RAWIMUSA,2124,293312.368;2124,293312.367755000,00000077,64419,171,441,-16143,-20,-121*6246de0c
%RAWIMUSA,2124,293312.378;2124,293312.377755000,00000077,64333,254,369,-16139,-22,-133*d8d6ab54
%RAWIMUSA,2124,293312.388;2124,293312.387755000,00000077,64452,113,328,-16147,-5,-123*78f45b3f
%RAWIMUSA,2124,293312.398;2124,293312.397755000,00000077,64397,185,543,-16153,-19,-128*793745d4
%RAWIMUSA,2124,293312.408;2124,293312.407755000,00000077,64447,197,529,-16150,-26,-120*5e38a3f2
%RAWIMUSA,2124,293312.418;2124,293312.417755000,00000077,64374,250,437,-16148,-19,-124*e463e849
%RAWIMUSA,2124,293312.428;2124,293312.427755000,00000077,64466,246,450,-16132,-6,-142*1b67ce54
%RAWIMUSA,2124,293312.438;2124,293312.437755000,00000077,64407,155,448,-16137,-13,-111*568aed45
%RAWIMUSA,2124,293312.448;2124,293312.447755000,00000077,64402,307,384,-16128,-19,-117*5cb2aec5
%RAWIMUSA,2124,293312.458;2124,293312.457755000,00000077,64380,140,422,-16127,0,-130*b037207e
%RAWIMUSA,2124,293312.468;2124,293312.467755000,00000077,64412,201,471,-16144,-7,-145*608dc826
%RAWIMUSA,2124,293312.478;2124,293312.477755000,00000077,64442,232,430,-16134,-16,-115*135b693c
%RAWIMUSA,2124,293312.488;2124,293312.487755000,00000077,64434,198,491,-16141,-6,-120*fcbd99d6
%RAWIMUSA,2124,293312.498;2124,293312.497755000,00000077,64411,247,439,-16127,-5,-125*69d9a3d8
%RAWIMUSA,2124,293312.508;2124,293312.507755000,00000077,64477,227,435,-16139,-14,-133*ad0f5932
%RAWIMUSA,2124,293312.518;2124,293312.517755000,00000077,64501,283,528,-16152,-28,-112*f5fbf39c
%RAWIMUSA,2124,293312.528;2124,293312.527755000,00000077,64529,190,489,-16142,-20,-109*7de26d61
%RAWIMUSA,2124,293312.538;2124,293312.537755000,00000077,64532,218,578,-16120,-29,-116*b45711f5
%RAWIMUSA,2124,293312.548;2124,293312.547755000,00000077,64477,233,459,-16141,-18,-126*f0cc3bbb
%RAWIMUSA,2124,293312.558;2124,293312.557755000,00000077,64464,178,487,-16147,-16,-118*265033e0
%RAWIMUSA,2124,293312.568;2124,293312.567755000,00000077,64396,122,470,-16130,-7,-127*1f9023e8
%RAWIMUSA,2124,293312.578;2124,293312.577755000,00000077,64554,149,518,-16125,-26,-130*679b69c6
%RAWIMUSA,2124,293312.588;2124,293312.587755000,00000077,64465,210,427,-16114,1,-123*844f2e73
%RAWIMUSA,2124,293312.598;2124,293312.597755000,00000077,64378,225,436,-16111,-4,-122*cf2f1c87
%RAWIMUSA,2124,293312.608;2124,293312.607755000,00000077,64460,123,500,-16130,-10,-112*07ddf16f
%RAWIMUSA,2124,293312.618;2124,293312.617755000,00000077,64485,240,400,-16142,-9,-121*5a6effb2
%RAWIMUSA,2124,293312.628;2124,293312.627755000,00000077,64560,222,372,-16139,-13,-107*48c49ee5
%RAWIMUSA,2124,293312.638;2124,293312.637755000,00000077,64440,194,524,-16140,-29,-112*f8150749
%RAWIMUSA,2124,293312.648;2124,293312.647755000,00000077,64421,284,453,-16143,-14,-115*4081e2b0
%RAWIMUSA,2124,293312.658;2124,293312.657755000,00000077,64366,260,484,-16134,-24,-115*bf277005
%RAWIMUSA,2124,293312.668;2124,293312.667755000,00000077,64489,110,474,-16155,-9,-126*a4f6bdc4
%RAWIMUSA,2124,293312.678;2124,293312.677755000,00000077,64373,243,480,-16145,-1,-125*cf5382bb
%RAWIMUSA,2124,293312.688;2124,293312.687755000,00000077,64535,185,426,-16139,-25,-128*ad28a7b7
%RAWIMUSA,2124,293312.698;2124,293312.697755000,00000077,64393,277,475,-16153,-27,-118*63aa239d
%RAWIMUSA,2124,293312.708;2124,293312.707755000,00000077,64470,134,395,-16148,-2,-123*555af910
%RAWIMUSA,2124,293312.718;2124,293312.717755000,00000077,64436,205,489,-16126,-7,-123*a4b2a634
%RAWIMUSA,2124,293312.728;2124,293312.727755000,00000077,64492,290,559,-16148,-31,-120*70c1f323
%RAWIMUSA,2124,293312.738;2124,293312.737755000,00000077,64362,242,466,-16125,-21,-121*37e74605
%RAWIMUSA,2124,293312.748;2124,293312.747755000,00000077,64375,236,438,-16142,-1,-117*e215b902
%RAWIMUSA,2124,293312.758;2124,293312.757755000,00000077,64417,117,373,-16152,-14,-120*cb32c97a
%RAWIMUSA,2124,293312.768;2124,293312.767755000,00000077,64433,249,413,-16152,-11,-118*b041d5e4
%RAWIMUSA,2124,293312.778;2124,293312.777755000,00000077,64509,244,445,-16149,-16,-120*43bf60cc
%RAWIMUSA,2124,293312.788;2124,293312.787755000,00000077,64441,90,432,-16118,-8,-117*1edfcd00
%RAWIMUSA,2124,293312.798;2124,293312.797755000,00000077,64565,237,412,-16137,-23,-120*a630253f
%RAWIMUSA,2124,293312.808;2124,293312.807755000,00000077,64403,156,390,-16147,-24,-114*85bf51e9
%RAWIMUSA,2124,293312.818;2124,293312.817755000,00000077,64438,186,472,-16121,-16,-125*e780424e
%RAWIMUSA,2124,293312.828;2124,293312.827755000,00000077,64543,69,428,-16124,-14,-109*437acccb
%RAWIMUSA,2124,293312.838;2124,293312.837755000,00000077,64526,196,439,-16146,-24,-116*37320cf2
%RAWIMUSA,2124,293312.848;2124,293312.847755000,00000077,64360,170,423,-16150,-11,-124*ef3489da
%RAWIMUSA,2124,293312.858;2124,293312.857755000,00000077,64479,179,450,-16134,-12,-129*7b51b4e9
%RAWIMUSA,2124,293312.868;2124,293312.867755000,00000077,64446,137,449,-16139,-20,-124*d7e675d2
%RAWIMUSA,2124,293312.878;2124,293312.877755000,00000077,64435,204,454,-16141,-20,-125*8786bf92
%RAWIMUSA,2124,293312.888;2124,293312.887755000,00000077,64444,174,474,-16125,-8,-123*0893ed49
%RAWIMUSA,2124,293312.898;2124,293312.897755000,00000077,64408,146,413,-16166,-13,-114*322ffce4
%RAWIMUSA,2124,293312.908;2124,293312.907755000,00000077,64371,188,434,-16146,-22,-123*2b2f7165
%RAWIMUSA,2124,293312.918;2124,293312.917755000,00000077,64439,181,427,-16149,-11,-124*185c92a3
%RAWIMUSA,2124,293312.928;2124,293312.927755000,00000077,64377,213,439,-16155,-17,-103*de1600a4
%RAWIMUSA,2124,293312.938;2124,293312.937755000,00000077,64419,171,440,-16127,-16,-115*3ba56b2d
%RAWIMUSA,2124,293312.948;2124,293312.947755000,00000077,64380,192,377,-16144,-16,-131*79ec82cc
%RAWIMUSA,2124,293312.958;2124,293312.957755000,00000077,64467,104,354,-16160,-12,-120*9c46842d
%RAWIMUSA,2124,293312.968;2124,293312.967755000,00000077,64517,128,500,-16146,-1,-116*fc0b0d8b
%RAWIMUSA,2124,293312.978;2124,293312.977755000,00000077,64447,122,501,-16150,-21,-109*ca09921a
%RAWIMUSA,2124,293312.988;2124,293312.987755000,00000077,64413,96,457,-16141,-20,-113*9960cfc6
%RAWIMUSA,2124,293312.998;2124,293312.997755000,00000077,64418,252,446,-16142,-28,-144*730948b7
%RAWIMUSA,2124,293313.008;2124,293313.007755000,00000077,64424,221,364,-16134,-23,-116*c9a7b6d9
%RAWIMUSA,2124,293313.018;2124,293313.017755000,00000077,64423,294,406,-16147,-10,-117*a12c7681
%RAWIMUSA,2124,293313.028;2124,293313.027755000,00000077,64536,244,479,-16133,-7,-108*d1c04a4e
%RAWIMUSA,2124,293313.038;2124,293313.037755000,00000077,64422,185,481,-16145,-11,-112*0124dece
%RAWIMUSA,2124,293313.048;2124,293313.047755000,00000077,64498,235,366,-16137,-18,-124*fa90ba3b
%RAWIMUSA,2124,293313.058;2124,293313.057755000,00000077,64454,230,553,-16145,-29,-127*2bf55948
%RAWIMUSA,2124,293313.068;2124,293313.067755000,00000077,64416,311,470,-16147,-16,-116*e86d40b5
%RAWIMUSA,2124,293313.078;2124,293313.077755000,00000077,64483,172,458,-16151,-30,-117*c0493260
%RAWIMUSA,2124,293313.088;2124,293313.087755000,00000077,64390,246,329,-16141,-24,-129*39167988
%RAWIMUSA,2124,293313.098;2124,293313.097755000,00000077,64461,149,388,-16141,-17,-122*75159147
%RAWIMUSA,2124,293313.108;2124,293313.107755000,00000077,64465,242,500,-16137,0,-114*f95b359d
%RAWIMUSA,2124,293313.118;2124,293313.117755000,00000077,64437,285,393,-16132,-13,-125*4dcc5d56
%RAWIMUSA,2124,293313.128;2124,293313.127755000,00000077,64424,152,442,-16132,-18,-122*f23a6b7f
%RAWIMUSA,2124,293313.138;2124,293313.137755000,00000077,64443,188,465,-16136,-4,-107*41cb5ece
%RAWIMUSA,2124,293313.148;2124,293313.147755000,00000077,64487,195,427,-16149,-18,-121*2d0c22f6
%RAWIMUSA,2124,293313.158;2124,293313.157755000,00000077,64374,154,497,-16138,-15,-119*a66a1662
%RAWIMUSA,2124,293313.168;2124,293313.167755000,00000077,64464,84,439,-16142,-16,-121*28f1f173
%RAWIMUSA,2124,293313.178;2124,293313.177755000,00000077,64494,124,439,-16127,-16,-108*83a997f6
%RAWIMUSA,2124,293313.188;2124,293313.187755000,00000077,64440,206,384,-16139,-21,-117*3bc9ac2f
%RAWIMUSA,2124,293313.198;2124,293313.197755000,00000077,64505,213,467,-16146,-12,-120*58aa5b02
%RAWIMUSA,2124,293313.208;2124,293313.207755000,00000077,64425,184,472,-16150,-14,-121*c423ff42
%RAWIMUSA,2124,293313.218;2124,293313.217755000,00000077,64543,151,434,-16153,-12,-128*50a7e2fc
%RAWIMUSA,2124,293313.228;2124,293313.227755000,00000077,64437,148,468,-16135,-3,-121*a48d614f
%RAWIMUSA,2124,293313.238;2124,293313.237755000,00000077,64437,162,504,-16154,-19,-128*99d89231
%RAWIMUSA,2124,293313.248;2124,293313.247755000,00000077,64419,176,402,-16134,-11,-120*190f9557
%RAWIMUSA,2124,293313.258;2124,293313.257755000,00000077,64434,210,397,-16126,-18,-121*667b8131
%RAWIMUSA,2124,293313.268;2124,293313.267755000,00000077,64466,135,534,-16139,-15,-124*84eeb472
%RAWIMUSA,2124,293313.278;2124,293313.277755000,00000077,64445,143,448,-16139,-25,-125*eb5cdb17
%RAWIMUSA,2124,293313.288;2124,293313.287755000,00000077,64336,231,511,-16128,-13,-120*7033a5d1
%RAWIMUSA,2124,293313.298;2124,293313.297755000,00000077,64532,128,420,-16138,-19,-124*0842aa87
%RAWIMUSA,2124,293313.308;2124,293313.307755000,00000077,64516,138,520,-16155,-14,-126*f7c8d7f3
%RAWIMUSA,2124,293313.318;2124,293313.317755000,00000077,64395,174,474,-16153,-17,-127*c5a81aa0
%RAWIMUSA,2124,293313.328;2124,293313.327755000,00000077,64542,146,523,-16150,-32,-112*dc4ba9ed
%RAWIMUSA,2124,293313.338;2124,293313.337755000,00000077,64426,153,410,-16142,-4,-126*8bcea675
%RAWIMUSA,2124,293313.348;2124,293313.347755000,00000077,64415,169,432,-16123,-10,-126*cceb09f7
%RAWIMUSA,2124,293313.358;2124,293313.357755000,00000077,64531,73,490,-16153,-16,-120*146f645d
%RAWIMUSA,2124,293313.368;2124,293313.367755000,00000077,64465,175,531,-16141,-1,-132*f2c3ae7a
%RAWIMUSA,2124,293313.378;2124,293313.377755000,00000077,64437,218,445,-16145,-18,-122*4056c8b2
%RAWIMUSA,2124,293313.388;2124,293313.387755000,00000077,64455,118,357,-16147,-22,-119*7877eb25
%RAWIMUSA,2124,293313.398;2124,293313.397755000,00000077,64457,148,490,-16128,-13,-138*4a3cdfe9
%RAWIMUSA,2124,293313.408;2124,293313.407755000,00000077,64404,136,483,-16145,-12,-124*f9a84917
%RAWIMUSA,2124,293313.418;2124,293313.417755000,00000077,64456,127,533,-16147,-17,-121*1b189fd3
%RAWIMUSA,2124,293313.428;2124,293313.427755000,00000077,64472,219,438,-16133,-8,-121*1fe1e1bc
%RAWIMUSA,2124,293313.438;2124,293313.437755000,00000077,64446,178,445,-16157,-19,-127*0b12a469
%RAWIMUSA,2124,293313.448;2124,293313.447755000,00000077,64445,144,420,-16145,-22,-115*3c5e11dd
%RAWIMUSA,2124,293313.458;2124,293313.457755000,00000077,64367,113,515,-16147,-13,-142*a49be31d
%RAWIMUSA,2124,293313.468;2124,293313.467755000,00000077,64478,155,322,-16164,-13,-129*b6d18ee8
%RAWIMUSA,2124,293313.478;2124,293313.477755000,00000077,64301,228,445,-16140,-10,-116*bf3136a4
%RAWIMUSA,2124,293313.488;2124,293313.487755000,00000077,64457,164,455,-16154,-9,-114*6683bcc0
%RAWIMUSA,2124,293313.498;2124,293313.497755000,00000077,64415,306,434,-16140,-17,-118*0a02212d
%RAWIMUSA,2124,293313.508;2124,293313.507755000,00000077,64496,119,447,-16151,-12,-123*32cbd75a
%RAWIMUSA,2124,293313.518;2124,293313.517755000,00000077,64414,87,433,-16133,-18,-123*4aebc10e
%RAWIMUSA,2124,293313.528;2124,293313.527755000,00000077,64487,197,424,-16142,-25,-129*d22248f8
%RAWIMUSA,2124,293313.538;2124,293313.537755000,00000077,64523,245,373,-16136,-21,-136*e2e2ba70
%RAWIMUSA,2124,293313.548;2124,293313.547755000,00000077,64529,160,425,-16131,-12,-113*3862e4ce
%RAWIMUSA,2124,293313.558;2124,293313.557755000,00000077,64524,215,461,-16149,-24,-124*fd3ed633
%RAWIMUSA,2124,293313.568;2124,293313.567755000,00000077,64470,198,461,-16140,-14,-118*67c9aada
%RAWIMUSA,2124,293313.578;2124,293313.577755000,00000077,64497,231,419,-16133,-32,-124*07159d35
%RAWIMUSA,2124,293313.588;2124,293313.587755000,00000077,64456,126,442,-16162,-25,-111*428c6c9b
%RAWIMUSA,2124,293313.598;2124,293313.597755000,00000077,64496,242,479,-16161,-32,-115*1a325c28
%RAWIMUSA,2124,293313.608;2124,293313.607755000,00000077,64499,192,449,-16137,-12,-117*b30c8502
%RAWIMUSA,2124,293313.618;2124,293313.617755000,00000077,64430,170,368,-16151,-8,-118*9c943e62
%RAWIMUSA,2124,293313.628;2124,293313.627755000,00000077,64527,171,411,-16140,-17,-124*d5f22f4e
%RAWIMUSA,2124,293313.638;2124,293313.637755000,00000077,64539,230,392,-16150,-20,-110*36bd222e
%RAWIMUSA,2124,293313.648;2124,293313.647755000,00000077,64441,274,463,-16160,-17,-126*03703cd8
%RAWIMUSA,2124,293313.658;2124,293313.657755000,00000077,64519,213,447,-16165,-10,-139*aaf6a266
%RAWIMUSA,2124,293313.668;2124,293313.667755000,00000077,64431,99,423,-16136,-18,-111*60e3f0b0
%RAWIMUSA,2124,293313.678;2124,293313.677755000,00000077,64472,130,475,-16141,-23,-126*e398e0a3
%RAWIMUSA,2124,293313.688;2124,293313.687755000,00000077,64470,173,375,-16140,-21,-119*bfb2f797
%RAWIMUSA,2124,293313.698;2124,293313.697755000,00000077,64405,179,499,-16131,-22,-137*92538df3
%RAWIMUSA,2124,293313.708;2124,293313.707755000,00000077,64524,206,453,-16137,-23,-113*5097cdd3
%RAWIMUSA,2124,293313.718;2124,293313.717755000,00000077,64554,81,439,-16148,-13,-115*989cdcce
%RAWIMUSA,2124,293313.728;2124,293313.727755000,00000077,64421,145,442,-16147,-18,-111*b60d0498
%RAWIMUSA,2124,293313.738;2124,293313.737755000,00000077,64419,159,467,-16156,-34,-131*7ce5f242
%RAWIMUSA,2124,293313.748;2124,293313.747755000,00000077,64442,123,398,-16151,8,-133*28450585
%RAWIMUSA,2124,293313.758;2124,293313.757755000,00000077,64468,116,471,-16151,-17,-117*e540fe72
%RAWIMUSA,2124,293313.768;2124,293313.767755000,00000077,64463,132,382,-16151,-2,-123*c31edccc
%RAWIMUSA,2124,293313.778;2124,293313.777755000,00000077,64405,118,432,-16145,-11,-125*8bd58789
%RAWIMUSA,2124,293313.788;2124,293313.787755000,00000077,64466,255,468,-16138,-8,-128*e7298f59
%RAWIMUSA,2124,293313.798;2124,293313.797755000,00000077,64404,235,474,-16142,-14,-126*d8219c08
%RAWIMUSA,2124,293313.808;2124,293313.807755000,00000077,64423,115,405,-16149,-24,-123*97813672
%RAWIMUSA,2124,293313.818;2124,293313.817755000,00000077,64470,173,432,-16117,-17,-120*591c8ac6
%RAWIMUSA,2124,293313.828;2124,293313.827755000,00000077,64405,210,434,-16123,-18,-129*550a1382
%RAWIMUSA,2124,293313.838;2124,293313.837755000,00000077,64396,156,448,-16127,-19,-128*24338742
%RAWIMUSA,2124,293313.848;2124,293313.847755000,00000077,64517,99,445,-16117,-24,-113*d82dff0a
%RAWIMUSA,2124,293313.858;2124,293313.857755000,00000077,64447,133,402,-16144,-16,-138*72e92e87
%RAWIMUSA,2124,293313.868;2124,293313.867755000,00000077,64521,98,406,-16154,-9,-127*a89f14ad
%RAWIMUSA,2124,293313.878;2124,293313.877755000,00000077,64448,202,481,-16148,-14,-111*6bb4fb22
%RAWIMUSA,2124,293313.888;2124,293313.887755000,00000077,64399,200,432,-16152,-19,-130*599538ad
%RAWIMUSA,2124,293313.898;2124,293313.897755000,00000077,64402,229,445,-16134,-24,-129*4486beb8
%RAWIMUSA,2124,293313.908;2124,293313.907755000,00000077,64521,181,482,-16129,-1,-116*cad80081
%RAWIMUSA,2124,293313.918;2124,293313.917755000,00000077,64498,179,475,-16137,-13,-133*0487105f
%RAWIMUSA,2124,293313.928;2124,293313.927755000,00000077,64479,214,422,-16133,-28,-130*22c5394b
%RAWIMUSA,2124,293313.938;2124,293313.937755000,00000077,64491,228,359,-16126,-13,-128*26524959
%RAWIMUSA,2124,293313.948;2124,293313.947755000,00000077,64534,237,384,-16159,-28,-123*551930de
%RAWIMUSA,2124,293313.958;2124,293313.957755000,00000077,64430,195,476,-16141,-12,-120*4f8e9f8c
%RAWIMUSA,2124,293313.968;2124,293313.967755000,00000077,64450,136,388,-16156,-18,-127*37cb285c
%RAWIMUSA,2124,293313.978;2124,293313.977755000,00000077,64441,220,422,-16149,-6,-125*5b88a008
%RAWIMUSA,2124,293313.988;2124,293313.987755000,00000077,64449,184,507,-16138,-17,-126*8014a729
%RAWIMUSA,2124,293313.998;2124,293313.997755000,00000077,64559,114,402,-16142,-14,-120*ec860783
%RAWIMUSA,2124,293314.008;2124,293314.007755000,00000077,64486,241,505,-16138,-20,-119*7fda5bfa
%RAWIMUSA,2124,293314.018;2124,293314.017755000,00000077,64455,106,339,-16141,-21,-131*682304fc
%RAWIMUSA,2124,293314.028;2124,293314.027755000,00000077,64446,198,353,-16150,-10,-132*fc88b723
%RAWIMUSA,2124,293314.038;2124,293314.037755000,00000077,64489,154,388,-16162,-14,-123*a4f69426
%RAWIMUSA,2124,293314.048;2124,293314.047755000,00000077,64453,39,492,-16147,0,-109*a89d338e
%RAWIMUSA,2124,293314.058;2124,293314.057755000,00000077,64454,128,455,-16152,-21,-126*ab824898
%RAWIMUSA,2124,293314.068;2124,293314.067755000,00000077,64492,146,412,-16157,-14,-135*78a0e07b
%RAWIMUSA,2124,293314.078;2124,293314.077755000,00000077,64509,144,453,-16133,-26,-109*531be733
%RAWIMUSA,2124,293314.088;2124,293314.087755000,00000077,64465,148,370,-16144,-10,-107*8d3fbbd5
%RAWIMUSA,2124,293314.098;2124,293314.097755000,00000077,64508,70,407,-16133,-13,-129*1d4d7ed5
%RAWIMUSA,2124,293314.108;2124,293314.107755000,00000077,64316,110,437,-16127,-22,-103*62d22a99
%RAWIMUSA,2124,293314.118;2124,293314.117755000,00000077,64447,208,441,-16126,-22,-123*3e1e4dba
%RAWIMUSA,2124,293314.128;2124,293314.127755000,00000077,64373,115,373,-16122,-24,-127*ca389cca
%RAWIMUSA,2124,293314.138;2124,293314.137755000,00000077,64482,228,486,-16129,-10,-131*040493e8
%RAWIMUSA,2124,293314.148;2124,293314.147755000,00000077,64375,120,473,-16146,-12,-116*91fee438
%RAWIMUSA,2124,293314.158;2124,293314.157755000,00000077,64528,140,510,-16146,-13,-128*54e531f5
%RAWIMUSA,2124,293314.168;2124,293314.167755000,00000077,64345,180,475,-16147,-28,-108*a108dcb9
%RAWIMUSA,2124,293314.178;2124,293314.177755000,00000077,64475,136,396,-16144,-9,-126*075a178c
%RAWIMUSA,2124,293314.188;2124,293314.187755000,00000077,64369,316,449,-16127,-21,-119*8993bb05
%RAWIMUSA,2124,293314.198;2124,293314.197755000,00000077,64449,83,469,-16135,2,-131*944bcd98
%RAWIMUSA,2124,293314.208;2124,293314.207755000,00000077,64468,178,355,-16138,-17,-125*6e609199
%RAWIMUSA,2124,293314.218;2124,293314.217755000,00000077,64411,94,396,-16141,-23,-124*090691ba
%RAWIMUSA,2124,293314.228;2124,293314.227755000,00000077,64402,179,444,-16121,-27,-95*1d60c8a2
%RAWIMUSA,2124,293314.238;2124,293314.237755000,00000077,64493,193,396,-16140,-17,-115*7bce9303
%RAWIMUSA,2124,293314.248;2124,293314.247755000,00000077,64432,186,440,-16137,-20,-121*7cb1e2b9
%RAWIMUSA,2124,293314.258;2124,293314.257755000,00000077,64494,123,349,-16144,-23,-141*4db995ee
%RAWIMUSA,2124,293314.268;2124,293314.267755000,00000077,64465,167,473,-16154,-29,-123*2b0bd576
%RAWIMUSA,2124,293314.278;2124,293314.277755000,00000077,64424,216,341,-16144,-19,-126*e5b0c1c0
%RAWIMUSA,2124,293314.288;2124,293314.287755000,00000077,64367,255,362,-16134,-25,-119*353b28be
%RAWIMUSA,2124,293314.298;2124,293314.297755000,00000077,64443,93,443,-16138,-36,-113*c42c0b47
%RAWIMUSA,2124,293314.308;2124,293314.307755000,00000077,64400,150,477,-16140,-16,-139*be585597
%RAWIMUSA,2124,293314.318;2124,293314.317755000,00000077,64469,222,438,-16135,-27,-133*de6df614
%RAWIMUSA,2124,293314.328;2124,293314.327755000,00000077,64394,219,351,-16153,-11,-133*f94bdbc3
%RAWIMUSA,2124,293314.338;2124,293314.337755000,00000077,64467,148,522,-16149,-15,-130*f3b95700
%RAWIMUSA,2124,293314.348;2124,293314.347755000,00000077,64426,70,442,-16163,2,-122*f745fd94
%RAWIMUSA,2124,293314.358;2124,293314.357755000,00000077,64443,197,434,-16148,-14,-140*c377e201
%RAWIMUSA,2124,293314.368;2124,293314.367755000,00000077,64436,179,458,-16116,-27,-121*757a262f
%RAWIMUSA,2124,293314.378;2124,293314.377755000,00000077,64484,159,380,-16153,-13,-125*f1994765
%RAWIMUSA,2124,293314.388;2124,293314.387755000,00000077,64479,114,494,-16126,-24,-134*19ec8518
%RAWIMUSA,2124,293314.398;2124,293314.397755000,00000077,64387,143,452,-16115,-21,-118*b8f2d62e
%RAWIMUSA,2124,293314.408;2124,293314.407755000,00000077,64469,219,450,-16116,-18,-128*3e0f4a5d
%RAWIMUSA,2124,293314.418;2124,293314.417755000,00000077,64465,132,396,-16122,-27,-113*cb9128b1
%RAWIMUSA,2124,293314.428;2124,293314.427755000,00000077,64438,104,454,-16115,-16,-125*30017bc7
%RAWIMUSA,2124,293314.438;2124,293314.437755000,00000077,64514,136,436,-16134,-21,-111*15447c63
%RAWIMUSA,2124,293314.448;2124,293314.447755000,00000077,64512,180,388,-16136,-15,-120*a185513c
%RAWIMUSA,2124,293314.458;2124,293314.457755000,00000077,64343,205,439,-16129,0,-110*38789349
%RAWIMUSA,2124,293314.468;2124,293314.467755000,00000077,64319,205,482,-16141,-14,-129*345e439c
%RAWIMUSA,2124,293314.478;2124,293314.477755000,00000077,64473,253,481,-16150,-20,-129*36e9490f
%RAWIMUSA,2124,293314.488;2124,293314.487755000,00000077,64526,131,431,-16150,-15,-125*061b41ff
%RAWIMUSA,2124,293314.498;2124,293314.497755000,00000077,64507,229,474,-16139,-31,-126*b58e772a
%RAWIMUSA,2124,293314.508;2124,293314.507755000,00000077,64471,197,411,-16143,-12,-108*d329971e
%RAWIMUSA,2124,293314.518;2124,293314.517755000,00000077,64588,296,519,-16142,-27,-120*eac2c700
%RAWIMUSA,2124,293314.528;2124,293314.527755000,00000077,64370,217,444,-16144,-10,-129*e234f8d4
%RAWIMUSA,2124,293314.538;2124,293314.537755000,00000077,64517,183,444,-16150,-27,-134*df7c8296
%RAWIMUSA,2124,293314.548;2124,293314.547755000,00000077,64447,205,480,-16127,-8,-113*f1fc9391
%RAWIMUSA,2124,293314.558;2124,293314.557755000,00000077,64430,134,446,-16134,-25,-122*9f59a91f
%RAWIMUSA,2124,293314.568;2124,293314.567755000,00000077,64429,117,457,-16130,-7,-119*a9c93e57
%RAWIMUSA,2124,293314.578;2124,293314.577755000,00000077,64399,125,356,-16146,-15,-120*284d2d7a
%RAWIMUSA,2124,293314.588;2124,293314.587755000,00000077,64530,95,498,-16146,-1,-109*5a40122c
%RAWIMUSA,2124,293314.598;2124,293314.597755000,00000077,64431,117,397,-16145,-29,-117*49d86976
%RAWIMUSA,2124,293314.608;2124,293314.607755000,00000077,64512,298,446,-16144,-23,-113*d3533310
%RAWIMUSA,2124,293314.618;2124,293314.617755000,00000077,64406,169,359,-16138,-17,-125*95ce5268
%RAWIMUSA,2124,293314.628;2124,293314.627755000,00000077,64479,82,418,-16125,-3,-125*75fc6e22
%RAWIMUSA,2124,293314.638;2124,293314.637755000,00000077,64365,153,402,-16136,-14,-114*19cbc6cb
%RAWIMUSA,2124,293314.648;2124,293314.647755000,00000077,64479,178,465,-16126,-26,-135*f00f6f20
%RAWIMUSA,2124,293314.658;2124,293314.657755000,00000077,64390,120,437,-16118,-9,-137*9d5ade0b
%RAWIMUSA,2124,293314.668;2124,293314.667755000,00000077,64359,164,401,-16135,-18,-131*3f6588cb
%RAWIMUSA,2124,293314.678;2124,293314.677755000,00000077,64499,228,378,-16113,0,-131*53fa7a46
%RAWIMUSA,2124,293314.688;2124,293314.687755000,00000077,64442,154,518,-16121,-20,-138*9ea843eb
%RAWIMUSA,2124,293314.698;2124,293314.697755000,00000077,64387,146,396,-16147,-3,-139*10838c6a
%RAWIMUSA,2124,293314.708;2124,293314.707755000,00000077,64424,72,458,-16144,-30,-118*0dc49e08
%RAWIMUSA,2124,293314.718;2124,293314.717755000,00000077,64388,186,460,-16143,-17,-122*ee705d87
%RAWIMUSA,2124,293314.728;2124,293314.727755000,00000077,64515,41,456,-16147,-2,-125*8ae12f2d
%RAWIMUSA,2124,293314.738;2124,293314.737755000,00000077,64455,103,551,-16158,-18,-115*567feb1a
%RAWIMUSA,2124,293314.748;2124,293314.747755000,00000077,64428,172,525,-16135,-18,-109*343551bd
%RAWIMUSA,2124,293314.758;2124,293314.757755000,00000077,64572,115,394,-16147,-24,-131*a03e05a9
%RAWIMUSA,2124,293314.768;2124,293314.767755000,00000077,64516,213,419,-16156,-19,-131*4230373b
%RAWIMUSA,2124,293314.778;2124,293314.777755000,00000077,64458,197,434,-16162,-15,-124*3cbd34d5
%RAWIMUSA,2124,293314.788;2124,293314.787755000,00000077,64474,210,406,-16142,-26,-113*84b64a02
%RAWIMUSA,2124,293314.798;2124,293314.797755000,00000077,64517,213,498,-16143,-19,-111*da889bda
%RAWIMUSA,2124,293314.808;2124,293314.807755000,00000077,64399,152,466,-16147,-24,-113*0f9b903a
%RAWIMUSA,2124,293314.818;2124,293314.817755000,00000077,64481,57,373,-16144,-15,-110*b8973600
%RAWIMUSA,2124,293314.828;2124,293314.827755000,00000077,64371,136,466,-16140,-15,-121*87b08e67
%RAWIMUSA,2124,293314.838;2124,293314.837755000,00000077,64473,91,461,-16144,-28,-122*e1f84290
%RAWIMUSA,2124,293314.848;2124,293314.847755000,00000077,64391,162,374,-16143,-19,-129*c3f496a0
%RAWIMUSA,2124,293314.858;2124,293314.857755000,00000077,64599,155,489,-16142,-28,-109*b34c5ec4
%RAWIMUSA,2124,293314.868;2124,293314.867755000,00000077,64400,209,370,-16147,-5,-122*a17df7d8
%RAWIMUSA,2124,293314.878;2124,293314.877755000,00000077,64339,179,462,-16143,-12,-115*e6024bd3
%RAWIMUSA,2124,293314.888;2124,293314.887755000,00000077,64490,149,442,-16146,-3,-124*3f71a9a6
%RAWIMUSA,2124,293314.898;2124,293314.897755000,00000077,64478,137,318,-16135,-26,-129*80c2a6fb
%RAWIMUSA,2124,293314.908;2124,293314.907755000,00000077,64481,208,354,-16138,-5,-118*7f10fb0b
%RAWIMUSA,2124,293314.918;2124,293314.917755000,00000077,64440,119,448,-16128,-23,-121*c0057019
%RAWIMUSA,2124,293314.928;2124,293314.927755000,00000077,64434,229,488,-16130,-20,-128*d7505b46
%RAWIMUSA,2124,293314.938;2124,293314.937755000,00000077,64406,172,367,-16132,-13,-104*f2b38882
%RAWIMUSA,2124,293314.948;2124,293314.947755000,00000077,64503,209,410,-16133,-25,-119*c6f5c3d7
%RAWIMUSA,2124,293314.958;2124,293314.957755000,00000077,64380,156,426,-16119,-12,-140*78610033
%RAWIMUSA,2124,293314.968;2124,293314.967755000,00000077,64447,168,469,-16134,-21,-107*967cec72
%RAWIMUSA,2124,293314.978;2124,293314.977755000,00000077,64364,108,425,-16136,-20,-130*cb65165e
%RAWIMUSA,2124,293314.988;2124,293314.987755000,00000077,64511,193,414,-16117,-10,-117*fe2f25db
%RAWIMUSA,2124,293314.998;2124,293314.997755000,00000077,64460,92,466,-16113,-30,-143*362a7c8f
%RAWIMUSA,2124,293315.008;2124,293315.007755000,00000077,64463,169,563,-16144,-21,-112*3d45c88a
%RAWIMUSA,2124,293315.018;2124,293315.017755000,00000077,64417,174,481,-16164,-19,-137*4570c757
%RAWIMUSA,2124,293315.028;2124,293315.027755000,00000077,64508,235,503,-16152,-7,-119*e43a3686
%RAWIMUSA,2124,293315.038;2124,293315.037755000,00000077,64504,132,522,-16153,-24,-128*c915dfde
%RAWIMUSA,2124,293315.048;2124,293315.047755000,00000077,64450,257,480,-16151,-7,-111*7d4deee3
%RAWIMUSA,2124,293315.058;2124,293315.057755000,00000077,64420,177,430,-16129,-12,-143*f8fd3002
%RAWIMUSA,2124,293315.068;2124,293315.067755000,00000077,64424,128,413,-16140,-16,-106*83fb02cf
%RAWIMUSA,2124,293315.078;2124,293315.077755000,00000077,64454,87,399,-16139,-26,-135*11499cd2
%RAWIMUSA,2124,293315.088;2124,293315.087755000,00000077,64536,199,336,-16152,-30,-96*c4b4ef2b
%RAWIMUSA,2124,293315.098;2124,293315.097755000,00000077,64462,141,535,-16146,-35,-139*60bd0638
%RAWIMUSA,2124,293315.108;2124,293315.107755000,00000077,64490,215,354,-16139,-18,-107*e76a5928
%RAWIMUSA,2124,293315.118;2124,293315.117755000,00000077,64449,188,530,-16138,-18,-138*0b276646
%RAWIMUSA,2124,293315.128;2124,293315.127755000,00000077,64476,169,408,-16145,-17,-125*9450caca
%RAWIMUSA,2124,293315.138;2124,293315.137755000,00000077,64430,100,400,-16145,-26,-127*d6a666e9
%RAWIMUSA,2124,293315.148;2124,293315.147755000,00000077,64471,145,451,-16144,-19,-93*d525a53a
%RAWIMUSA,2124,293315.158;2124,293315.157755000,00000077,64454,131,403,-16150,-11,-148*beef45d9
%RAWIMUSA,2124,293315.168;2124,293315.167755000,00000077,64475,226,395,-16152,-12,-107*2fe1b97e
%RAWIMUSA,2124,293315.178;2124,293315.177755000,00000077,64349,63,451,-16149,-11,-150*259f78ce
%RAWIMUSA,2124,293315.188;2124,293315.187755000,00000077,64380,86,441,-16149,-11,-104*9a522c34
%RAWIMUSA,2124,293315.198;2124,293315.197755000,00000077,64487,98,527,-16136,-15,-143*b9bfa49c
